{"lat":-1.75,"lon":101.5,"programs":["sota"],"count":8,"references":[{"code":"YBS/JA-069","program":"sota","name":"YBS/JA-069","coordinates":[101.6494,-1.7119]},{"code":"YBS/JA-072","program":"sota","name":"Bukit Kemulau","coordinates":[101.7253,-1.7272]},{"code":"YBS/JA-133","program":"sota","name":"YBS/JA-133","coordinates":[101.7453,-1.6622]},{"code":"YBS/JA-139","program":"sota","name":"Bukit Batu Buruk","coordinates":[101.7453,-1.6344]},{"code":"YBS/JA-143","program":"sota","name":"Bukit Tinggi","coordinates":[101.6733,-1.5447]},{"code":"YBS/JA-145","program":"sota","name":"YBS/JA-145","coordinates":[101.7354,-1.6791]},{"code":"YBS/JA-161","program":"sota","name":"YBS/JA-161","coordinates":[101.7245,-1.6128]},{"code":"YBS/SB-433","program":"sota","name":"YBS/SB-433","coordinates":[101.5943,-1.5147]}]}