{"lat":-10.75,"lon":-40.5,"programs":["sota"],"count":9,"references":[{"code":"PY6/CN-061","program":"sota","name":"Serra da Paciência","coordinates":[-40.3689,-10.6206]},{"code":"PY6/CN-062","program":"sota","name":"Serra da Jacobina","coordinates":[-40.4092,-10.6942]},{"code":"PY6/CN-068","program":"sota","name":"Serra da Jacobina","coordinates":[-40.3758,-10.6758]},{"code":"PY6/CN-091","program":"sota","name":"Serra da Jacobina","coordinates":[-40.4097,-10.6708]},{"code":"PY6/CN-096","program":"sota","name":"Serra do Tabuleiro","coordinates":[-40.4383,-10.6944]},{"code":"PY6/CN-098","program":"sota","name":"Serra de Santo Antônio","coordinates":[-40.4193,-10.5578]},{"code":"PY6/CN-153","program":"sota","name":"Morro Rosa-Sol","coordinates":[-40.2544,-10.6842]},{"code":"PY6/CN-169","program":"sota","name":"Serra da Jacobina","coordinates":[-40.3428,-10.6411]},{"code":"PY6/CN-189","program":"sota","name":"Serra da Lajinha","coordinates":[-40.2947,-10.5806]}]}