{"lat":-10,"lon":-68,"programs":["pota"],"count":7,"references":[{"code":"BR-0676","program":"pota","name":"Fundação Municipal de Cultura Garibaldi Brasil Park","coordinates":[-67.832,-9.95443]},{"code":"BR-0677","program":"pota","name":"Horto Florestal de Rio Branco Park","coordinates":[-67.828,-9.94589]},{"code":"BR-0679","program":"pota","name":"Bonsucesso Park","coordinates":[-67.8372,-9.98891]},{"code":"BR-0680","program":"pota","name":"Capitão Ciríaco Park","coordinates":[-67.8041,-9.98176]},{"code":"BR-0681","program":"pota","name":"Maternidade Park","coordinates":[-67.808,-9.96736]},{"code":"BR-0682","program":"pota","name":"Tucumã Park","coordinates":[-67.8633,-9.95107]},{"code":"BR-0683","program":"pota","name":"Village Park","coordinates":[-67.8346,-9.96151]}]}