{"lat":-11.75,"lon":-47.5,"programs":["sota"],"count":10,"references":[{"code":"PQ2/DN-068","program":"sota","name":"Serra da Vaca Brava - Norte","coordinates":[-47.4529,-11.5152]},{"code":"PQ2/DN-090","program":"sota","name":"Serra da Vaca Brava - Central","coordinates":[-47.4663,-11.6138]},{"code":"PQ2/DN-099","program":"sota","name":"Serra da Vaca Brava - Sul","coordinates":[-47.4921,-11.6547]},{"code":"PQ2/DN-100","program":"sota","name":"Serra do Quilombo","coordinates":[-47.4981,-11.5086]},{"code":"PQ2/DN-115","program":"sota","name":"Serra Dourada","coordinates":[-47.3637,-11.5764]},{"code":"PQ2/DN-116","program":"sota","name":"Serra do Piauí","coordinates":[-47.3326,-11.537]},{"code":"PQ2/DN-150","program":"sota","name":"Morro do Saco dos Bois - Leste","coordinates":[-47.4179,-11.6322]},{"code":"PQ2/DN-155","program":"sota","name":"Morro do Cachimbo","coordinates":[-47.4114,-11.6051]},{"code":"PQ2/DN-160","program":"sota","name":"Serra de Sta Clara - Norte","coordinates":[-47.4794,-11.733]},{"code":"PQ2/DN-161","program":"sota","name":"Morro do Saco dos Bois - Oeste","coordinates":[-47.4332,-11.6198]}]}