{"lat":-12.75,"lon":-41.75,"programs":["sota"],"count":11,"references":[{"code":"PY6/CS-023","program":"sota","name":"Serra do Esbarrancado","coordinates":[-41.5242,-12.7097]},{"code":"PY6/CS-031","program":"sota","name":"Serra do Esbarrancado","coordinates":[-41.5183,-12.7292]},{"code":"PY6/CS-042","program":"sota","name":"Serra do Esbarrancado","coordinates":[-41.5236,-12.6717]},{"code":"PY6/CS-091","program":"sota","name":"Serra do Rio Preto","coordinates":[-41.5553,-12.6325]},{"code":"PY6/CS-097","program":"sota","name":"Serra da Passaginha","coordinates":[-41.5583,-12.6133]},{"code":"PY6/CS-110","program":"sota","name":"Serra Negra","coordinates":[-41.6078,-12.6156]},{"code":"PY6/CS-122","program":"sota","name":"PY6/CS-122","coordinates":[-41.6286,-12.6044]},{"code":"PY6/CS-126","program":"sota","name":"Serra do Candoba","coordinates":[-41.5208,-12.6533]},{"code":"PY6/CS-137","program":"sota","name":"Morro do Preá","coordinates":[-41.585,-12.6392]},{"code":"PY6/CS-166","program":"sota","name":"Serra do Piauí","coordinates":[-41.5931,-12.6025]},{"code":"PY6/CS-212","program":"sota","name":"Serra da Chapada","coordinates":[-41.5164,-12.5917]}]}