{"lat":-12.5,"lon":130.5,"programs":["pota"],"count":12,"references":[{"code":"AU-8741","program":"pota","name":"lmaluk Beach (E) State Beach","coordinates":[130.734,-12.428]},{"code":"AU-8742","program":"pota","name":"lmaluk Beach State Beach","coordinates":[130.715,-12.424]},{"code":"AU-8743","program":"pota","name":"Two Fella Creek (east) State Beach","coordinates":[130.71,-12.422]},{"code":"AU-8745","program":"pota","name":"Two Fella Creek (west) State Beach","coordinates":[130.703,-12.414]},{"code":"AU-8747","program":"pota","name":"Harveys Beach (east) State Beach","coordinates":[130.68,-12.414]},{"code":"AU-8748","program":"pota","name":"Harveys Beach State Beach","coordinates":[130.67,-12.406]},{"code":"AU-8749","program":"pota","name":"Harveys Beach (W1) State Beach","coordinates":[130.659,-12.401]},{"code":"AU-8750","program":"pota","name":"Harveys Beach (W2) State Beach","coordinates":[130.654,-12.397]},{"code":"AU-8752","program":"pota","name":"Point Charles (east 3) State Beach","coordinates":[130.643,-12.392]},{"code":"AU-8754","program":"pota","name":"Point Charles (east 2) State Beach","coordinates":[130.633,-12.389]},{"code":"AU-8756","program":"pota","name":"Point Charles ( east 1) State Beach","coordinates":[130.627,-12.389]},{"code":"AU-8758","program":"pota","name":"Point Charles (west ) State Beach","coordinates":[130.613,-12.391]}]}