{"lat":-12.5,"lon":130.75,"programs":["pota"],"count":15,"references":[{"code":"AU-1565","program":"pota","name":"Knuckey Lagoons Conservation Reserve","coordinates":[130.944,-12.4356]},{"code":"AU-1575","program":"pota","name":"Holmes Jungle Nature Park","coordinates":[130.931,-12.4025]},{"code":"AU-1588","program":"pota","name":"Charles Darwin National Park","coordinates":[130.877,-12.4511]},{"code":"AU-3094","program":"pota","name":"Casuarina Coastal Park","coordinates":[130.873,-12.3479]},{"code":"AU-7740","program":"pota","name":"East Point Reserve","coordinates":[130.821,-12.4054]},{"code":"AU-8679","program":"pota","name":"Casuarina Beach State Beach","coordinates":[130.865,-12.363]},{"code":"AU-8680","program":"pota","name":"Casuarina Nudist Beach State Beach","coordinates":[130.87,-12.354]},{"code":"AU-8682","program":"pota","name":"Lee Point Beach State Beach","coordinates":[130.895,-12.329]},{"code":"AU-8689","program":"pota","name":"Mindil Beach State Beach","coordinates":[130.83,-12.445]},{"code":"AU-8690","program":"pota","name":"Cullen Beach State Beach","coordinates":[130.822,-12.449]},{"code":"AU-8691","program":"pota","name":"Vesteys Beach Fannie Bay State Beach","coordinates":[130.834,-12.432]},{"code":"AU-8692","program":"pota","name":"Mica Beach State Beach","coordinates":[130.777,-12.4783]},{"code":"AU-8693","program":"pota","name":"Kurumba Beach State Beach","coordinates":[130.776,-12.485]},{"code":"AU-8740","program":"pota","name":"Nightcliff Beach State Beach","coordinates":[130.846,-12.378]},{"code":"AU-8804","program":"pota","name":"East Point State Beach","coordinates":[130.817,-12.405]}]}