{"lat":-12.75,"lon":130.75,"programs":["pota"],"count":5,"references":[{"code":"AU-1589","program":"pota","name":"Channel Island Conservation Reserve","coordinates":[130.867,-12.5529]},{"code":"AU-1593","program":"pota","name":"Blackmore River Conservation Reserve","coordinates":[130.941,-12.7362]},{"code":"AU-1595","program":"pota","name":"Berry Springs Nature Park","coordinates":[130.998,-12.702]},{"code":"AU-8694","program":"pota","name":"Plater Beach State Beach","coordinates":[130.774,-12.504]},{"code":"AU-10109","program":"pota","name":"Darwin Harbour Conservation Park","coordinates":[130.84,-12.59]}]}