{"lat":-12.75,"lon":-48.75,"programs":["sota"],"count":8,"references":[{"code":"PQ2/GP-013","program":"sota","name":"Serra do Pontal","coordinates":[-48.5697,-12.7147]},{"code":"PQ2/GP-016","program":"sota","name":"Serra das Caldas Sul","coordinates":[-48.6745,-12.6856]},{"code":"PQ2/GP-023","program":"sota","name":"Serra do Cocalinho Sul","coordinates":[-48.6418,-12.7326]},{"code":"PQ2/GP-025","program":"sota","name":"Serra das Caldas Centro","coordinates":[-48.6477,-12.6219]},{"code":"PQ2/GP-030","program":"sota","name":"Serra das Caldas - Sul","coordinates":[-48.6616,-12.6509]},{"code":"PQ2/GP-036","program":"sota","name":"Serra do Pontal Norte","coordinates":[-48.5042,-12.5821]},{"code":"PQ2/GP-039","program":"sota","name":"Serra das Caldas - Norte","coordinates":[-48.6406,-12.5968]},{"code":"PQ2/GP-042","program":"sota","name":"Morro dos dias","coordinates":[-48.6016,-12.5891]}]}