{"lat":-12.75,"lon":-43.25,"programs":["sota"],"count":7,"references":[{"code":"PY6/SF-026","program":"sota","name":"Serra da Conceição","coordinates":[-43.034,-12.742]},{"code":"PY6/SF-057","program":"sota","name":"Serra Caldeirão dos Angicos","coordinates":[-43.088,-12.6525]},{"code":"PY6/SF-063","program":"sota","name":"Serra do Boqueirão","coordinates":[-43.088,-12.5344]},{"code":"PY6/SF-068","program":"sota","name":"Serra do Paulista","coordinates":[-43.0354,-12.515]},{"code":"PY6/SF-153","program":"sota","name":"Morro da Serra ou Morro do Tico","coordinates":[-43.2401,-12.5029]},{"code":"PY6/SF-158","program":"sota","name":"PY6/SF-158","coordinates":[-43.2233,-12.5478]},{"code":"PY6/SF-171","program":"sota","name":"Ponta do Morro","coordinates":[-43.2286,-12.6759]}]}