{"lat":-12.75,"lon":-43,"programs":["sota"],"count":6,"references":[{"code":"PY6/CS-213","program":"sota","name":"Serra do Engenho Velho","coordinates":[-42.8474,-12.5221]},{"code":"PY6/CS-226","program":"sota","name":"Serra do Pajeú","coordinates":[-42.7941,-12.7165]},{"code":"PY6/CS-256","program":"sota","name":"PY6/CS-256","coordinates":[-42.8541,-12.5825]},{"code":"PY6/SF-003","program":"sota","name":"Serra São Francisco","coordinates":[-42.9218,-12.525]},{"code":"PY6/SF-010","program":"sota","name":"Serra das Canas","coordinates":[-42.8989,-12.5878]},{"code":"PY6/SF-084","program":"sota","name":"Serra do Vento","coordinates":[-42.9979,-12.5242]}]}