{"lat":-13,"lon":-47.25,"programs":["sota"],"count":5,"references":[{"code":"PQ2/DN-009","program":"sota","name":"Serra de Arraias - Norte","coordinates":[-47.0103,-12.9325]},{"code":"PQ2/DN-016","program":"sota","name":"Serra Bela Vista","coordinates":[-47.0996,-12.9585]},{"code":"PQ2/DN-023","program":"sota","name":"Serra Branca ou de Arraias - Leste","coordinates":[-47.109,-12.8682]},{"code":"PQ2/DN-051","program":"sota","name":"Serra Branca ou de Arraias - (Oeste)","coordinates":[-47.1711,-12.851]},{"code":"PQ2/DN-064","program":"sota","name":"Serra Branca ou de Arraias - PQ2/DN-064","coordinates":[-47.2403,-12.8392]}]}