{"lat":-13,"lon":-38.75,"programs":["pota"],"count":6,"references":[{"code":"BR-0518","program":"pota","name":"Dique Tororó Park","coordinates":[-38.5063,-12.9845]},{"code":"BR-0721","program":"pota","name":"Ilha dos Frades Park","coordinates":[-38.6373,-12.7853]},{"code":"BR-0726","program":"pota","name":"Dique do Tororó Park","coordinates":[-38.5063,-12.9845]},{"code":"BR-0728","program":"pota","name":"Ilha de Maré Park","coordinates":[-38.5333,-12.7667]},{"code":"BR-0738","program":"pota","name":"Boa Viagem State Beach","coordinates":[-38.5099,-12.9351]},{"code":"BR-0744","program":"pota","name":"Paramana State Beach","coordinates":[-38.6207,-12.7722]}]}