{"lat":-13.25,"lon":-47,"programs":["sota"],"count":11,"references":[{"code":"PP2/CV-047","program":"sota","name":"Serra da Roça Grande","coordinates":[-46.8683,-13.1452]},{"code":"PP2/CV-075","program":"sota","name":"Serra das Gerais","coordinates":[-46.7626,-13.0138]},{"code":"PP2/CV-089","program":"sota","name":"PP2/CV-089","coordinates":[-46.7916,-13.0474]},{"code":"PP2/CV-096","program":"sota","name":"Serra das Almas","coordinates":[-46.8069,-13.0308]},{"code":"PP2/CV-128","program":"sota","name":"PP2/CV-128","coordinates":[-46.8248,-13.1671]},{"code":"PP2/CV-131","program":"sota","name":"Morro da Cruz","coordinates":[-46.8968,-13.2474]},{"code":"PP2/CV-142","program":"sota","name":"Morro do Barrocão","coordinates":[-46.9136,-13.2116]},{"code":"PQ2/DN-011","program":"sota","name":"Serra de Arraias - Sul","coordinates":[-46.9536,-13.0057]},{"code":"PQ2/DN-019","program":"sota","name":"Morro Chupeteiro - Sul","coordinates":[-46.9155,-13.0218]},{"code":"PQ2/DN-041","program":"sota","name":"Serra das Almas - Oeste","coordinates":[-46.8538,-13.0215]},{"code":"PQ2/DN-066","program":"sota","name":"Serra das Almas - Leste","coordinates":[-46.8388,-13.0242]}]}