{"lat":-14.25,"lon":-41.75,"programs":["sota"],"count":8,"references":[{"code":"PY6/CS-248","program":"sota","name":"Morro da Magnesita","coordinates":[-41.724,-14.1811]},{"code":"PY6/CS-258","program":"sota","name":"Serra das Éguas","coordinates":[-41.7442,-14.2075]},{"code":"PY6/CS-286","program":"sota","name":"PY6/CS-286","coordinates":[-41.6836,-14.1072]},{"code":"PY6/CS-378","program":"sota","name":"Serra do Paracatu","coordinates":[-41.5733,-14.1419]},{"code":"PY6/CS-399","program":"sota","name":"Serra da Franga","coordinates":[-41.5794,-14.2181]},{"code":"PY6/CS-419","program":"sota","name":"Serra Deus Me Livre","coordinates":[-41.6201,-14.0914]},{"code":"PY6/CS-453","program":"sota","name":"Morro do Mandacaru","coordinates":[-41.6622,-14.0678]},{"code":"PY6/CS-456","program":"sota","name":"PY6/CS-456","coordinates":[-41.5036,-14.1294]}]}