{"lat":-14,"lon":-42,"programs":["sota"],"count":10,"references":[{"code":"PY6/CS-341","program":"sota","name":"Serra da Baixinha","coordinates":[-41.8808,-13.8628]},{"code":"PY6/CS-349","program":"sota","name":"Morro da Campanha","coordinates":[-41.9667,-13.81]},{"code":"PY6/CS-358","program":"sota","name":"Serra Lagoa das Pedras","coordinates":[-41.9203,-13.8217]},{"code":"PY6/CS-364","program":"sota","name":"Serra do Pelado","coordinates":[-41.8325,-13.9044]},{"code":"PY6/CS-379","program":"sota","name":"Morro Velho","coordinates":[-41.9531,-13.8642]},{"code":"PY6/CS-387","program":"sota","name":"Morro do Corisco","coordinates":[-41.9433,-13.9525]},{"code":"PY6/CS-401","program":"sota","name":"Morro Canela da Ema","coordinates":[-41.9878,-13.7894]},{"code":"PY6/CS-411","program":"sota","name":"Serra do Simão","coordinates":[-41.8967,-13.9925]},{"code":"PY6/CS-416","program":"sota","name":"PY6/CS-416","coordinates":[-41.9605,-13.9128]},{"code":"PY6/CS-417","program":"sota","name":"Serra Alegre","coordinates":[-41.7767,-13.8786]}]}