{"lat":-16.25,"lon":145.25,"programs":["pota","sota"],"count":13,"references":[{"code":"AU-6376","program":"pota","name":"Fan Palm Reserve","coordinates":[145.419,-16.1999]},{"code":"AU-9111","program":"pota","name":"Cow Bay State Beach","coordinates":[145.469,-16.2328]},{"code":"AU-9112","program":"pota","name":"Thornton State Beach","coordinates":[145.443,-16.1697]},{"code":"AU-9113","program":"pota","name":"Noah State Beach","coordinates":[145.452,-16.1352]},{"code":"AU-9114","program":"pota","name":"Myall State Beach","coordinates":[145.469,-16.0851]},{"code":"AU-9115","program":"pota","name":"Crocodile State Beach","coordinates":[145.47,-16.0767]},{"code":"VK4/NT-005","program":"sota","name":"Thornton Reak","coordinates":[145.37408,-16.16424]},{"code":"VK4/NT-039","program":"sota","name":"Daintree NP 1","coordinates":[145.41658,-16.11283]},{"code":"VK4/NT-065","program":"sota","name":"Mt Pieter Botte","coordinates":[145.40657,-16.07234]},{"code":"VK4/NT-110","program":"sota","name":"Zig Zag Timber Reserve","coordinates":[145.33517,-16.008]},{"code":"VK4/NT-133","program":"sota","name":"Mt Donovan","coordinates":[145.41415,-16.0205]},{"code":"VK4/NT-151","program":"sota","name":"China Camp","coordinates":[145.33458,-16.05513]},{"code":"VK4/NT-229","program":"sota","name":"Bailey Point","coordinates":[145.46185,-16.21374]}]}