{"lat":-16.5,"lon":145,"programs":["pota","sota"],"count":7,"references":[{"code":"AU-1175","program":"pota","name":"Mount Spurgeon National Park","coordinates":[145.204,-16.4353]},{"code":"VK4/NT-006","program":"sota","name":"Black Mtn","coordinates":[145.20554,-16.39567]},{"code":"VK4/NT-030","program":"sota","name":"Mt Lewis Forest Res C189","coordinates":[145.14224,-16.47609]},{"code":"VK4/NT-033","program":"sota","name":"Mt Lewis Forest Res 3","coordinates":[145.1767,-16.49795]},{"code":"VK4/NT-142","program":"sota","name":"Spencer Creek","coordinates":[145.10156,-16.36608]},{"code":"VK4/NT-158","program":"sota","name":"Burtons Ridge","coordinates":[145.10207,-16.47718]},{"code":"VK4/NT-172","program":"sota","name":"Daintree NP 2","coordinates":[145.21933,-16.25342]}]}