{"lat":-16,"lon":-40.25,"programs":["sota"],"count":8,"references":[{"code":"PY4/JQ-517","program":"sota","name":"PY4/JQ-517","coordinates":[-40.24965,-15.90215]},{"code":"PY4/JQ-524","program":"sota","name":"Morro Grande","coordinates":[-40.11657,-15.95722]},{"code":"PY6/JV-344","program":"sota","name":"Serra do Buri","coordinates":[-40.1939,-15.8269]},{"code":"PY6/JV-370","program":"sota","name":"Serra Rancho Queimado","coordinates":[-40.1161,-15.7633]},{"code":"PY6/JV-392","program":"sota","name":"Serra do Felícimo","coordinates":[-40.1067,-15.8097]},{"code":"PY6/JV-434","program":"sota","name":"Serra do Buri","coordinates":[-40.1953,-15.8036]},{"code":"PY6/JV-470","program":"sota","name":"Serra do Biguá","coordinates":[-40.1758,-15.8386]},{"code":"PY6/JV-497","program":"sota","name":"Serra da Divisa","coordinates":[-40.0186,-15.9525]}]}