{"lat":-17.75,"lon":145.5,"programs":["pota","sota"],"count":8,"references":[{"code":"AU-1042","program":"pota","name":"Tully Falls National Park","coordinates":[145.583,-17.6863]},{"code":"AU-1241","program":"pota","name":"Malaan National Park","coordinates":[145.546,-17.5646]},{"code":"AU-3333","program":"pota","name":"Mount Fisher Forest Reserve","coordinates":[145.538,-17.5751]},{"code":"AU-3338","program":"pota","name":"Tully Falls Forest Reserve","coordinates":[145.593,-17.6247]},{"code":"VK4/NT-003","program":"sota","name":"Mt Millaa Millaa","coordinates":[145.54619,-17.55618]},{"code":"VK4/NT-017","program":"sota","name":"Tully Gorge NP","coordinates":[145.55344,-17.6569]},{"code":"VK4/NT-031","program":"sota","name":"Mt Father Clancy","coordinates":[145.63348,-17.5882]},{"code":"VK4/NT-073","program":"sota","name":"Hill Range","coordinates":[145.71362,-17.69307]}]}