{"lat":-18,"lon":145.5,"programs":["pota","sota"],"count":9,"references":[{"code":"AU-1041","program":"pota","name":"Tully Gorge National Park","coordinates":[145.726,-17.7787]},{"code":"AU-1270","program":"pota","name":"Koombooloomba National Park","coordinates":[145.644,-17.9309]},{"code":"AU-1271","program":"pota","name":"Koombooloomba Conservation Park","coordinates":[145.596,-17.8351]},{"code":"AU-3324","program":"pota","name":"Koombooloomba South Forest Reserve","coordinates":[145.539,-17.9093]},{"code":"VK4/NT-034","program":"sota","name":"Cardwell Range 3","coordinates":[145.68361,-17.89994]},{"code":"VK4/NT-050","program":"sota","name":"Koombooloomba Forest Res","coordinates":[145.58315,-17.94717]},{"code":"VK4/NT-061","program":"sota","name":"Mt Cullumbullum","coordinates":[145.73619,-17.77948]},{"code":"VK4/NT-063","program":"sota","name":"Mt Kooroomool","coordinates":[145.65775,-17.82226]},{"code":"VK4/NT-216","program":"sota","name":"Cardwell Range 6","coordinates":[145.7436,-17.92374]}]}