{"lat":-18.25,"lon":146,"programs":["pota","sota"],"count":5,"references":[{"code":"AU-1330","program":"pota","name":"Goold Island National Park","coordinates":[146.171,-18.1665]},{"code":"AU-6387","program":"pota","name":"Gulngay National Park","coordinates":[146.018,-18.0348]},{"code":"AU-9076","program":"pota","name":"Yingalinda State Beach","coordinates":[146.035,-18.06]},{"code":"AU-9077","program":"pota","name":"Googarra State Beach","coordinates":[146.062,-18.0103]},{"code":"VK4/NT-202","program":"sota","name":"Goold Island NP B552","coordinates":[146.16801,-18.16507]}]}