{"lat":-18,"lon":145.75,"programs":["pota","sota"],"count":15,"references":[{"code":"AU-1035","program":"pota","name":"Walter Hill Range Conservation Park","coordinates":[145.992,-17.847]},{"code":"AU-1183","program":"pota","name":"Mount Mackay National Park","coordinates":[145.976,-17.9429]},{"code":"AU-1290","program":"pota","name":"Japoon National Park","coordinates":[145.895,-17.7779]},{"code":"AU-1291","program":"pota","name":"Jalum Conservation Park","coordinates":[145.829,-17.9882]},{"code":"AU-3310","program":"pota","name":"Alcock Forest Reserve","coordinates":[145.926,-17.8709]},{"code":"AU-3322","program":"pota","name":"Japoon Forest Reserve","coordinates":[145.98,-17.8402]},{"code":"AU-10575","program":"pota","name":"Tully National Wild and Scenic River","coordinates":[145.942,-17.9932]},{"code":"VK4/NT-025","program":"sota","name":"Walter Hill Range 1","coordinates":[145.9034,-17.81827]},{"code":"VK4/NT-036","program":"sota","name":"Mt Marquette","coordinates":[145.84744,-17.81592]},{"code":"VK4/NT-154","program":"sota","name":"Mt Mackay","coordinates":[145.97375,-17.94611]},{"code":"VK4/NT-160","program":"sota","name":"Mt Tyson","coordinates":[145.88832,-17.8941]},{"code":"VK4/NT-180","program":"sota","name":"Walter Hill Range 4","coordinates":[145.91376,-17.76104]},{"code":"VK4/NT-223","program":"sota","name":"Djarawong","coordinates":[145.99971,-17.86646]},{"code":"VK4/NT-227","program":"sota","name":"Quatia","coordinates":[145.98868,-17.79719]},{"code":"VK4/NT-245","program":"sota","name":"Dingo Pocket","coordinates":[145.8222,-17.92554]}]}