{"lat":-18.5,"lon":146.25,"programs":["pota","sota"],"count":9,"references":[{"code":"AU-10041","program":"pota","name":"Thorsborne State Trail","coordinates":[146.274,-18.3121]},{"code":"VK4/NT-028","program":"sota","name":"Mt Bowen (H.I.)","coordinates":[146.26697,-18.35727]},{"code":"VK4/NT-066","program":"sota","name":"Mt Diamantina (Hinchinbrook Is)","coordinates":[146.29471,-18.42841]},{"code":"VK4/NT-077","program":"sota","name":"Mt Stralach (Hinchinbrook Is)","coordinates":[146.29233,-18.45606]},{"code":"VK4/NT-080","program":"sota","name":"Hinchinbrook Is 1","coordinates":[146.25261,-18.37474]},{"code":"VK4/NT-087","program":"sota","name":"Hinchinbrook Is 2","coordinates":[146.27559,-18.40458]},{"code":"VK4/NT-090","program":"sota","name":"Hinchinbrook Is 3","coordinates":[146.2765,-18.39627]},{"code":"VK4/NT-189","program":"sota","name":"Hinchinbrook Is 4","coordinates":[146.25133,-18.4656]},{"code":"VK4/NT-196","program":"sota","name":"Hillcock Point (Hinchinbrook Is)","coordinates":[146.3297,-18.42077]}]}