{"lat":-18.75,"lon":145.75,"programs":["pota","sota"],"count":5,"references":[{"code":"AU-7384","program":"pota","name":"Lannercost State Forest","coordinates":[145.942,-18.6194]},{"code":"VK4/NH-044","program":"sota","name":"Mt Facing","coordinates":[145.91437,-18.53743]},{"code":"VK4/NH-071","program":"sota","name":"Lannercost","coordinates":[145.88065,-18.60186]},{"code":"VK4/NH-134","program":"sota","name":"Mt George","coordinates":[145.98,-18.53619]},{"code":"VK4/NH-144","program":"sota","name":"Nth of Mt Farquharson","coordinates":[145.94087,-18.51002]}]}