{"lat":-19.25,"lon":-41.75,"programs":["sota"],"count":13,"references":[{"code":"PY4/VL-002","program":"sota","name":"Serra do Pinhão","coordinates":[-41.58777,-19.2455]},{"code":"PY4/VL-343","program":"sota","name":"Pedra de Cuieté Velho","coordinates":[-41.64072,-19.23609]},{"code":"PY4/VL-419","program":"sota","name":"PY4/VL-419","coordinates":[-41.56329,-19.1639]},{"code":"PY4/VL-483","program":"sota","name":"Morro da Virgulina","coordinates":[-41.57206,-19.13807]},{"code":"PY4/VL-510","program":"sota","name":"PY4/VL-510","coordinates":[-41.5575,-19.14137]},{"code":"PY4/VO-335","program":"sota","name":"PY4/VO-335","coordinates":[-41.73222,-19.19722]},{"code":"PY4/VO-382","program":"sota","name":"Serra da Queiroga","coordinates":[-41.65028,-19.06057]},{"code":"PY4/VO-420","program":"sota","name":"Serra João Lana","coordinates":[-41.69019,-19.08688]},{"code":"PY4/VO-421","program":"sota","name":"Serra Córrego Alegre","coordinates":[-41.6439,-19.03881]},{"code":"PY4/VO-434","program":"sota","name":"Serra do Limoeiro","coordinates":[-41.70854,-19.03104]},{"code":"PY4/VO-450","program":"sota","name":"Serra do Parado","coordinates":[-41.70546,-19.07396]},{"code":"PY4/VO-460","program":"sota","name":"PY4/VO-460","coordinates":[-41.69377,-19.10947]},{"code":"PY4/VO-471","program":"sota","name":"PY4/VO-471","coordinates":[-41.63139,-19.13749]}]}