{"lat":-19.25,"lon":146.25,"programs":["pota","sota"],"count":10,"references":[{"code":"AU-1131","program":"pota","name":"Paluma Range National Park","coordinates":[146.341,-19.1548]},{"code":"AU-7060","program":"pota","name":"Upper Sleeper Log Creek Nature Refuge","coordinates":[146.471,-19.1697]},{"code":"AU-9120","program":"pota","name":"Balgal State Beach","coordinates":[146.41,-19.0166]},{"code":"AU-9121","program":"pota","name":"Toomulla State Beach","coordinates":[146.473,-19.0784]},{"code":"AU-10992","program":"pota","name":"Mt Spec Road and Little Crystal Creek Bridge State Heritage Area","coordinates":[146.266,-19.0156]},{"code":"VK4/NH-004","program":"sota","name":"Mt Halifax","coordinates":[146.37576,-19.11562]},{"code":"VK4/NH-009","program":"sota","name":"Paluma Forest Reserve  1","coordinates":[146.3555,-19.14991]},{"code":"VK4/NH-016","program":"sota","name":"Circle View Mtn","coordinates":[146.32626,-19.05344]},{"code":"VK4/NH-023","program":"sota","name":"Paluma Forest Reserve 2","coordinates":[146.41644,-19.24719]},{"code":"VK4/NH-073","program":"sota","name":"Clement State Forest","coordinates":[146.41064,-19.08617]}]}