{"lat":-20.25,"lon":148,"programs":["pota","sota"],"count":6,"references":[{"code":"AU-10561","program":"pota","name":"Quay Street State Beach","coordinates":[148.243,-20.0216]},{"code":"VK4/CW-162","program":"sota","name":"Mt Pring","coordinates":[148.09937,-20.03003]},{"code":"VK4/CW-182","program":"sota","name":"The Knobblers","coordinates":[148.18478,-20.24756]},{"code":"VK4/CW-230","program":"sota","name":"Mt Cavana","coordinates":[148.18057,-20.16603]},{"code":"VK4/CW-231","program":"sota","name":"Mt Buckley","coordinates":[148.08888,-20.16235]},{"code":"VK4/NH-143","program":"sota","name":"VK4/NH-143","coordinates":[148.03575,-20.068]}]}