{"lat":-20.25,"lon":-40.5,"programs":["pota","sota"],"count":20,"references":[{"code":"BR-0528","program":"pota","name":"Centro Ecológico Projeto Caiman. Antigo Parque Municipal da Fazendinha Ecological Reserve","coordinates":[-40.2733,-20.2425]},{"code":"PP1/LI-102","program":"sota","name":"Morro Kokó","coordinates":[-40.3872,-20.0008]},{"code":"PP1/LI-107","program":"sota","name":"PP1/LI-107","coordinates":[-40.365,-20.0071]},{"code":"PP1/LI-109","program":"sota","name":"Morro Santiago","coordinates":[-40.402,-20.0095]},{"code":"PP1/ST-064","program":"sota","name":"Serra da Andorinha","coordinates":[-40.4763,-20.0431]},{"code":"PP1/ST-070","program":"sota","name":"Morro do Mamão","coordinates":[-40.4591,-20.0677]},{"code":"PP1/ST-074","program":"sota","name":"Serra da Figueira","coordinates":[-40.4584,-20.0823]},{"code":"PP1/ST-075","program":"sota","name":"Serra Pelada","coordinates":[-40.4714,-20.0011]},{"code":"PP1/ST-094","program":"sota","name":"Serra da Samambaia","coordinates":[-40.491,-20.1906]},{"code":"PP1/ST-109","program":"sota","name":"PP1/ST-109","coordinates":[-40.4757,-20.1413]},{"code":"PP1/VI-002","program":"sota","name":"Serra Mês Alvo","coordinates":[-40.3136,-20.1699]},{"code":"PP1/VI-008","program":"sota","name":"Serra Mês Alvo","coordinates":[-40.3258,-20.1663]},{"code":"PP1/VI-010","program":"sota","name":"Serra Escalvada","coordinates":[-40.4777,-20.2387]},{"code":"PP1/VI-014","program":"sota","name":"Morro do Vilante","coordinates":[-40.3264,-20.1028]},{"code":"PP1/VI-015","program":"sota","name":"Morro do Céu","coordinates":[-40.3546,-20.132]},{"code":"PP1/VI-019","program":"sota","name":"PP1/VI-019","coordinates":[-40.377,-20.1686]},{"code":"PP1/VI-021","program":"sota","name":"Morro da Cavada","coordinates":[-40.3297,-20.1181]},{"code":"PP1/VI-025","program":"sota","name":"Morro Grande","coordinates":[-40.4178,-20.027]},{"code":"PP1/VI-027","program":"sota","name":"Morro das Araras","coordinates":[-40.4121,-20.0481]},{"code":"PP1/VI-034","program":"sota","name":"Morro Xavier","coordinates":[-40.3989,-20.0624]}]}