{"lat":-20.75,"lon":-42.5,"programs":["pota","sota"],"count":38,"references":[{"code":"BR-0217","program":"pota","name":"Serra do Brigadeiro State Park","coordinates":[-42.4688,-20.7218]},{"code":"PY4/ML-004","program":"sota","name":"Serra do Boné","coordinates":[-42.43417,-20.67367]},{"code":"PY4/ML-006","program":"sota","name":"Serra do Brigadeiro","coordinates":[-42.37696,-20.59884]},{"code":"PY4/ML-007","program":"sota","name":"Serra do Brigadeiro","coordinates":[-42.41073,-20.64234]},{"code":"PY4/ML-008","program":"sota","name":"Serra do Brigadeiro","coordinates":[-42.40215,-20.62349]},{"code":"PY4/ML-032","program":"sota","name":"Serra Pedra Bonita","coordinates":[-42.34311,-20.54277]},{"code":"PY4/ML-044","program":"sota","name":"Serra do Bom Fim","coordinates":[-42.38524,-20.65436]},{"code":"PY4/ML-049","program":"sota","name":"Serra do Ferreira","coordinates":[-42.25731,-20.56838]},{"code":"PY4/ML-053","program":"sota","name":"Pedra Bonita","coordinates":[-42.34422,-20.52513]},{"code":"PY4/ML-062","program":"sota","name":"PY4/ML-062","coordinates":[-42.38801,-20.52816]},{"code":"PY4/ML-066","program":"sota","name":"Serra do Indaiá","coordinates":[-42.25096,-20.51164]},{"code":"PY4/ML-085","program":"sota","name":"Morro da Pimenta","coordinates":[-42.25972,-20.50055]},{"code":"PY4/ML-093","program":"sota","name":"Pedra do Morcego","coordinates":[-42.38625,-20.53608]},{"code":"PY4/ML-097","program":"sota","name":"Beca","coordinates":[-42.27725,-20.54849]},{"code":"PY4/ML-104","program":"sota","name":"Serra do Bom Jesus","coordinates":[-42.31983,-20.54697]},{"code":"PY4/ML-162","program":"sota","name":"Serra Mantiqueira","coordinates":[-42.26905,-20.52971]},{"code":"PY4/ML-175","program":"sota","name":"PY4/ML-175","coordinates":[-42.29624,-20.59244]},{"code":"PY4/ML-187","program":"sota","name":"PY4/ML-187","coordinates":[-42.28634,-20.61338]},{"code":"PY4/ML-191","program":"sota","name":"PY4/ML-191","coordinates":[-42.32123,-20.70543]},{"code":"PY4/ML-193","program":"sota","name":"PY4/ML-193","coordinates":[-42.2621,-20.6095]},{"code":"PY4/ML-199","program":"sota","name":"PY4/ML-199","coordinates":[-42.41436,-20.71036]},{"code":"PY4/ML-226","program":"sota","name":"PY4/ML-226","coordinates":[-42.34264,-20.63881]},{"code":"PY4/ML-233","program":"sota","name":"PY4/ML-233","coordinates":[-42.28976,-20.62789]},{"code":"PY4/ML-234","program":"sota","name":"PY4/ML-234","coordinates":[-42.28428,-20.65539]},{"code":"PY4/ML-250","program":"sota","name":"PY4/ML-250","coordinates":[-42.31556,-20.74385]},{"code":"PY4/MO-001","program":"sota","name":"Pico do Soares","coordinates":[-42.41947,-20.66276]},{"code":"PY4/MO-002","program":"sota","name":"Serra das Cabeças","coordinates":[-42.47112,-20.69448]},{"code":"PY4/MO-003","program":"sota","name":"Serra do Matipó","coordinates":[-42.40777,-20.5775]},{"code":"PY4/MO-004","program":"sota","name":"Serra do São Lourenço","coordinates":[-42.45741,-20.68063]},{"code":"PY4/MO-005","program":"sota","name":"Serra do Brigadeiro","coordinates":[-42.4775,-20.68695]},{"code":"PY4/MO-006","program":"sota","name":"Serra do Matipozinho","coordinates":[-42.4333,-20.56611]},{"code":"PY4/MO-007","program":"sota","name":"PY4/MO-007","coordinates":[-42.42526,-20.63391]},{"code":"PY4/MO-008","program":"sota","name":"Serra do Boné","coordinates":[-42.44441,-20.6834]},{"code":"PY4/MO-010","program":"sota","name":"Serra da Mutuca","coordinates":[-42.41985,-20.62043]},{"code":"PY4/MO-014","program":"sota","name":"Serra do Matipozinho","coordinates":[-42.43075,-20.51545]},{"code":"PY4/MO-022","program":"sota","name":"PY4/MO-022","coordinates":[-42.40494,-20.53196]},{"code":"PY4/MO-023","program":"sota","name":"Pedra de Santana","coordinates":[-42.46654,-20.5424]},{"code":"PY4/MO-054","program":"sota","name":"PY4/MO-054","coordinates":[-42.49365,-20.54068]}]}