{"lat":-20.25,"lon":147.5,"programs":["pota","sota"],"count":6,"references":[{"code":"AU-1208","program":"pota","name":"Mount Abbot (scientific) National Park","coordinates":[147.716,-20.118]},{"code":"VK4/NH-005","program":"sota","name":"Mt Abbot","coordinates":[147.74516,-20.09915]},{"code":"VK4/NH-022","program":"sota","name":"Hurricane Cliff","coordinates":[147.7078,-20.10555]},{"code":"VK4/NH-066","program":"sota","name":"Edinburgh Castle","coordinates":[147.5774,-20.05148]},{"code":"VK4/NH-095","program":"sota","name":"VK4/NH-095","coordinates":[147.50685,-20.0077]},{"code":"VK4/NH-107","program":"sota","name":"Jet Creek","coordinates":[147.51772,-20.08319]}]}