{"lat":-20.5,"lon":148.75,"programs":["pota","sota"],"count":27,"references":[{"code":"AU-1024","program":"pota","name":"Whitsunday Islands National Park","coordinates":[148.982,-20.2607]},{"code":"AU-1218","program":"pota","name":"Molle Islands National Park","coordinates":[148.86,-20.3733]},{"code":"AU-1430","program":"pota","name":"Conway National Park","coordinates":[148.782,-20.3973]},{"code":"AU-1431","program":"pota","name":"Conway Conservation Park","coordinates":[148.787,-20.2784]},{"code":"AU-9144","program":"pota","name":"Coral State Beach","coordinates":[148.79,-20.2772]},{"code":"AU-9145","program":"pota","name":"Petranova's State Beach","coordinates":[148.795,-20.2771]},{"code":"AU-9146","program":"pota","name":"Guillaume State Beach","coordinates":[148.798,-20.2786]},{"code":"AU-9147","program":"pota","name":"Cane Cutters State Beach","coordinates":[148.796,-20.2809]},{"code":"AU-9148","program":"pota","name":"Repulse State Beach","coordinates":[148.767,-20.4739]},{"code":"AU-9327","program":"pota","name":"Escape State Beach","coordinates":[148.969,-20.3628]},{"code":"AU-9328","program":"pota","name":"Catseye State Beach","coordinates":[148.957,-20.346]},{"code":"AU-9333","program":"pota","name":"Dugong State Beach","coordinates":[148.953,-20.2514]},{"code":"AU-9334","program":"pota","name":"Sawmill State Beach","coordinates":[148.949,-20.2571]},{"code":"AU-9335","program":"pota","name":"Joes State Beach","coordinates":[148.928,-20.277]},{"code":"VK4/CW-097","program":"sota","name":"High Mtn","coordinates":[148.7933,-20.35809]},{"code":"VK4/CW-151","program":"sota","name":"Whitsunday Peak (W/S Is)","coordinates":[148.95421,-20.26689]},{"code":"VK4/CW-163","program":"sota","name":"Cape Conway 2","coordinates":[148.86047,-20.46273]},{"code":"VK4/CW-181","program":"sota","name":"Mt Merkara","coordinates":[148.76529,-20.25355]},{"code":"VK4/CW-205","program":"sota","name":"Conway NP 1","coordinates":[148.83224,-20.40547]},{"code":"VK4/CW-214","program":"sota","name":"Conway NP 3","coordinates":[148.76997,-20.44319]},{"code":"VK4/CW-217","program":"sota","name":"Mt Kangaroo","coordinates":[148.83015,-20.3482]},{"code":"VK4/CW-218","program":"sota","name":"Long Is Peak","coordinates":[148.86201,-20.37253]},{"code":"VK4/CW-242","program":"sota","name":"Passage Peak (Ham. Is)","coordinates":[148.97614,-20.34844]},{"code":"VK4/CW-246","program":"sota","name":"Conway NP 4","coordinates":[148.78127,-20.4165]},{"code":"VK4/CW-247","program":"sota","name":"Shutehaven Tower","coordinates":[148.78076,-20.2804]},{"code":"VK4/CW-251","program":"sota","name":"Cid Is","coordinates":[148.9172,-20.26351]},{"code":"VK4/CW-256","program":"sota","name":"Mt Jeffrys (Sth Molle Is)","coordinates":[148.8376,-20.27513]}]}