{"lat":-20.75,"lon":-46,"programs":["sota"],"count":10,"references":[{"code":"PY4/OM-005","program":"sota","name":"Alto Chapadão","coordinates":[-45.88947,-20.5445]},{"code":"PY4/OM-007","program":"sota","name":"PY4/OM-007","coordinates":[-45.92411,-20.59338]},{"code":"PY4/OM-009","program":"sota","name":"Serra Itaipava","coordinates":[-45.84288,-20.59105]},{"code":"PY4/OM-020","program":"sota","name":"Serra dos Campos","coordinates":[-45.97256,-20.54725]},{"code":"PY4/OM-038","program":"sota","name":"Morro Cajú","coordinates":[-45.96805,-20.58943]},{"code":"PY4/SM-229","program":"sota","name":"Serra da Vargem","coordinates":[-45.9111,-20.65092]},{"code":"PY4/SM-332","program":"sota","name":"PY4/SM-332","coordinates":[-45.93273,-20.65487]},{"code":"PY4/SM-365","program":"sota","name":"Serra Mundo Novo","coordinates":[-45.83614,-20.69861]},{"code":"PY4/SM-372","program":"sota","name":"Serra do Tamanduá","coordinates":[-45.99612,-20.70227]},{"code":"PY4/SM-422","program":"sota","name":"PY4/SM-422","coordinates":[-45.9739,-20.63389]}]}