{"lat":-20,"lon":-44,"programs":["pota","sota"],"count":51,"references":[{"code":"BR-0225","program":"pota","name":"Serra Verde State Park","coordinates":[-43.9583,-19.7867]},{"code":"BR-0532","program":"pota","name":"Elias Michel Farah Park","coordinates":[-43.9799,-19.8748]},{"code":"BR-0533","program":"pota","name":"Ecológico do Bairro Caiçara Park","coordinates":[-43.9722,-19.8966]},{"code":"BR-0537","program":"pota","name":"Cássia Eller Park","coordinates":[-43.9916,-19.8828]},{"code":"BR-0538","program":"pota","name":"Mata das borboletas Park","coordinates":[-43.9358,-19.9576]},{"code":"BR-0539","program":"pota","name":"Julien Rien Park","coordinates":[-43.9268,-19.9534]},{"code":"BR-0541","program":"pota","name":"Bairro Havaí Park","coordinates":[-43.9692,-19.963]},{"code":"BR-0543","program":"pota","name":"Bandeirante Silva Ortiz Park","coordinates":[-43.9646,-19.9652]},{"code":"BR-0544","program":"pota","name":"Conjunto Estrela Dalva Park","coordinates":[-43.9705,-19.9643]},{"code":"BR-0545","program":"pota","name":"José Lopes dos Reis (Baleares) Park","coordinates":[-43.965,-19.8019]},{"code":"BR-0546","program":"pota","name":"Bairro Cenáculo Park","coordinates":[-43.9637,-19.8058]},{"code":"BR-0547","program":"pota","name":"Universitário Park","coordinates":[-43.9425,-19.8652]},{"code":"BR-0548","program":"pota","name":"Primeiro de Maio Park","coordinates":[-43.9319,-19.8562]},{"code":"BR-0549","program":"pota","name":"Municipal Fernão Dias Park","coordinates":[-43.9351,-19.9244]},{"code":"BR-0550","program":"pota","name":"Ismael de Oliveira Fábregas Park","coordinates":[-43.9324,-19.889]},{"code":"BR-0551","program":"pota","name":"Marcos Mazzoni Park","coordinates":[-43.9205,-19.8897]},{"code":"BR-0552","program":"pota","name":"Real Park","coordinates":[-43.8875,-19.8435]},{"code":"BR-0553","program":"pota","name":"Rosinha Cadar Park","coordinates":[-43.9523,-19.9323]},{"code":"BR-0554","program":"pota","name":"Tom Jobim Park","coordinates":[-43.9552,-19.9508]},{"code":"BR-0555","program":"pota","name":"Professor Amílcar Vianna Martins Park","coordinates":[-43.9251,-19.9424]},{"code":"BR-0556","program":"pota","name":"Jardim Belmonte Park","coordinates":[-43.9028,-19.8485]},{"code":"BR-0557","program":"pota","name":"Orlando de Carvalho Silveira Park","coordinates":[-43.9284,-19.8951]},{"code":"BR-0558","program":"pota","name":"Guilherme Lage Park","coordinates":[-43.9221,-19.8652]},{"code":"BR-0560","program":"pota","name":"Vila Pantanal Park","coordinates":[-43.9612,-19.957]},{"code":"BR-0561","program":"pota","name":"Halley Alves Bessa Park","coordinates":[-43.9691,-19.9631]},{"code":"BR-0562","program":"pota","name":"Jornalista Eduardo Couri Park","coordinates":[-43.9463,-19.9525]},{"code":"BR-0564","program":"pota","name":"da Matinha Park","coordinates":[-43.9185,-19.886]},{"code":"BR-0565","program":"pota","name":"Municipal Tião dos Santos Park","coordinates":[-43.9161,-19.8569]},{"code":"BR-0567","program":"pota","name":"Juscelino Kubistchek Park","coordinates":[-43.9301,-19.9584]},{"code":"BR-0568","program":"pota","name":"Área do Vertedouro da Barragem Santa Lúcia Park","coordinates":[-43.9452,-19.9501]},{"code":"BR-0569","program":"pota","name":"Das Nações Park","coordinates":[-43.9387,-19.9631]},{"code":"BR-0570","program":"pota","name":"Linear do Vale do Arrudas Park","coordinates":[-43.8937,-19.9039]},{"code":"BR-0571","program":"pota","name":"Linear José Cândido da Silveira Park","coordinates":[-43.9169,-19.885]},{"code":"BR-0572","program":"pota","name":"Jardim Montanhês Park","coordinates":[-43.9854,-19.8988]},{"code":"BR-0573","program":"pota","name":"Municipal Renato Azeredo Park","coordinates":[-43.9334,-19.8752]},{"code":"BR-0574","program":"pota","name":"Ecológico da Pampulha (Promotor Francisco Lins do Rego) Park","coordinates":[-43.9938,-19.853]},{"code":"BR-0575","program":"pota","name":"Municipal Aggeo Pio Sobrinho Park","coordinates":[-43.9713,-19.9771]},{"code":"BR-0576","program":"pota","name":"Serra do Curral Park","coordinates":[-43.9141,-19.9608]},{"code":"BR-0577","program":"pota","name":"Mangabeiras Park","coordinates":[-43.9055,-19.9515]},{"code":"BR-0578","program":"pota","name":"Pista de SkatePatins BMX do  das Mangabeiras Park","coordinates":[-43.9055,-19.9515]},{"code":"BR-0579","program":"pota","name":"Municipal Fazenda Lagoa do Nado Park","coordinates":[-43.9619,-19.8333]},{"code":"BR-0580","program":"pota","name":"Pista de SkatePatins BMX do Parque Municipal Fazenda Lagoa do Nado Park","coordinates":[-43.9619,-19.8333]},{"code":"BR-0581","program":"pota","name":"Municipal Jacques Cousteau Park","coordinates":[-43.9893,-19.9662]},{"code":"BR-0582","program":"pota","name":"Nossa Senhora da Piedade Park","coordinates":[-43.9278,-19.8481]},{"code":"PY4/BH-065","program":"sota","name":"Pico Belo Horizonte","coordinates":[-43.89061,-19.94654]},{"code":"PY4/BH-066","program":"sota","name":"Serra do Curral","coordinates":[-43.90958,-19.96039]},{"code":"PY4/BH-079","program":"sota","name":"Pedra Rachada","coordinates":[-43.76617,-19.84078]},{"code":"PY4/BH-129","program":"sota","name":"Coqueiro","coordinates":[-43.78684,-19.82424]},{"code":"PY4/BH-131","program":"sota","name":"Morro Curral das Éguas","coordinates":[-43.86803,-19.99646]},{"code":"PY4/BH-200","program":"sota","name":"Morro do Sino","coordinates":[-43.8502,-19.84707]},{"code":"PY4/BH-253","program":"sota","name":"Monte da Quaresma","coordinates":[-43.97324,-19.77627]}]}