{"lat":-21,"lon":148.75,"programs":["pota","sota"],"count":16,"references":[{"code":"AU-1087","program":"pota","name":"Skull Knob Conservation Park","coordinates":[148.831,-20.8381]},{"code":"AU-1149","program":"pota","name":"Newry Islands National Park","coordinates":[148.904,-20.8545]},{"code":"AU-1180","program":"pota","name":"Mount Ossa National Park","coordinates":[148.823,-20.9746]},{"code":"AU-9153","program":"pota","name":"Mentmore State Beach","coordinates":[148.798,-20.7722]},{"code":"AU-9154","program":"pota","name":"Dewars State Beach","coordinates":[148.835,-20.7855]},{"code":"AU-9155","program":"pota","name":"Saint Helens State Beach","coordinates":[148.842,-20.8367]},{"code":"AU-9156","program":"pota","name":"Seaforth State Beach","coordinates":[148.967,-20.8992]},{"code":"AU-9157","program":"pota","name":"Holiday Bay State Beach","coordinates":[148.989,-20.8944]},{"code":"AU-9158","program":"pota","name":"Pauly’s State Beach","coordinates":[148.997,-20.8984]},{"code":"AU-9159","program":"pota","name":"Ball Bay State Beach","coordinates":[148.999,-20.9066]},{"code":"VK4/CW-100","program":"sota","name":"Mt Jukes","coordinates":[148.94948,-20.99837]},{"code":"VK4/CW-141","program":"sota","name":"Pioneer Peaks NP","coordinates":[148.93681,-20.98513]},{"code":"VK4/CW-154","program":"sota","name":"NE of Camerons Gap","coordinates":[148.75468,-20.93831]},{"code":"VK4/CW-177","program":"sota","name":"Mt Pelion","coordinates":[148.79982,-20.95502]},{"code":"VK4/CW-210","program":"sota","name":"Mt Ossa","coordinates":[148.8129,-20.99704]},{"code":"VK4/CW-239","program":"sota","name":"Pinnacle Rock","coordinates":[148.99136,-20.92295]}]}