{"lat":-21.25,"lon":164.75,"programs":["pota","sota"],"count":8,"references":[{"code":"NC-0003","program":"pota","name":"plage de Pouembout Nature Reserve","coordinates":[164.84,-21.074]},{"code":"FK/NP-102","program":"sota","name":"Col de Tiaoué","coordinates":[164.9837,-21.1951]},{"code":"FK/NP-127","program":"sota","name":"Pic de Tiaoué","coordinates":[164.9674,-21.1685]},{"code":"FK/NP-139","program":"sota","name":"Plateau de Tia","coordinates":[164.9033,-21.1781]},{"code":"FK/NP-141","program":"sota","name":"FK/NP-141","coordinates":[164.9693,-21.2271]},{"code":"FK/NP-163","program":"sota","name":"FK/NP-163","coordinates":[164.9367,-21.2183]},{"code":"FK/NP-176","program":"sota","name":"Pwalu","coordinates":[164.8906,-21.037]},{"code":"FK/NP-183","program":"sota","name":"Pic Koné","coordinates":[164.9222,-21.067]}]}