{"lat":-21,"lon":165.25,"programs":["sota"],"count":6,"references":[{"code":"FK/NP-087","program":"sota","name":"Tié","coordinates":[165.2646,-20.9761]},{"code":"FK/NP-099","program":"sota","name":"Pwanépéda (Pic D'Amoa)","coordinates":[165.2933,-20.9646]},{"code":"FK/NP-126","program":"sota","name":"Görö Purö","coordinates":[165.2555,-20.9218]},{"code":"FK/NP-149","program":"sota","name":"Aupwêrê Pwailö","coordinates":[165.3934,-20.9651]},{"code":"FK/NP-151","program":"sota","name":"Kaapö","coordinates":[165.3702,-20.977]},{"code":"FK/NP-160","program":"sota","name":"Tiabwa","coordinates":[165.3425,-20.9494]}]}