{"lat":-21.75,"lon":149,"programs":["pota","sota"],"count":14,"references":[{"code":"AU-1281","program":"pota","name":"Kelvin National Park","coordinates":[149.192,-21.583]},{"code":"AU-3313","program":"pota","name":"Connors Forest Reserve","coordinates":[149.158,-21.6055]},{"code":"AU-3323","program":"pota","name":"Kelvin Forest Reserve","coordinates":[149.2,-21.6707]},{"code":"AU-7382","program":"pota","name":"Kelvin State Forest","coordinates":[149.187,-21.6385]},{"code":"VK4/CW-053","program":"sota","name":"VK4/CW-053","coordinates":[149.06004,-21.70226]},{"code":"VK4/CW-054","program":"sota","name":"Black Mtn","coordinates":[149.17401,-21.59109]},{"code":"VK4/CW-060","program":"sota","name":"VK4/CW-060","coordinates":[149.07861,-21.72798]},{"code":"VK4/CW-075","program":"sota","name":"VK4/CW-075","coordinates":[149.12976,-21.73617]},{"code":"VK4/CW-082","program":"sota","name":"Connors Range 3","coordinates":[149.04733,-21.545]},{"code":"VK4/CW-095","program":"sota","name":"VK4/CW-095","coordinates":[149.12419,-21.69394]},{"code":"VK4/CW-113","program":"sota","name":"VK4/CW-113","coordinates":[149.0781,-21.66873]},{"code":"VK4/CW-120","program":"sota","name":"VK4/CW-120","coordinates":[149.14244,-21.52211]},{"code":"VK4/CW-148","program":"sota","name":"Connors Range 7","coordinates":[149.20999,-21.70671]},{"code":"VK4/CW-157","program":"sota","name":"SW of Hatfields Gap","coordinates":[149.1794,-21.65364]}]}