{"lat":-21.75,"lon":165.75,"programs":["pota","sota"],"count":17,"references":[{"code":"NC-0033","program":"pota","name":"Parc des Grandes Fougeres Provincial Park Reserve","coordinates":[165.752,-21.6079]},{"code":"NC-0049","program":"pota","name":"Mont DO Nature Reserve","coordinates":[165.997,-21.703]},{"code":"FK/NP-016","program":"sota","name":"Dexwê Xiti (Mont Canala)","coordinates":[165.9353,-21.5841]},{"code":"FK/NP-088","program":"sota","name":"Baou","coordinates":[165.8168,-21.5134]},{"code":"FK/NP-111","program":"sota","name":"Mërè Nèkùé","coordinates":[165.9985,-21.5692]},{"code":"FK/SP-038","program":"sota","name":"Némëré","coordinates":[165.8957,-21.6093]},{"code":"FK/SP-046","program":"sota","name":"Mé Wano (Table Unio)","coordinates":[165.7735,-21.5529]},{"code":"FK/SP-050","program":"sota","name":"Pêbai (Mont Rembaï)","coordinates":[165.8433,-21.59]},{"code":"FK/SP-055","program":"sota","name":"Méo Darigu","coordinates":[165.7517,-21.5333]},{"code":"FK/SP-068","program":"sota","name":"Mè Xûné Wau","coordinates":[165.9709,-21.6823]},{"code":"FK/SP-069","program":"sota","name":"FK/SP-069","coordinates":[165.7755,-21.5983]},{"code":"FK/SP-080","program":"sota","name":"Naouitjou","coordinates":[165.8618,-21.6648]},{"code":"FK/SP-096","program":"sota","name":"Mè Tu Novia","coordinates":[165.8973,-21.706]},{"code":"FK/SP-097","program":"sota","name":"Mèrè Améri","coordinates":[165.8456,-21.6559]},{"code":"FK/SP-103","program":"sota","name":"Mé Pin (Mé Boado)","coordinates":[165.8329,-21.678]},{"code":"FK/SP-135","program":"sota","name":"Pic d'Amboa (Méé Xwêu)","coordinates":[165.7926,-21.7481]},{"code":"FK/SP-149","program":"sota","name":"Pic de Boeuf Sauvages (Mè Wa Arawa)","coordinates":[165.7656,-21.7128]}]}