{"lat":-21,"lon":164.5,"programs":["pota","sota"],"count":9,"references":[{"code":"NC-0044","program":"pota","name":"Kan-Gunu Wildlife Area","coordinates":[164.549,-20.896]},{"code":"FK/NP-010","program":"sota","name":"Taom","coordinates":[164.5863,-20.7818]},{"code":"FK/NP-017","program":"sota","name":"FK/NP-017","coordinates":[164.5872,-20.7558]},{"code":"FK/NP-082","program":"sota","name":"Wèdiép","coordinates":[164.6917,-20.7785]},{"code":"FK/NP-085","program":"sota","name":"FK/NP-085","coordinates":[164.7312,-20.8479]},{"code":"FK/NP-086","program":"sota","name":"Mont Tende","coordinates":[164.712,-20.9117]},{"code":"FK/NP-166","program":"sota","name":"FK/NP-166","coordinates":[164.5165,-20.8046]},{"code":"FK/NP-182","program":"sota","name":"FK/NP-182","coordinates":[164.6929,-20.8067]},{"code":"FK/NP-185","program":"sota","name":"Paiic","coordinates":[164.6706,-20.9811]}]}