{"lat":-21.5,"lon":148.5,"programs":["pota","sota"],"count":7,"references":[{"code":"AU-3860","program":"pota","name":"Homevale Resources Area","coordinates":[148.502,-21.3434]},{"code":"AU-6993","program":"pota","name":"Crediton State Forest","coordinates":[148.525,-21.2677]},{"code":"VK4/CW-005","program":"sota","name":"Homevale NP","coordinates":[148.58981,-21.36951]},{"code":"VK4/CW-019","program":"sota","name":"Pisgah Range 1","coordinates":[148.67052,-21.36874]},{"code":"VK4/CW-024","program":"sota","name":"Pisgah Range 2","coordinates":[148.6959,-21.3782]},{"code":"VK4/CW-038","program":"sota","name":"Credition SF","coordinates":[148.63708,-21.28104]},{"code":"VK4/CW-044","program":"sota","name":"Mt Britton","coordinates":[148.5792,-21.46854]}]}