{"lat":-22,"lon":-45.5,"programs":["pota","sota"],"count":5,"references":[{"code":"BR-0208","program":"pota","name":"Nova Baden State Park","coordinates":[-45.3252,-21.9366]},{"code":"PY4/SM-110","program":"sota","name":"Serra do Campo Grande","coordinates":[-45.43542,-21.97719]},{"code":"PY4/SM-253","program":"sota","name":"Morro do Catiguá","coordinates":[-45.39006,-21.89205]},{"code":"PY4/SM-292","program":"sota","name":"Serra do Palmital","coordinates":[-45.26752,-21.82322]},{"code":"PY4/SM-299","program":"sota","name":"Morro do Selado","coordinates":[-45.31031,-21.98641]}]}