{"lat":-22.75,"lon":-45.5,"programs":["pota","sota"],"count":13,"references":[{"code":"BR-0249","program":"pota","name":"Campos do Jordão State Park","coordinates":[-45.4812,-22.6899]},{"code":"BR-0266","program":"pota","name":"Mananciais de Campos do Jordão State Park","coordinates":[-45.4812,-22.6899]},{"code":"PY2/MA-010","program":"sota","name":"Alto do Cerco","coordinates":[-45.3517,-22.6291]},{"code":"PY2/MA-011","program":"sota","name":"Alto da Lavrinha / Pico do Ataque","coordinates":[-45.2592,-22.5819]},{"code":"PY2/MA-024","program":"sota","name":"Pedra Branca","coordinates":[-45.4463,-22.6038]},{"code":"PY2/MA-070","program":"sota","name":"PY2/MA-070","coordinates":[-45.3283,-22.7238]},{"code":"PY2/MA-088","program":"sota","name":"PY2/MA-088","coordinates":[-45.2675,-22.6823]},{"code":"PY4/SM-015","program":"sota","name":"Pico do Ataque","coordinates":[-45.27445,-22.5775]},{"code":"PY4/SM-019","program":"sota","name":"Serra da Mantiqueira","coordinates":[-45.38389,-22.64722]},{"code":"PY4/SM-033","program":"sota","name":"Serra da Mantiqueira","coordinates":[-45.28861,-22.60194]},{"code":"PY4/SM-051","program":"sota","name":"Serra do Alto da Pedra","coordinates":[-45.40582,-22.57459]},{"code":"PY4/SM-065","program":"sota","name":"Serra do Pouso Frio","coordinates":[-45.43362,-22.50028]},{"code":"PY4/SM-104","program":"sota","name":"Serra da Onça","coordinates":[-45.35011,-22.50734]}]}