{"lat":-22,"lon":-44.75,"programs":["sota"],"count":7,"references":[{"code":"PY4/SM-113","program":"sota","name":"PY4/SM-113","coordinates":[-44.57722,-21.9964]},{"code":"PY4/SM-116","program":"sota","name":"Serra do Quilombo","coordinates":[-44.51085,-21.98333]},{"code":"PY4/SM-129","program":"sota","name":"Serra do Capeado","coordinates":[-44.50223,-21.96833]},{"code":"PY4/SM-182","program":"sota","name":"Morro do Pinhal","coordinates":[-44.69351,-21.89435]},{"code":"PY4/SM-192","program":"sota","name":"PY4/SM-192","coordinates":[-44.65661,-21.90746]},{"code":"PY4/SM-215","program":"sota","name":"Serra da Passagem","coordinates":[-44.5323,-21.84292]},{"code":"PY4/SM-251","program":"sota","name":"Morro da Boa Vista","coordinates":[-44.63182,-21.79676]}]}