{"lat":-22,"lon":149.25,"programs":["pota","sota"],"count":11,"references":[{"code":"AU-1029","program":"pota","name":"West Hill National Park","coordinates":[149.452,-21.8485]},{"code":"AU-7418","program":"pota","name":"West Hill State Forest","coordinates":[149.37,-21.8269]},{"code":"AU-9235","program":"pota","name":"Three Mile State Beach","coordinates":[149.473,-21.9454]},{"code":"AU-9236","program":"pota","name":"Carmila State Beach","coordinates":[149.464,-21.9142]},{"code":"AU-9237","program":"pota","name":"Four Mile State Beach","coordinates":[149.433,-21.7845]},{"code":"VK4/CW-066","program":"sota","name":"VK4/CW-066","coordinates":[149.26605,-21.95208]},{"code":"VK4/CW-107","program":"sota","name":"Connors Range 5","coordinates":[149.25926,-21.84351]},{"code":"VK4/CW-179","program":"sota","name":"W of Bruce Highway 1","coordinates":[149.40425,-21.95974]},{"code":"VK4/CW-188","program":"sota","name":"West of Bruce Hwy 2","coordinates":[149.3779,-21.90905]},{"code":"VK4/CW-213","program":"sota","name":"West Hill Is","coordinates":[149.48923,-21.82947]},{"code":"VK4/CW-222","program":"sota","name":"Connors Range 9","coordinates":[149.43019,-21.98783]}]}