{"lat":-22.5,"lon":-43,"programs":["sota"],"count":58,"references":[{"code":"PY1/MC-001","program":"sota","name":"Queixo da Mulher de Pedra","coordinates":[-42.8028,-22.3875]},{"code":"PY1/MC-004","program":"sota","name":"Pedra da Lagoinha","coordinates":[-42.8696,-22.4447]},{"code":"PY1/MC-006","program":"sota","name":"Morro do André","coordinates":[-42.8471,-22.4301]},{"code":"PY1/MC-007","program":"sota","name":"Serra da Ressaca","coordinates":[-42.8287,-22.4129]},{"code":"PY1/MC-009","program":"sota","name":"Serra do Estreito","coordinates":[-42.7924,-22.4121]},{"code":"PY1/MC-011","program":"sota","name":"PY1/MC-011","coordinates":[-42.8996,-22.4764]},{"code":"PY1/MC-015","program":"sota","name":"PY1/MC-015","coordinates":[-42.8652,-22.4658]},{"code":"PY1/MC-029","program":"sota","name":"PY1/MC-029","coordinates":[-42.8835,-22.4957]},{"code":"PY1/MC-031","program":"sota","name":"PY1/MC-031","coordinates":[-42.8035,-22.448]},{"code":"PY1/MC-034","program":"sota","name":"PY1/MC-034","coordinates":[-42.837,-22.4818]},{"code":"PY1/MC-037","program":"sota","name":"PY1/MC-037","coordinates":[-42.8517,-22.4911]},{"code":"PY1/MC-039","program":"sota","name":"PY1/MC-039","coordinates":[-42.7502,-22.4917]},{"code":"PY1/MC-040","program":"sota","name":"PY1/MC-040","coordinates":[-42.8136,-22.4855]},{"code":"PY1/MC-045","program":"sota","name":"PY1/MC-045","coordinates":[-42.8015,-22.499]},{"code":"PY1/RJ-011","program":"sota","name":"Serra dos Penitentes","coordinates":[-42.9638,-22.4647]},{"code":"PY1/RJ-023","program":"sota","name":"PY1/RJ-023","coordinates":[-42.9329,-22.481]},{"code":"PY1/RJ-029","program":"sota","name":"PY1/RJ-029","coordinates":[-42.9866,-22.4938]},{"code":"PY1/RJ-040","program":"sota","name":"Morro do Machado","coordinates":[-42.9678,-22.496]},{"code":"PY1/RS-002","program":"sota","name":"Seio da Mulher de Pedra","coordinates":[-42.8039,-22.3788]},{"code":"PY1/RS-003","program":"sota","name":"Branca de Neve","coordinates":[-42.7617,-22.3566]},{"code":"PY1/RS-007","program":"sota","name":"Torre Oculta ou Pedra do Panorama","coordinates":[-42.7588,-22.3101]},{"code":"PY1/RS-009","program":"sota","name":"Pedra das Antas","coordinates":[-42.7699,-22.3453]},{"code":"PY1/RS-015","program":"sota","name":"Buraco do Ouro","coordinates":[-42.8094,-22.369]},{"code":"PY1/RS-019","program":"sota","name":"Capetini","coordinates":[-42.8285,-22.3574]},{"code":"PY1/RS-035","program":"sota","name":"Pedra de Pessegueiros","coordinates":[-42.9606,-22.3401]},{"code":"PY1/RS-037","program":"sota","name":"Pedra da Ermitage","coordinates":[-42.9336,-22.415]},{"code":"PY1/RS-045","program":"sota","name":"Serra do Albuquerque","coordinates":[-42.9022,-22.3512]},{"code":"PY1/RS-050","program":"sota","name":"PY1/RS-050","coordinates":[-42.9041,-22.4482]},{"code":"PY1/RS-051","program":"sota","name":"Serra dos Cavalos","coordinates":[-42.959,-22.4411]},{"code":"PY1/RS-054","program":"sota","name":"Morro Agudo","coordinates":[-42.7901,-22.2956]},{"code":"PY1/RS-059","program":"sota","name":"Camelo","coordinates":[-42.9997,-22.3634]},{"code":"PY1/RS-063","program":"sota","name":"Morro Boa Vista","coordinates":[-42.9074,-22.3412]},{"code":"PY1/RS-064","program":"sota","name":"Serra do Albuquerque","coordinates":[-42.8927,-22.3461]},{"code":"PY1/RS-065","program":"sota","name":"PY1/RS-065","coordinates":[-42.8842,-22.3417]},{"code":"PY1/RS-068","program":"sota","name":"PY1/RS-068","coordinates":[-43,-22.3048]},{"code":"PY1/RS-069","program":"sota","name":"Alto da Boa Vista","coordinates":[-42.9347,-22.4514]},{"code":"PY1/RS-071","program":"sota","name":"Pedra Alpina","coordinates":[-42.9924,-22.3336]},{"code":"PY1/RS-073","program":"sota","name":"PY1/RS-073","coordinates":[-42.84,-22.3234]},{"code":"PY1/RS-075","program":"sota","name":"PY1/RS-075","coordinates":[-42.997,-22.2605]},{"code":"PY1/RS-081","program":"sota","name":"Morro do Albuquerque","coordinates":[-42.9008,-22.3744]},{"code":"PY1/RS-083","program":"sota","name":"PY1/RS-083","coordinates":[-42.8591,-22.2592]},{"code":"PY1/RS-084","program":"sota","name":"PY1/RS-084","coordinates":[-42.9183,-22.3511]},{"code":"PY1/RS-086","program":"sota","name":"Morro Granja Itamarati","coordinates":[-42.8869,-22.36]},{"code":"PY1/RS-092","program":"sota","name":"PY1/RS-092","coordinates":[-42.98,-22.3544]},{"code":"PY1/RS-096","program":"sota","name":"PY1/RS-096","coordinates":[-42.9719,-22.3493]},{"code":"PY1/RS-099","program":"sota","name":"Alto do Albuquerque","coordinates":[-42.8908,-22.3025]},{"code":"PY1/RS-100","program":"sota","name":"Morro dos Pratis","coordinates":[-42.892,-22.323]},{"code":"PY1/RS-103","program":"sota","name":"Morro Prata dos Aredes","coordinates":[-42.9046,-22.4044]},{"code":"PY1/RS-104","program":"sota","name":"Morro de Canoas","coordinates":[-42.8719,-22.4004]},{"code":"PY1/RS-105","program":"sota","name":"PY1/RS-105","coordinates":[-42.9675,-22.2872]},{"code":"PY1/RS-106","program":"sota","name":"PY1/RS-106","coordinates":[-42.8255,-22.2827]},{"code":"PY1/RS-108","program":"sota","name":"Morro do Campo Limpo","coordinates":[-42.9117,-22.3025]},{"code":"PY1/RS-113","program":"sota","name":"Morro Vale da Serra","coordinates":[-42.9604,-22.3016]},{"code":"PY1/RS-115","program":"sota","name":"Morro do Vale do Paraíso","coordinates":[-42.9663,-22.3944]},{"code":"PY1/RS-119","program":"sota","name":"PY1/RS-119","coordinates":[-42.8691,-22.3597]},{"code":"PY1/RS-120","program":"sota","name":"PY1/RS-120","coordinates":[-42.897,-22.3932]},{"code":"PY1/RS-121","program":"sota","name":"PY1/RS-121","coordinates":[-42.8723,-22.4159]},{"code":"PY1/RS-123","program":"sota","name":"PY1/RS-123","coordinates":[-42.8468,-22.2812]}]}