{"lat":-22.5,"lon":-43.25,"programs":["pota","sota"],"count":63,"references":[{"code":"BR-0074","program":"pota","name":"Serra dos Órgãos National Conservation Area","coordinates":[-43.0733,-22.493]},{"code":"BR-0751","program":"pota","name":"Ambiental Petrópolis Protected Area","coordinates":[-43.1873,-22.4377]},{"code":"PY1/RJ-001","program":"sota","name":"Pedra do Sino","coordinates":[-43.0308,-22.4617]},{"code":"PY1/RJ-002","program":"sota","name":"Morro da Luva","coordinates":[-43.0562,-22.4714]},{"code":"PY1/RJ-003","program":"sota","name":"Pedra de Santo Antônio","coordinates":[-43.0164,-22.4665]},{"code":"PY1/RJ-005","program":"sota","name":"Dedo de Deus","coordinates":[-43.0083,-22.4715]},{"code":"PY1/RJ-007","program":"sota","name":"Morro do Cavalo Branco","coordinates":[-43.0241,-22.4751]},{"code":"PY1/RJ-009","program":"sota","name":"Escalavrado","coordinates":[-43.0055,-22.4797]},{"code":"PY1/RS-001","program":"sota","name":"Morro do Açu","coordinates":[-43.0621,-22.4837]},{"code":"PY1/RS-008","program":"sota","name":"Pilatos","coordinates":[-43.0318,-22.4215]},{"code":"PY1/RS-010","program":"sota","name":"Pico do Sentis","coordinates":[-43.0322,-22.4337]},{"code":"PY1/RS-011","program":"sota","name":"Pedra do Serrote","coordinates":[-43.0195,-22.4391]},{"code":"PY1/RS-012","program":"sota","name":"Pico da Maria Comprida","coordinates":[-43.209,-22.4011]},{"code":"PY1/RS-013","program":"sota","name":"Pedra do Taquaril","coordinates":[-43.0652,-22.3267]},{"code":"PY1/RS-014","program":"sota","name":"Pico do Alcobaça","coordinates":[-43.1165,-22.4718]},{"code":"PY1/RS-016","program":"sota","name":"Pedra do Arrieiro","coordinates":[-43.0198,-22.3556]},{"code":"PY1/RS-017","program":"sota","name":"Cantagalo","coordinates":[-43.0451,-22.389]},{"code":"PY1/RS-020","program":"sota","name":"Morro do Triunfo","coordinates":[-43.0279,-22.3924]},{"code":"PY1/RS-021","program":"sota","name":"Pedra do Carneiro","coordinates":[-43.0307,-22.4026]},{"code":"PY1/RS-028","program":"sota","name":"João Grande","coordinates":[-43.2004,-22.4038]},{"code":"PY1/RS-030","program":"sota","name":"Pedra do Taquaril Menor","coordinates":[-43.0747,-22.3333]},{"code":"PY1/RS-031","program":"sota","name":"Pico do Brejal","coordinates":[-43.0751,-22.3106]},{"code":"PY1/RS-032","program":"sota","name":"Serra Negra","coordinates":[-43.1972,-22.4625]},{"code":"PY1/RS-033","program":"sota","name":"Pedra do Retiro","coordinates":[-43.1924,-22.4746]},{"code":"PY1/RS-034","program":"sota","name":"PY1/RS-034","coordinates":[-43.0254,-22.3395]},{"code":"PY1/RS-036","program":"sota","name":"Cone 2","coordinates":[-43.0927,-22.44]},{"code":"PY1/RS-038","program":"sota","name":"Timóteo","coordinates":[-43.0095,-22.328]},{"code":"PY1/RS-039","program":"sota","name":"Jacuba Maior","coordinates":[-43.0809,-22.3025]},{"code":"PY1/RS-040","program":"sota","name":"PY1/RS-040","coordinates":[-43.024,-22.3063]},{"code":"PY1/RS-043","program":"sota","name":"Seio de Vênus","coordinates":[-43.1828,-22.4642]},{"code":"PY1/RS-047","program":"sota","name":"Morro da Mensagem","coordinates":[-43.1777,-22.3903]},{"code":"PY1/RS-055","program":"sota","name":"Morro da Covanca","coordinates":[-43.2005,-22.3872]},{"code":"PY1/RS-056","program":"sota","name":"PY1/RS-056","coordinates":[-43.0392,-22.3114]},{"code":"PY1/RS-058","program":"sota","name":"Pedra de Itaipava","coordinates":[-43.1497,-22.3711]},{"code":"PY1/RS-066","program":"sota","name":"PY1/RS-066","coordinates":[-43.0886,-22.3241]},{"code":"PY1/RS-067","program":"sota","name":"Morro do Mata Porcos","coordinates":[-43.1056,-22.4474]},{"code":"PY1/RS-070","program":"sota","name":"Pedra Capim Roxo","coordinates":[-43.1821,-22.371]},{"code":"PY1/RS-077","program":"sota","name":"Morro do Cuiabá","coordinates":[-43.0775,-22.3568]},{"code":"PY1/RS-078","program":"sota","name":"Morro do Contorno","coordinates":[-43.2431,-22.4827]},{"code":"PY1/RS-085","program":"sota","name":"Cantagalo menor","coordinates":[-43.0602,-22.3796]},{"code":"PY1/RS-087","program":"sota","name":"Pedra de Nogueira ou Morro do Pavão","coordinates":[-43.1208,-22.4381]},{"code":"PY1/RS-089","program":"sota","name":"Morro do Juriti","coordinates":[-43.058,-22.2734]},{"code":"PY1/RS-090","program":"sota","name":"Morro do Brejal","coordinates":[-43.0341,-22.2504]},{"code":"PY1/RS-094","program":"sota","name":"Monte Florido","coordinates":[-43.1687,-22.4889]},{"code":"PY1/RS-095","program":"sota","name":"PY1/RS-095","coordinates":[-43.1075,-22.3139]},{"code":"PY1/RS-098","program":"sota","name":"Morro do Calembe ou Águas Lindas","coordinates":[-43.1108,-22.4242]},{"code":"PY1/RS-101","program":"sota","name":"Morro do Parque Natural de Petrópolis","coordinates":[-43.1718,-22.4959]},{"code":"PY1/RS-110","program":"sota","name":"Morro Rio da Cidade","coordinates":[-43.1636,-22.4451]},{"code":"PY1/RS-112","program":"sota","name":"Morro Sítio Guararema","coordinates":[-43.0965,-22.37]},{"code":"PY1/RS-124","program":"sota","name":"PY1/RS-124","coordinates":[-43.1085,-22.3548]},{"code":"PY1/RS-125","program":"sota","name":"Amoêdo","coordinates":[-43.154,-22.4619]},{"code":"PY1/RS-126","program":"sota","name":"PY1/RS-126","coordinates":[-43.0749,-22.3981]},{"code":"PY1/RS-128","program":"sota","name":"Morro do Vale da União","coordinates":[-43.1637,-22.4201]},{"code":"PY1/RS-130","program":"sota","name":"PY1/RS-130","coordinates":[-43.0906,-22.2616]},{"code":"PY1/RS-133","program":"sota","name":"PY1/RS-133","coordinates":[-43.1454,-22.3035]},{"code":"PY1/RS-134","program":"sota","name":"PY1/RS-134","coordinates":[-43.2087,-22.3199]},{"code":"PY1/RS-135","program":"sota","name":"PY1/RS-135","coordinates":[-43.1152,-22.3339]},{"code":"PY1/RS-137","program":"sota","name":"PY1/RS-137","coordinates":[-43.1343,-22.2959]},{"code":"PY1/RS-138","program":"sota","name":"PY1/RS-138","coordinates":[-43.1942,-22.3128]},{"code":"PY1/RS-140","program":"sota","name":"Serra das Antas","coordinates":[-43.2208,-22.4031]},{"code":"PY1/RS-141","program":"sota","name":"Pedra da Grota do Jacob","coordinates":[-43.2186,-22.4438]},{"code":"PY1/TR-005","program":"sota","name":"PY1/TR-005","coordinates":[-43.1523,-22.2852]},{"code":"PY1/TR-017","program":"sota","name":"PY1/TR-017","coordinates":[-43.1102,-22.2837]}]}