{"lat":-22.75,"lon":148,"programs":["gma","sota"],"count":6,"references":[{"code":"XVK4/CH-058","program":"gma","name":"Lords Table Mtn","coordinates":[148.0146,-22.6729]},{"code":"VK4/CH-041","program":"sota","name":"Browns Peak","coordinates":[148.09787,-22.74175]},{"code":"VK4/CH-043","program":"sota","name":"Hodsons Range","coordinates":[148.03407,-22.69338]},{"code":"VK4/CH-056","program":"sota","name":"Gilberts Dome","coordinates":[148.08205,-22.70042]},{"code":"VK4/CH-073","program":"sota","name":"Mt Phillips","coordinates":[148.16292,-22.55095]},{"code":"VK4/CH-155","program":"sota","name":"Lords Table Mtn","coordinates":[148.0117,-22.6517]}]}