{"lat":-22,"lon":-41.75,"programs":["sota"],"count":17,"references":[{"code":"PY1/CG-006","program":"sota","name":"Pico de São Mateus (Serra do Boé ou das Cinco Pontas)","coordinates":[-41.71,-21.7981]},{"code":"PY1/CG-008","program":"sota","name":"Pico Mata Cavalo","coordinates":[-41.7343,-21.7989]},{"code":"PY1/CG-010","program":"sota","name":"Serra do Boé ou das Cinco Pontas","coordinates":[-41.7186,-21.7955]},{"code":"PY1/CG-014","program":"sota","name":"Serra Bela Joana","coordinates":[-41.7383,-21.7593]},{"code":"PY1/CG-016","program":"sota","name":"PY1/CG-016","coordinates":[-41.7442,-21.7732]},{"code":"PY1/CG-017","program":"sota","name":"Serra da Gaivota","coordinates":[-41.6816,-21.7772]},{"code":"PY1/CG-019","program":"sota","name":"PY1/CG-019","coordinates":[-41.7252,-21.7589]},{"code":"PY1/CG-022","program":"sota","name":"PY1/CG-022","coordinates":[-41.6642,-21.7878]},{"code":"PY1/CG-026","program":"sota","name":"PY1/CG-026","coordinates":[-41.6787,-21.7558]},{"code":"PY1/CG-049","program":"sota","name":"Serra das Almas","coordinates":[-41.6848,-21.8378]},{"code":"PY1/CG-057","program":"sota","name":"Serra do Viana","coordinates":[-41.7329,-21.8642]},{"code":"PY1/CG-074","program":"sota","name":"PY1/CG-074","coordinates":[-41.7439,-21.8717]},{"code":"PY1/CG-085","program":"sota","name":"Serra da Penação","coordinates":[-41.6506,-21.8183]},{"code":"PY1/CG-115","program":"sota","name":"PY1/CG-115","coordinates":[-41.7047,-21.9583]},{"code":"PY1/MM-100","program":"sota","name":"Serra Queimada","coordinates":[-41.7495,-21.9689]},{"code":"PY1/MM-102","program":"sota","name":"Serra Boa Vista","coordinates":[-41.7433,-21.9965]},{"code":"PY1/MM-110","program":"sota","name":"PY1/MM-110","coordinates":[-41.7448,-21.9785]}]}