{"lat":-23,"lon":-43.5,"programs":["pota","sota"],"count":43,"references":[{"code":"BR-0234","program":"pota","name":"Grajaú State Park","coordinates":[-43.2687,-22.9248]},{"code":"BR-0237","program":"pota","name":"Mendanha State Park","coordinates":[-43.4991,-22.8378]},{"code":"BR-0238","program":"pota","name":"Pedra Branca State Park","coordinates":[-43.4431,-22.9339]},{"code":"BR-0503","program":"pota","name":"Municipal do Mendanha Nature Park","coordinates":[-43.4991,-22.8378]},{"code":"BR-0506","program":"pota","name":"Municipal Pinto Teles Park","coordinates":[-43.3495,-22.8902]},{"code":"BR-0509","program":"pota","name":"Municipal Natural do Gericinó Park","coordinates":[-43.4299,-22.8185]},{"code":"BR-0690","program":"pota","name":"Municipal Bosque da Barra (Barra da Tijuca) Nature Park","coordinates":[-43.3603,-22.9973]},{"code":"BR-0692","program":"pota","name":"Municipal da Freguesia (Anil) Nature Park","coordinates":[-43.3429,-22.9507]},{"code":"BR-0695","program":"pota","name":"Municipal do Mendanha (Bangu) Park","coordinates":[-43.4991,-22.8378]},{"code":"BR-0704","program":"pota","name":"Recanto do Trovador (Vila Isabel) Park","coordinates":[-43.2607,-22.9161]},{"code":"BR-0707","program":"pota","name":"Orlando Leite (Cascadura) Park","coordinates":[-43.3279,-22.8847]},{"code":"BR-0710","program":"pota","name":"Ari Barroso (Penha) Park","coordinates":[-43.2875,-22.8398]},{"code":"BR-0713","program":"pota","name":"Municipal Urbano da Serra da Misericórdia Park","coordinates":[-43.2919,-22.8575]},{"code":"BR-0714","program":"pota","name":"Madureira (Madureira) Park","coordinates":[-43.3511,-22.8574]},{"code":"BR-0715","program":"pota","name":"Pinto Telles (Villa Valqueire) Park","coordinates":[-43.3495,-22.8902]},{"code":"BR-0716","program":"pota","name":"Vila Kennedy (Villa kennedy) Park","coordinates":[-43.4884,-22.8604]},{"code":"BR-0717","program":"pota","name":"Fazenda do Viegas (Senador Camará) Park","coordinates":[-43.4843,-22.8859]},{"code":"BR-0720","program":"pota","name":"Grajaú (Grajaú) Park","coordinates":[-43.2687,-22.9248]},{"code":"PY1/RJ-016","program":"sota","name":"Pico da Pedra Branca","coordinates":[-43.4729,-22.9319]},{"code":"PY1/RJ-017","program":"sota","name":"Pico da Tijuca","coordinates":[-43.2867,-22.9439]},{"code":"PY1/RJ-018","program":"sota","name":"Bico do Papagaio","coordinates":[-43.3006,-22.9531]},{"code":"PY1/RJ-020","program":"sota","name":"Morro da Bandeira","coordinates":[-43.4676,-22.9231]},{"code":"PY1/RJ-021","program":"sota","name":"Serra de Madureira","coordinates":[-43.4962,-22.8021]},{"code":"PY1/RJ-022","program":"sota","name":"Pico da Furna das Andorinhas","coordinates":[-43.4958,-22.8134]},{"code":"PY1/RJ-025","program":"sota","name":"Morro de Santa Bárbara","coordinates":[-43.4666,-22.9461]},{"code":"PY1/RJ-026","program":"sota","name":"Pedra da Gávea","coordinates":[-43.2848,-22.9975]},{"code":"PY1/RJ-027","program":"sota","name":"Pedra do Conde","coordinates":[-43.2741,-22.9488]},{"code":"PY1/RJ-030","program":"sota","name":"Morro do Cochrane","coordinates":[-43.2646,-22.9827]},{"code":"PY1/RJ-033","program":"sota","name":"Pico do Sacarrão","coordinates":[-43.4536,-22.9609]},{"code":"PY1/RJ-034","program":"sota","name":"Pedra Bonita","coordinates":[-43.2824,-22.9883]},{"code":"PY1/RJ-049","program":"sota","name":"Pedra Rosilha","coordinates":[-43.4332,-22.9766]},{"code":"PY1/RJ-050","program":"sota","name":"Alto dos Pretos Forros","coordinates":[-43.3146,-22.9167]},{"code":"PY1/RJ-057","program":"sota","name":"Morro do Inácio Dias","coordinates":[-43.3261,-22.9047]},{"code":"PY1/RJ-060","program":"sota","name":"Morro do Capim Melado","coordinates":[-43.4842,-22.8302]},{"code":"PY1/RJ-068","program":"sota","name":"Pedra Calhariz","coordinates":[-43.4211,-22.933]},{"code":"PY1/RJ-084","program":"sota","name":"Morro da Caixa D'água","coordinates":[-43.3934,-22.9038]},{"code":"PY1/RJ-086","program":"sota","name":"Morro do Calembá","coordinates":[-43.4478,-22.9886]},{"code":"PY1/RJ-088","program":"sota","name":"Morro do Valqueire","coordinates":[-43.375,-22.898]},{"code":"PY1/RJ-101","program":"sota","name":"Morro Dois Irmãos","coordinates":[-43.4002,-22.952]},{"code":"PY1/RJ-102","program":"sota","name":"Morro do Juramento","coordinates":[-43.3156,-22.8631]},{"code":"PY1/RJ-108","program":"sota","name":"Morro dos Coqueiros","coordinates":[-43.4977,-22.8646]},{"code":"PY1/RJ-117","program":"sota","name":"Serra do Engenho Novo","coordinates":[-43.2522,-22.9097]},{"code":"PY1/RJ-121","program":"sota","name":"Morro da Panela","coordinates":[-43.3425,-22.9697]}]}