{"lat":-23,"lon":149.75,"programs":["pota","sota"],"count":7,"references":[{"code":"AU-7387","program":"pota","name":"Marlborough State Forest","coordinates":[149.854,-22.769]},{"code":"VK4/CA-045","program":"sota","name":"Mt Magog","coordinates":[149.95464,-22.7505]},{"code":"VK4/CA-052","program":"sota","name":"Pine Mtn","coordinates":[149.86565,-22.76007]},{"code":"VK4/CA-075","program":"sota","name":"SE of Mt Redcliffe","coordinates":[149.91081,-22.91071]},{"code":"VK4/CA-090","program":"sota","name":"Mt Slopeway","coordinates":[149.83481,-22.85094]},{"code":"VK4/CA-097","program":"sota","name":"Mt Redcliffe","coordinates":[149.8663,-22.89017]},{"code":"VK4/CH-149","program":"sota","name":"Gumigils Mine","coordinates":[149.84377,-22.9604]}]}