{"lat":-23.5,"lon":-46.5,"programs":["pota","sota"],"count":11,"references":[{"code":"BR-0259","program":"pota","name":"Itaberaba State Park","coordinates":[-46.3251,-23.2991]},{"code":"BR-0358","program":"pota","name":"Ermelino Matarazzo São Paulo Park","coordinates":[-46.4698,-23.4868]},{"code":"BR-0388","program":"pota","name":"Linear Itaim Paulista São Paulo Park","coordinates":[-46.4181,-23.4946]},{"code":"BR-0389","program":"pota","name":"Linear Mongaguá São Paulo Park","coordinates":[-46.4798,-23.4952]},{"code":"BR-0415","program":"pota","name":"Santa Amélia São Paulo Park","coordinates":[-46.3757,-23.5]},{"code":"BR-0431","program":"pota","name":"Vila Jacuí São Paulo Park","coordinates":[-46.4538,-23.4916]},{"code":"PY2/SE-001","program":"sota","name":"Pico do Gil","coordinates":[-46.4032,-23.2961]},{"code":"PY2/SE-013","program":"sota","name":"PY2/SE-013","coordinates":[-46.4432,-23.2924]},{"code":"PY2/SE-014","program":"sota","name":"PY2/SE-014","coordinates":[-46.4389,-23.3419]},{"code":"PY2/SE-030","program":"sota","name":"PY2/SE-030","coordinates":[-46.47,-23.2828]},{"code":"PY2/SE-035","program":"sota","name":"PY2/SE-035","coordinates":[-46.2833,-23.3632]}]}