{"lat":-23,"lon":148,"programs":["sota"],"count":9,"references":[{"code":"VK4/CH-036","program":"sota","name":"Scotts Peak","coordinates":[148.21967,-22.85495]},{"code":"VK4/CH-039","program":"sota","name":"Ropers Peak","coordinates":[148.22504,-22.86597]},{"code":"VK4/CH-053","program":"sota","name":"Mt Macarthur","coordinates":[148.15518,-22.86798]},{"code":"VK4/CH-063","program":"sota","name":"Peak Range 1","coordinates":[148.23537,-22.84048]},{"code":"VK4/CH-066","program":"sota","name":"Peak Rang NP","coordinates":[148.11383,-22.75789]},{"code":"VK4/CH-075","program":"sota","name":"Malvern Hill","coordinates":[148.22667,-22.877]},{"code":"VK4/CH-084","program":"sota","name":"Calverts Peak","coordinates":[148.16927,-22.81094]},{"code":"VK4/CH-118","program":"sota","name":"Peak Range 3","coordinates":[148.12337,-22.82217]},{"code":"VK4/CH-136","program":"sota","name":"Mt Lowe","coordinates":[148.14966,-22.90415]}]}