{"lat":-23.75,"lon":30,"programs":["sota"],"count":6,"references":[{"code":"ZS/LP-194","program":"sota","name":"Woodbush State Forest","coordinates":[30.0439,-23.7287]},{"code":"ZS/LP-292","program":"sota","name":"Piesangkop","coordinates":[30.1041,-23.6963]},{"code":"ZS/LP-401","program":"sota","name":"Uitzicht","coordinates":[30.2114,-23.6863]},{"code":"ZS/LP-478","program":"sota","name":"Dilokwa","coordinates":[30.0249,-23.6247]},{"code":"ZS/LP-511","program":"sota","name":"ZS/LP-511","coordinates":[30.0482,-23.605]},{"code":"ZS/LP-512","program":"sota","name":"Ga Tswale","coordinates":[30.1097,-23.5163]}]}