{"lat":-23.75,"lon":30.25,"programs":["sota"],"count":5,"references":[{"code":"ZS/LP-373","program":"sota","name":"Malematsa","coordinates":[30.2554,-23.6198]},{"code":"ZS/LP-458","program":"sota","name":"Tlatsa","coordinates":[30.3067,-23.5703]},{"code":"ZS/LP-466","program":"sota","name":"Kgwekgwe","coordinates":[30.3225,-23.6408]},{"code":"ZS/LP-469","program":"sota","name":"Maleketla","coordinates":[30.2871,-23.6561]},{"code":"ZS/LP-516","program":"sota","name":"Mamoropa","coordinates":[30.2711,-23.5845]}]}