{"lat":-23.25,"lon":28.75,"programs":["gma","sota"],"count":9,"references":[{"code":"ZT/LP-002","program":"gma","name":"Ga-Monnaasenamoriri","coordinates":[28.988229,-23.071593]},{"code":"ZS/LP-053","program":"sota","name":"Ga Monnaasenamoriri","coordinates":[28.9887,-23.0718]},{"code":"ZS/LP-063","program":"sota","name":"The Grange","coordinates":[28.9549,-23.0748]},{"code":"ZS/LP-073","program":"sota","name":"Hananwa","coordinates":[28.9632,-23.0943]},{"code":"ZS/LP-222","program":"sota","name":"Sesuane","coordinates":[28.857,-23.1245]},{"code":"ZS/LP-377","program":"sota","name":"Lebalaleng","coordinates":[28.9,-23.1488]},{"code":"ZS/LP-437","program":"sota","name":"Lebu","coordinates":[28.7872,-23.1089]},{"code":"ZS/LP-631","program":"sota","name":"Sadu","coordinates":[28.8562,-23.2341]},{"code":"ZS/LP-649","program":"sota","name":"ZS/LP-649","coordinates":[28.8018,-23.1918]}]}