{"lat":-24,"lon":-45.5,"programs":["pota","sota"],"count":15,"references":[{"code":"BR-0257","program":"pota","name":"Ilhabela State Park","coordinates":[-45.336,-23.8514]},{"code":"PY2/IL-001","program":"sota","name":"Pico de São Sebastião","coordinates":[-45.3784,-23.8752]},{"code":"PY2/IL-002","program":"sota","name":"Morro do Papagaio","coordinates":[-45.4109,-23.8934]},{"code":"PY2/IL-003","program":"sota","name":"Morro da Ponta Alta","coordinates":[-45.29,-23.8004]},{"code":"PY2/IL-004","program":"sota","name":"Morro do Simão","coordinates":[-45.4319,-23.9084]},{"code":"PY2/IL-005","program":"sota","name":"PY2/IL-005","coordinates":[-45.3212,-23.7908]},{"code":"PY2/IL-006","program":"sota","name":"PY2/IL-006","coordinates":[-45.3119,-23.8257]},{"code":"PY2/IL-007","program":"sota","name":"Morro da Pacuíba","coordinates":[-45.3243,-23.7506]},{"code":"PY2/IL-010","program":"sota","name":"Morro do Eixo","coordinates":[-45.2515,-23.7794]},{"code":"PY2/IL-012","program":"sota","name":"Morro do Mirante","coordinates":[-45.2633,-23.9376]},{"code":"PY2/IL-013","program":"sota","name":"Morro das Enchovas","coordinates":[-45.2923,-23.8958]},{"code":"PY2/IL-014","program":"sota","name":"PY2/IL-014","coordinates":[-45.2686,-23.9036]},{"code":"PY2/MC-035","program":"sota","name":"PY2/MC-035","coordinates":[-45.4384,-23.7514]},{"code":"PY2/MC-037","program":"sota","name":"PY2/MC-037","coordinates":[-45.4305,-23.772]},{"code":"PY2/MC-043","program":"sota","name":"PY2/MC-043","coordinates":[-45.4284,-23.8102]}]}