{"lat":-24.25,"lon":148,"programs":["pota","sota"],"count":6,"references":[{"code":"AU-1221","program":"pota","name":"Minerva Hills National Park","coordinates":[148.059,-24.0729]},{"code":"AU-7344","program":"pota","name":"Cairdbeign State Forest","coordinates":[148.244,-24.2148]},{"code":"VK4/CH-082","program":"sota","name":"E of Springsure (town)","coordinates":[148.12225,-24.10269]},{"code":"VK4/CH-091","program":"sota","name":"Mt Alexander","coordinates":[148.00166,-24.00789]},{"code":"VK4/CH-092","program":"sota","name":"SE of Springsure (town)","coordinates":[148.154,-24.14257]},{"code":"VK4/CH-113","program":"sota","name":"NW of St Peter","coordinates":[148.04102,-24.00799]}]}