{"lat":-24.25,"lon":151.75,"programs":["pota","sota"],"count":12,"references":[{"code":"AU-1288","program":"pota","name":"Joseph Banks Conservation Park","coordinates":[151.887,-24.1614]},{"code":"AU-1468","program":"pota","name":"Bustard Head Conservation Park","coordinates":[151.763,-24.0221]},{"code":"AU-3856","program":"pota","name":"Eurimbula Resources Area","coordinates":[151.753,-24.0812]},{"code":"AU-7123","program":"pota","name":"Reedy Creek Nature Refuge","coordinates":[151.933,-24.2479]},{"code":"AU-9196","program":"pota","name":"Springs State Beach","coordinates":[151.932,-24.2333]},{"code":"AU-9197","program":"pota","name":"Chinaman’s State Beach","coordinates":[151.922,-24.2173]},{"code":"AU-9198","program":"pota","name":"Workman’s State Beach","coordinates":[151.914,-24.2108]},{"code":"AU-9199","program":"pota","name":"Agnes Water State Beach","coordinates":[151.907,-24.2087]},{"code":"AU-9200","program":"pota","name":"Eurimbula State Beach","coordinates":[151.791,-24.1241]},{"code":"AU-9201","program":"pota","name":"Aircraft State Beach","coordinates":[151.756,-24.0192]},{"code":"AU-11005","program":"pota","name":"Cook’s Landing Place State Heritage Area","coordinates":[151.883,-24.16]},{"code":"VK4/SW-105","program":"sota","name":"VK4/SW-105","coordinates":[151.78128,-24.24405]}]}