{"lat":-24.75,"lon":151.25,"programs":["pota","sota"],"count":11,"references":[{"code":"AU-1402","program":"pota","name":"Dawes National Park","coordinates":[151.271,-24.5406]},{"code":"AU-6998","program":"pota","name":"Kalpowar State Forest","coordinates":[151.363,-24.6641]},{"code":"AU-7312","program":"pota","name":"Borilla State Forest","coordinates":[151.453,-24.7182]},{"code":"AU-7313","program":"pota","name":"Bulburin State Forest","coordinates":[151.471,-24.5268]},{"code":"AU-7314","program":"pota","name":"Glassford State Forest","coordinates":[151.335,-24.5699]},{"code":"AU-7452","program":"pota","name":"New Cannindah State Forest","coordinates":[151.302,-24.7006]},{"code":"AU-7473","program":"pota","name":"Splinter Creek State Forest","coordinates":[151.308,-24.697]},{"code":"AU-7531","program":"pota","name":"Boyne Burnett Inland Rail State Trail","coordinates":[151.316,-24.667]},{"code":"VK4/CA-002","program":"sota","name":"Mt Robert","coordinates":[151.27512,-24.5095]},{"code":"VK4/SW-013","program":"sota","name":"Mt Fort William","coordinates":[151.34105,-24.64962]},{"code":"VK4/SW-037","program":"sota","name":"Mt Beatrice","coordinates":[151.43777,-24.63115]}]}