{"lat":-24.5,"lon":150.75,"programs":["pota","sota"],"count":9,"references":[{"code":"AU-1269","program":"pota","name":"Kroombit Tops National Park","coordinates":[150.951,-24.4145]},{"code":"VK4/CA-001","program":"sota","name":"Calliope Range 1","coordinates":[150.94107,-24.35717]},{"code":"VK4/CA-004","program":"sota","name":"Mt Rideout","coordinates":[150.97458,-24.31349]},{"code":"VK4/CA-005","program":"sota","name":"Mt Seaview","coordinates":[150.9427,-24.2777]},{"code":"VK4/CA-006","program":"sota","name":"Calliope Range 2","coordinates":[150.89598,-24.33739]},{"code":"VK4/CA-009","program":"sota","name":"Calliope Range 4","coordinates":[150.89311,-24.28815]},{"code":"VK4/CA-011","program":"sota","name":"Calliope Range 5","coordinates":[150.8904,-24.25363]},{"code":"VK4/CA-018","program":"sota","name":"Calliope Range 6","coordinates":[150.86453,-24.2823]},{"code":"VK4/CA-042","program":"sota","name":"Mt Pack","coordinates":[150.9919,-24.25068]}]}