{"lat":-24.25,"lon":151,"programs":["pota","sota"],"count":8,"references":[{"code":"AU-1350","program":"pota","name":"Futter Creek Conservation Park","coordinates":[151.049,-24.2213]},{"code":"AU-1406","program":"pota","name":"Dan Dan National Park","coordinates":[151.067,-24.1598]},{"code":"AU-7183","program":"pota","name":"Dan Dan State Forest","coordinates":[151.092,-24.2016]},{"code":"AU-7184","program":"pota","name":"Boyne Range State Forest","coordinates":[151.183,-24.1036]},{"code":"AU-7318","program":"pota","name":"Wietalaba State Forest","coordinates":[151.249,-24.2422]},{"code":"VK4/CA-082","program":"sota","name":"Pine Mtn","coordinates":[151.04353,-24.16266]},{"code":"VK4/CA-111","program":"sota","name":"Mt Tom","coordinates":[151.14203,-24.13915]},{"code":"VK4/CA-126","program":"sota","name":"Mt More","coordinates":[151.07619,-24.0228]}]}