{"lat":-24,"lon":28.5,"programs":["sota"],"count":6,"references":[{"code":"ZS/LP-616","program":"sota","name":"Gemsbokfontein","coordinates":[28.5241,-23.9333]},{"code":"ZS/LP-618","program":"sota","name":"Kgopung","coordinates":[28.5854,-23.8157]},{"code":"ZS/LP-625","program":"sota","name":"Senwane","coordinates":[28.5878,-23.7828]},{"code":"ZS/LP-627","program":"sota","name":"ZS/LP-627","coordinates":[28.5414,-23.7815]},{"code":"ZS/LP-634","program":"sota","name":"Mmamatlakala","coordinates":[28.5843,-23.9932]},{"code":"ZS/LP-650","program":"sota","name":"Phatsane","coordinates":[28.5902,-23.9591]}]}