{"lat":-24,"lon":151,"programs":["pota","sota"],"count":11,"references":[{"code":"AU-1348","program":"pota","name":"Garden Island Conservation Park","coordinates":[151.243,-23.79]},{"code":"AU-1463","program":"pota","name":"Calliope Conservation Park","coordinates":[151.156,-23.8714]},{"code":"AU-7127","program":"pota","name":"Targinie State Forest","coordinates":[151.125,-23.7886]},{"code":"AU-7128","program":"pota","name":"Mount Stowe State Forest","coordinates":[151.126,-23.8868]},{"code":"AU-7153","program":"pota","name":"Mount Maurice State Forest","coordinates":[151.235,-23.9286]},{"code":"AU-7154","program":"pota","name":"Beecher State Forest","coordinates":[151.182,-23.9537]},{"code":"AU-9209","program":"pota","name":"Spinnaker Beach Cove State Beach","coordinates":[151.248,-23.8293]},{"code":"VK4/CA-037","program":"sota","name":"Mt Larcom","coordinates":[151.08546,-23.80549]},{"code":"VK4/CA-113","program":"sota","name":"Near Targinie SF","coordinates":[151.12567,-23.80462]},{"code":"VK4/CA-123","program":"sota","name":"Mt Sugarloaf","coordinates":[151.10188,-23.85835]},{"code":"VK4/CA-137","program":"sota","name":"Larcom Range","coordinates":[151.00002,-23.77997]}]}