{"lat":-24,"lon":151.25,"programs":["pota"],"count":6,"references":[{"code":"AU-1020","program":"pota","name":"Wild Cattle Island National Park","coordinates":[151.413,-23.9808]},{"code":"AU-1487","program":"pota","name":"Boyne Island Conservation Park","coordinates":[151.344,-23.9495]},{"code":"AU-9205","program":"pota","name":"Tannum Sands State Beach","coordinates":[151.375,-23.9463]},{"code":"AU-9206","program":"pota","name":"Second State Beach","coordinates":[151.37,-23.94]},{"code":"AU-9207","program":"pota","name":"Lilley’s State Beach","coordinates":[151.343,-23.9172]},{"code":"AU-9208","program":"pota","name":"Barney Point State Beach","coordinates":[151.273,-23.8466]}]}