{"lat":-24.25,"lon":150.5,"programs":["pota","sota"],"count":5,"references":[{"code":"AU-7373","program":"pota","name":"Don River State Forest","coordinates":[150.673,-24.073]},{"code":"VK4/CA-021","program":"sota","name":"SE of Mt Eugenie","coordinates":[150.61926,-24.08329]},{"code":"VK4/CA-040","program":"sota","name":"Mt Redshirt","coordinates":[150.73106,-24.08377]},{"code":"VK4/CA-060","program":"sota","name":"NE of Bottle Tree Mtn","coordinates":[150.61447,-24.15723]},{"code":"VK4/CA-081","program":"sota","name":"Bottle Tree Mtn","coordinates":[150.59866,-24.19038]}]}