{"lat":-25.75,"lon":-67,"programs":["sota"],"count":8,"references":[{"code":"LUR/AS-087","program":"sota","name":"LUR/AS-087","coordinates":[-66.9984,-25.7031]},{"code":"LUR/AS-109","program":"sota","name":"Casas Viejas","coordinates":[-66.7639,-25.5379]},{"code":"LUR/AS-132","program":"sota","name":"Cerro Agua Caliente","coordinates":[-66.9688,-25.6179]},{"code":"LUR/AS-133","program":"sota","name":"LUR/AS-133","coordinates":[-66.7653,-25.5179]},{"code":"LUR/AS-176","program":"sota","name":"Médano de Las Barrancas","coordinates":[-66.8515,-25.7222]},{"code":"LUR/AS-183","program":"sota","name":"Del Hombre Muerto","coordinates":[-66.9963,-25.5422]},{"code":"LUR/AS-218","program":"sota","name":"LUR/AS-218","coordinates":[-66.8442,-25.6179]},{"code":"LUR/AS-251","program":"sota","name":"LUR/AS-251","coordinates":[-66.8359,-25.508]}]}