{"lat":-25,"lon":30.5,"programs":["pota","sota"],"count":10,"references":[{"code":"ZA-0099","program":"pota","name":"Mount Sheba Nature Reserve","coordinates":[30.7187,-24.8099]},{"code":"ZS/LP-093","program":"sota","name":"Thabatswenya","coordinates":[30.6,-24.8696]},{"code":"ZS/LP-108","program":"sota","name":"Boschhoek","coordinates":[30.6089,-24.7987]},{"code":"ZS/LP-140","program":"sota","name":"Onverwacht","coordinates":[30.5954,-24.7622]},{"code":"ZS/LP-187","program":"sota","name":"Jackton","coordinates":[30.521,-24.8314]},{"code":"ZS/LP-199","program":"sota","name":"Origkop","coordinates":[30.5128,-24.7692]},{"code":"ZS/LP-226","program":"sota","name":"Mmagotlaoje","coordinates":[30.5867,-24.8328]},{"code":"ZS/LP-615","program":"sota","name":"ZS/LP-615","coordinates":[30.5668,-24.8239]},{"code":"ZS/MP-048","program":"sota","name":"Black Hill","coordinates":[30.7231,-24.8438]},{"code":"ZS/MP-128","program":"sota","name":"ZS/MP-128","coordinates":[30.5068,-24.9219]}]}