{"lat":-25.5,"lon":27,"programs":["sota"],"count":9,"references":[{"code":"ZS/NW-047","program":"sota","name":"Buffelspan","coordinates":[27.0715,-25.2853]},{"code":"ZS/NW-063","program":"sota","name":"Tussenkoms","coordinates":[27.0026,-25.3008]},{"code":"ZS/NW-064","program":"sota","name":"ZS/NW-064","coordinates":[27.0937,-25.309]},{"code":"ZS/NW-066","program":"sota","name":"Matlatswane","coordinates":[27.0108,-25.2659]},{"code":"ZS/NW-067","program":"sota","name":"Magare","coordinates":[27.1246,-25.3003]},{"code":"ZS/NW-084","program":"sota","name":"Nkakane","coordinates":[27.1931,-25.2709]},{"code":"ZS/NW-092","program":"sota","name":"Sun City","coordinates":[27.0947,-25.3522]},{"code":"ZS/NW-094","program":"sota","name":"ZS/NW-094","coordinates":[27.1282,-25.2796]},{"code":"ZS/NW-100","program":"sota","name":"ZS/NW-100","coordinates":[27.113,-25.3464]}]}