{"lat":-25.75,"lon":27.75,"programs":["sota"],"count":5,"references":[{"code":"ZS/GP-008","program":"sota","name":"Magaliesberg","coordinates":[27.9867,-25.69]},{"code":"ZS/NW-041","program":"sota","name":"Magaliesberg (Aerial Cableway)","coordinates":[27.8859,-25.7111]},{"code":"ZS/NW-043","program":"sota","name":"Commando Nek","coordinates":[27.8109,-25.7343]},{"code":"ZS/NW-062","program":"sota","name":"Kosmos","coordinates":[27.8453,-25.7378]},{"code":"ZS/NW-095","program":"sota","name":"Krokodilberg East","coordinates":[27.7604,-25.5424]}]}