{"lat":-25,"lon":147.75,"programs":["sota"],"count":6,"references":[{"code":"VK4/CH-001","program":"sota","name":"VK4/CH-001","coordinates":[147.88994,-24.79977]},{"code":"VK4/CH-002","program":"sota","name":"NW of Mt Lethbridge","coordinates":[147.93306,-24.85949]},{"code":"VK4/CH-005","program":"sota","name":"Mt Rugged","coordinates":[147.99734,-24.89987]},{"code":"VK4/CH-011","program":"sota","name":"The Steeple","coordinates":[147.96255,-24.8478]},{"code":"VK4/CH-012","program":"sota","name":"Mt Lyon","coordinates":[147.8081,-24.83877]},{"code":"VK4/CH-013","program":"sota","name":"Round Mtn","coordinates":[147.9905,-24.82204]}]}