{"lat":-25.75,"lon":152.25,"programs":["pota"],"count":5,"references":[{"code":"AU-1016","program":"pota","name":"Woocoo National Park","coordinates":[152.33,-25.6383]},{"code":"AU-1364","program":"pota","name":"Fairlies Knob National Park","coordinates":[152.283,-25.5017]},{"code":"AU-7301","program":"pota","name":"St Mary 1 State Forest","coordinates":[152.453,-25.7298]},{"code":"AU-7305","program":"pota","name":"Thinoomba State Forest","coordinates":[152.464,-25.5558]},{"code":"AU-7308","program":"pota","name":"Gungaloon State Forest","coordinates":[152.496,-25.5306]}]}