{"lat":-25.5,"lon":-68.25,"programs":["sota"],"count":10,"references":[{"code":"LUR/AS-021","program":"sota","name":"Cerro Onas","coordinates":[-68.0036,-25.446]},{"code":"LUR/AS-028","program":"sota","name":"Cerro Ojo Antofalla","coordinates":[-68.0942,-25.4484]},{"code":"LUR/AS-030","program":"sota","name":"LUR/AS-030","coordinates":[-68.0007,-25.422]},{"code":"LUR/AS-046","program":"sota","name":"Cerro Patos","coordinates":[-68.0772,-25.4686]},{"code":"LUR/AS-074","program":"sota","name":"Alancay","coordinates":[-68.1917,-25.3468]},{"code":"LUR/AS-126","program":"sota","name":"LUR/AS-126","coordinates":[-68.1985,-25.4314]},{"code":"LUR/AS-138","program":"sota","name":"LUR/AS-138","coordinates":[-68.1246,-25.4506]},{"code":"LUR/AS-181","program":"sota","name":"LUR/AS-181","coordinates":[-68.2346,-25.4002]},{"code":"LUR/AS-189","program":"sota","name":"LUR/AS-189","coordinates":[-68.2281,-25.2538]},{"code":"LUR/AS-191","program":"sota","name":"LUR/AS-191","coordinates":[-68.2187,-25.3945]}]}