{"lat":-25.5,"lon":26.75,"programs":["gma","sota"],"count":5,"references":[{"code":"ZT/NW-013","program":"gma","name":"Matlapeng","coordinates":[26.80330086,-25.44000053]},{"code":"ZS/NW-022","program":"sota","name":"Swartkop","coordinates":[26.958,-25.3855]},{"code":"ZS/NW-060","program":"sota","name":"Ratumoga","coordinates":[26.8281,-25.2785]},{"code":"ZS/NW-070","program":"sota","name":"Holfontein","coordinates":[26.7555,-25.2617]},{"code":"ZS/NW-090","program":"sota","name":"Sandrivierspoort","coordinates":[26.9946,-25.3268]}]}