{"lat":-25.25,"lon":27.5,"programs":["sota"],"count":7,"references":[{"code":"ZS/NW-031","program":"sota","name":"Elandsberg","coordinates":[27.5711,-25.0552]},{"code":"ZS/NW-102","program":"sota","name":"Bakenkop","coordinates":[27.534,-25.1259]},{"code":"ZS/NW-104","program":"sota","name":"Langrant","coordinates":[27.5153,-25.1836]},{"code":"ZS/NW-105","program":"sota","name":"Buffelspoort","coordinates":[27.5972,-25.0819]},{"code":"ZS/NW-107","program":"sota","name":"Swartberg","coordinates":[27.515,-25.1201]},{"code":"ZS/NW-108","program":"sota","name":"Doornkloof","coordinates":[27.5952,-25.126]},{"code":"ZS/NW-112","program":"sota","name":"Witranjies (East Peak)","coordinates":[27.5439,-25.1692]}]}