{"lat":-25.5,"lon":151.25,"programs":["pota"],"count":5,"references":[{"code":"AU-1141","program":"pota","name":"Nour Nour National Park","coordinates":[151.429,-25.3025]},{"code":"AU-1320","program":"pota","name":"Gurgeena Conservation Park","coordinates":[151.357,-25.4148]},{"code":"AU-7275","program":"pota","name":"Gurgeena State Forest","coordinates":[151.365,-25.4593]},{"code":"AU-7450","program":"pota","name":"Mundowran State Forest","coordinates":[151.359,-25.4958]},{"code":"AU-7467","program":"pota","name":"Reid State Forest","coordinates":[151.406,-25.4902]}]}