{"lat":-26.25,"lon":-67,"programs":["sota"],"count":7,"references":[{"code":"LUR/AS-081","program":"sota","name":"LUR/AS-081","coordinates":[-66.9453,-26.0327]},{"code":"LUR/AS-155","program":"sota","name":"Cerro Pabellón","coordinates":[-66.9267,-26.0963]},{"code":"LUR/BE-002","program":"sota","name":"Cerro León Muerto","coordinates":[-66.8561,-26.1176]},{"code":"LUR/BE-003","program":"sota","name":"Cerro León Chico","coordinates":[-66.8513,-26.1456]},{"code":"LUR/BE-006","program":"sota","name":"LUR/BE-006","coordinates":[-66.7974,-26.0596]},{"code":"LUR/BE-012","program":"sota","name":"Médano Trancado","coordinates":[-66.9755,-26.2181]},{"code":"LUR/BE-014","program":"sota","name":"LUR/BE-014","coordinates":[-66.8467,-26.2119]}]}