{"lat":-26.5,"lon":153,"programs":["pota"],"count":27,"references":[{"code":"AU-1028","program":"pota","name":"Weyba Creek Conservation Park","coordinates":[153.078,-26.4029]},{"code":"AU-1092","program":"pota","name":"Sheep Island Conservation Park","coordinates":[153.043,-26.3851]},{"code":"AU-1145","program":"pota","name":"Noosa National Park","coordinates":[153.092,-26.4473]},{"code":"AU-1278","program":"pota","name":"Keyser Island Conservation Park","coordinates":[153.073,-26.4002]},{"code":"AU-1314","program":"pota","name":"Harry Spring Conservation Park","coordinates":[153.01,-26.3863]},{"code":"AU-1335","program":"pota","name":"Goat Island (Noosa River) Conservation Park","coordinates":[153.047,-26.3938]},{"code":"AU-3802","program":"pota","name":"Arthur Harrold Nature Refuge","coordinates":[153.054,-26.3547]},{"code":"AU-3804","program":"pota","name":"Beach Road Nature Refuge","coordinates":[153.046,-26.3538]},{"code":"AU-3806","program":"pota","name":"Bill Huxley Nature Refuge","coordinates":[153.061,-26.3711]},{"code":"AU-3816","program":"pota","name":"Cooroibah Environmental Reserve Nature Refuge","coordinates":[153.005,-26.361]},{"code":"AU-3819","program":"pota","name":"Doonan Wetlands Nature Refuge","coordinates":[153.055,-26.4814]},{"code":"AU-3820","program":"pota","name":"Doonella Wetlands Nature Refuge","coordinates":[153.03,-26.3946]},{"code":"AU-3823","program":"pota","name":"Girraween Nature Refuge","coordinates":[153.09,-26.4161]},{"code":"AU-3827","program":"pota","name":"Johns Landing Nature Refuge","coordinates":[153.024,-26.336]},{"code":"AU-3859","program":"pota","name":"Great Sandy Resources Area","coordinates":[153.06,-26.3306]},{"code":"AU-6359","program":"pota","name":"Cooroibah Conservation Park","coordinates":[153.011,-26.3587]},{"code":"AU-7061","program":"pota","name":"Weyba Nature Refuge","coordinates":[153.044,-26.4371]},{"code":"AU-8835","program":"pota","name":"Peregian Beach State Beach","coordinates":[153.098,-26.4842]},{"code":"AU-8836","program":"pota","name":"Marcus Beach State Beach","coordinates":[153.104,-26.4495]},{"code":"AU-8837","program":"pota","name":"Castaways Beach State Beach","coordinates":[153.108,-26.432]},{"code":"AU-8838","program":"pota","name":"Sunrise Beach State Beach","coordinates":[153.111,-26.4173]},{"code":"AU-8839","program":"pota","name":"Sunshine Beach State Beach","coordinates":[153.113,-26.4072]},{"code":"AU-8840","program":"pota","name":"Little Cove State Beach","coordinates":[153.096,-26.3838]},{"code":"AU-8841","program":"pota","name":"Noosa Heads Main State Beach","coordinates":[153.091,-26.3858]},{"code":"AU-8937","program":"pota","name":"Teewah State Beach","coordinates":[153.067,-26.2752]},{"code":"AU-9866","program":"pota","name":"Alexandria Bay State Beach","coordinates":[153.116,-26.3866]},{"code":"AU-10517","program":"pota","name":"Noosa National Wild and Scenic River","coordinates":[153.053,-26.3977]}]}