{"lat":-26.75,"lon":-68.25,"programs":["sota"],"count":10,"references":[{"code":"LUR/AS-018","program":"sota","name":"Cerro Peinado","coordinates":[-68.1155,-26.6223]},{"code":"LUR/AS-052","program":"sota","name":"Bolinder","coordinates":[-68.0845,-26.7078]},{"code":"LUR/AS-058","program":"sota","name":"Zacarías Sánchez","coordinates":[-68.0958,-26.7458]},{"code":"LUR/AS-059","program":"sota","name":"LUR/AS-059","coordinates":[-68.0761,-26.7191]},{"code":"LUR/AS-060","program":"sota","name":"LUR/AS-060","coordinates":[-68.0901,-26.6878]},{"code":"LUR/AS-084","program":"sota","name":"LUR/AS-084","coordinates":[-68.0726,-26.7498]},{"code":"LUR/AS-104","program":"sota","name":"LUR/AS-104","coordinates":[-68.0141,-26.6301]},{"code":"LUR/AS-110","program":"sota","name":"Loma Larga","coordinates":[-68.1769,-26.7309]},{"code":"LUR/AS-145","program":"sota","name":"Laguna Amarga","coordinates":[-68.2014,-26.6032]},{"code":"LUR/AS-208","program":"sota","name":"LUR/AS-208","coordinates":[-68.1502,-26.5418]}]}