{"lat":-26.25,"lon":152.5,"programs":["pota","sota"],"count":13,"references":[{"code":"AU-1277","program":"pota","name":"King Conservation Park","coordinates":[152.546,-26.1861]},{"code":"AU-1319","program":"pota","name":"Gympie National Park","coordinates":[152.704,-26.0867]},{"code":"AU-6987","program":"pota","name":"Brooyar 1 State Forest","coordinates":[152.524,-26.1437]},{"code":"AU-7132","program":"pota","name":"Fishermans Pocket State Forest","coordinates":[152.597,-26.1621]},{"code":"AU-7133","program":"pota","name":"Curra State Forest","coordinates":[152.64,-26.1008]},{"code":"AU-7136","program":"pota","name":"Lynchs Hill State Forest","coordinates":[152.601,-26.2051]},{"code":"AU-7138","program":"pota","name":"King State Forest","coordinates":[152.551,-26.171]},{"code":"AU-7378","program":"pota","name":"Gympie State Forest","coordinates":[152.708,-26.0895]},{"code":"AU-10989","program":"pota","name":"Gympie Memorial Park State Heritage Area","coordinates":[152.661,-26.1907]},{"code":"VK4/SE-166","program":"sota","name":"VK4/SE-166","coordinates":[152.7442,-26.072]},{"code":"VK4/SW-076","program":"sota","name":"VK4/SW-076","coordinates":[152.57436,-26.23435]},{"code":"VK4/SW-092","program":"sota","name":"Mt Corella","coordinates":[152.61452,-26.11465]},{"code":"VK4/SW-094","program":"sota","name":"Brooyar SF","coordinates":[152.51701,-26.15925]}]}