{"lat":-26,"lon":27.75,"programs":["gma","pota","sota"],"count":7,"references":[{"code":"ZT/GP-002","program":"gma","name":"Kloofzicht","coordinates":[27.82858,-25.98204]},{"code":"ZA-0120","program":"pota","name":"Diepsloot Nature Reserve","coordinates":[27.9591,-25.9418]},{"code":"ZS/GP-024","program":"sota","name":"Swartkop","coordinates":[27.8285,-25.9822]},{"code":"ZS/GP-025","program":"sota","name":"Hennopsriver","coordinates":[27.9612,-25.8198]},{"code":"ZS/NW-048","program":"sota","name":"Witwatersberg","coordinates":[27.8088,-25.8099]},{"code":"ZS/NW-057","program":"sota","name":"Renosterkop","coordinates":[27.9213,-25.8285]},{"code":"ZS/NW-075","program":"sota","name":"ZS/NW-075","coordinates":[27.8797,-25.7823]}]}