{"lat":-26.75,"lon":-66.75,"programs":["sota"],"count":7,"references":[{"code":"LUR/BE-005","program":"sota","name":"LUR/BE-005","coordinates":[-66.6753,-26.6671]},{"code":"LUR/BE-040","program":"sota","name":"Mogote Río","coordinates":[-66.7241,-26.5757]},{"code":"LUR/SM-003","program":"sota","name":"Cerro Bayo Grande","coordinates":[-66.6559,-26.7309]},{"code":"LUR/SM-009","program":"sota","name":"LUR/SM-009","coordinates":[-66.6235,-26.735]},{"code":"LUR/SM-010","program":"sota","name":"Cerro Overo","coordinates":[-66.5839,-26.6824]},{"code":"LUR/SM-011","program":"sota","name":"Cerro La Tipa","coordinates":[-66.5308,-26.6401]},{"code":"LUR/SM-013","program":"sota","name":"LUR/SM-013","coordinates":[-66.5678,-26.5601]}]}