{"lat":-26.75,"lon":152.25,"programs":["pota","sota"],"count":7,"references":[{"code":"AU-3340","program":"pota","name":"Yabba 2 Forest Reserve","coordinates":[152.302,-26.5411]},{"code":"AU-6997","program":"pota","name":"Jimna State Forest","coordinates":[152.44,-26.6527]},{"code":"AU-7261","program":"pota","name":"Squirrel Creek State Forest","coordinates":[152.322,-26.7387]},{"code":"AU-7262","program":"pota","name":"Diaper State Forest","coordinates":[152.329,-26.5865]},{"code":"AU-7276","program":"pota","name":"Yabba State Forest","coordinates":[152.36,-26.5487]},{"code":"AU-7413","program":"pota","name":"Sunday Creek State Forest","coordinates":[152.475,-26.7153]},{"code":"VK4/SW-008","program":"sota","name":"Mt Monsildale","coordinates":[152.3441,-26.68711]}]}