{"lat":-26,"lon":152.25,"programs":["pota","sota"],"count":11,"references":[{"code":"AU-1337","program":"pota","name":"Glenbar National Park","coordinates":[152.341,-25.8393]},{"code":"AU-7294","program":"pota","name":"Glenbar 1 State Forest","coordinates":[152.404,-25.8069]},{"code":"AU-7295","program":"pota","name":"Glenbar 2 State Forest","coordinates":[152.443,-25.819]},{"code":"AU-7296","program":"pota","name":"Glenbar 3 State Forest","coordinates":[152.412,-25.8287]},{"code":"AU-7297","program":"pota","name":"Glenbar 4 State Forest","coordinates":[152.468,-25.8407]},{"code":"AU-7298","program":"pota","name":"Miva 1 State Forest","coordinates":[152.434,-25.9044]},{"code":"AU-7299","program":"pota","name":"Miva 2 State Forest","coordinates":[152.391,-25.913]},{"code":"AU-7303","program":"pota","name":"St Mary 3 State Forest","coordinates":[152.482,-25.7597]},{"code":"AU-11010","program":"pota","name":"Dickabram Bridge State Heritage Area","coordinates":[152.495,-25.9543]},{"code":"VK4/SW-026","program":"sota","name":"Mt Urah","coordinates":[152.35136,-25.8297]},{"code":"VK4/SW-089","program":"sota","name":"Mt Kola","coordinates":[152.29837,-25.91363]}]}