{"lat":-27.25,"lon":-66,"programs":["pota","sota"],"count":10,"references":[{"code":"AR-0150","program":"pota","name":"La Florida Provincial Park","coordinates":[-65.8876,-27.1178]},{"code":"AR-0152","program":"pota","name":"Aconquija National Park","coordinates":[-65.9393,-27.205]},{"code":"LUK/TS-007","program":"sota","name":"LUK/TS-007","coordinates":[-65.9851,-27.115]},{"code":"LUK/TS-011","program":"sota","name":"Cerro Bolsón","coordinates":[-65.9751,-27.0565]},{"code":"LUK/TS-012","program":"sota","name":"Media Agua","coordinates":[-65.9646,-27.0427]},{"code":"LUK/TS-013","program":"sota","name":"LUK/TS-013","coordinates":[-65.9641,-27.033]},{"code":"LUK/TS-017","program":"sota","name":"LUK/TS-017","coordinates":[-65.8803,-27.1144]},{"code":"LUK/TS-034","program":"sota","name":"LUK/TS-034","coordinates":[-65.7859,-27.1109]},{"code":"LUK/TS-035","program":"sota","name":"LUK/TS-035","coordinates":[-65.7957,-27.1422]},{"code":"LUR/SM-004","program":"sota","name":"Cerro de la Laguna Verde","coordinates":[-65.9862,-27.0966]}]}