{"lat":-27.5,"lon":152.25,"programs":["pota","sota"],"count":5,"references":[{"code":"AU-1249","program":"pota","name":"Lockyer National Park","coordinates":[152.258,-27.4653]},{"code":"AU-1377","program":"pota","name":"Esk National Park","coordinates":[152.32,-27.2948]},{"code":"AU-7289","program":"pota","name":"Esk State Forest","coordinates":[152.344,-27.3025]},{"code":"VK4/SE-089","program":"sota","name":"Mt Hallen","coordinates":[152.41248,-27.33176]},{"code":"VK4/SE-164","program":"sota","name":"Mount Mulgowie","coordinates":[152.3627,-27.3581]}]}