{"lat":-27.5,"lon":153,"programs":["pota"],"count":58,"references":[{"code":"AU-1054","program":"pota","name":"Tingalpa Creek Conservation Park","coordinates":[153.186,-27.4944]},{"code":"AU-1073","program":"pota","name":"St Helena Island National Park","coordinates":[153.233,-27.3916]},{"code":"AU-1276","program":"pota","name":"King Island Conservation Park","coordinates":[153.234,-27.457]},{"code":"AU-1355","program":"pota","name":"Fort Lytton National Park","coordinates":[153.152,-27.411]},{"code":"AU-8921","program":"pota","name":"Wellington Point State Beach","coordinates":[153.239,-27.4661]},{"code":"AU-8922","program":"pota","name":"King Island State Beach","coordinates":[153.234,-27.4571]},{"code":"AU-8940","program":"pota","name":"Pandanus State Beach","coordinates":[153.177,-27.4412]},{"code":"AU-9255","program":"pota","name":"Scott’s Point State Beach","coordinates":[153.11,-27.251]},{"code":"AU-9256","program":"pota","name":"Woody Point State Beach","coordinates":[153.102,-27.2605]},{"code":"AU-9257","program":"pota","name":"Bells State Beach","coordinates":[153.091,-27.2569]},{"code":"AU-9258","program":"pota","name":"Clontarf State Beach","coordinates":[153.082,-27.2602]},{"code":"AU-9259","program":"pota","name":"Brighton State Beach","coordinates":[153.065,-27.2927]},{"code":"AU-9260","program":"pota","name":"Sandgate State Beach","coordinates":[153.07,-27.314]},{"code":"AU-9261","program":"pota","name":"Shorncliffe State Beach","coordinates":[153.085,-27.3234]},{"code":"AU-9262","program":"pota","name":"Nudgee State Beach","coordinates":[153.102,-27.3438]},{"code":"AU-9264","program":"pota","name":"Wynnum State Beach","coordinates":[153.179,-27.4439]},{"code":"AU-9265","program":"pota","name":"Eastwood State Beach","coordinates":[153.187,-27.4513]},{"code":"AU-9266","program":"pota","name":"Manly-Inspiration Point State Beach","coordinates":[153.194,-27.458]},{"code":"AU-10519","program":"pota","name":"Pine National Wild and Scenic River","coordinates":[153.035,-27.2993]},{"code":"AU-10522","program":"pota","name":"Brisbane National Wild and Scenic River","coordinates":[153.146,-27.4119]},{"code":"AU-10839","program":"pota","name":"Raymond Park (West) Air Raid Shelter State Heritage Area","coordinates":[153.037,-27.4809]},{"code":"AU-10840","program":"pota","name":"Mowbray Park State Heritage Area","coordinates":[153.045,-27.4786]},{"code":"AU-10841","program":"pota","name":"New Farm Park State Heritage Area","coordinates":[153.052,-27.4694]},{"code":"AU-10856","program":"pota","name":"Newstead House and Park State Heritage Area","coordinates":[153.046,-27.4423]},{"code":"AU-10857","program":"pota","name":"Woolloongabba Air Raid Shelter State Heritage Area","coordinates":[153.043,-27.4939]},{"code":"AU-10858","program":"pota","name":"Gair Park State Heritage Area","coordinates":[153.027,-27.4968]},{"code":"AU-10859","program":"pota","name":"Kangaroo Point Cliffs State Heritage Area","coordinates":[153.034,-27.4782]},{"code":"AU-10860","program":"pota","name":"Wickham Park Air Raid Shelter State Heritage Area","coordinates":[153.021,-27.4648]},{"code":"AU-10861","program":"pota","name":"Anning Monument State Heritage Area","coordinates":[153.126,-27.4503]},{"code":"AU-10862","program":"pota","name":"Kalinga Park State Heritage Area","coordinates":[153.052,-27.4067]},{"code":"AU-10863","program":"pota","name":"Sandgate War Memorial Park State Heritage Area","coordinates":[153.07,-27.3206]},{"code":"AU-10864","program":"pota","name":"Hornibrook Highway Bridge State Heritage Area","coordinates":[153.079,-27.2632]},{"code":"AU-10872","program":"pota","name":"Wynnum Wading Pool Reserve State Heritage Area","coordinates":[153.176,-27.4415]},{"code":"AU-10873","program":"pota","name":"RAN Station 9, Pinkenba State Heritage Area","coordinates":[153.142,-27.3907]},{"code":"AU-10880","program":"pota","name":"Victoria Park State Heritage Area","coordinates":[153.021,-27.4554]},{"code":"AU-10883","program":"pota","name":"Windsor War Memorial Park State Heritage Area","coordinates":[153.032,-27.4304]},{"code":"AU-10894","program":"pota","name":"Bowen Park State Heritage Area","coordinates":[153.03,-27.4486]},{"code":"AU-10897","program":"pota","name":"Bulimba Memorial Park State Heritage Area","coordinates":[153.057,-27.4525]},{"code":"AU-10898","program":"pota","name":"Brisbane Botanic Gardens State Heritage Area","coordinates":[153.03,-27.4736]},{"code":"AU-10900","program":"pota","name":"Bedford Playground State Heritage Area","coordinates":[153.028,-27.4571]},{"code":"AU-10929","program":"pota","name":"King Edward Park Air Raid Shelter State Heritage Area","coordinates":[153.024,-27.4659]},{"code":"AU-10940","program":"pota","name":"Ithaca War Memorial and Park State Heritage Area","coordinates":[153.001,-27.4585]},{"code":"AU-10941","program":"pota","name":"Manly War Memorial State Heritage Area","coordinates":[153.183,-27.4554]},{"code":"AU-10942","program":"pota","name":"Morningside Air Raid Shelter State Heritage Area","coordinates":[153.07,-27.4691]},{"code":"AU-10944","program":"pota","name":"Neal Macrossan Playground State Heritage Area","coordinates":[153.01,-27.4623]},{"code":"AU-10948","program":"pota","name":"Pinkenba War Memorial State Heritage Area","coordinates":[153.119,-27.4235]},{"code":"AU-10949","program":"pota","name":"Raymond Park (East) Air Raid Shelter State Heritage Area","coordinates":[153.04,-27.4809]},{"code":"AU-10951","program":"pota","name":"First Free Settlers Monument State Heritage Area","coordinates":[153.059,-27.401]},{"code":"AU-11008","program":"pota","name":"Howard Street Wharves State Heritage Area","coordinates":[153.039,-27.4635]},{"code":"AU-11015","program":"pota","name":"Former Victoria Bridge Abutments State Heritage Area","coordinates":[153.02,-27.4734]},{"code":"AU-11016","program":"pota","name":"Queens Gardens State Heritage Area","coordinates":[153.024,-27.4723]},{"code":"AU-11017","program":"pota","name":"Old Government House State Heritage Area","coordinates":[153.029,-27.4771]},{"code":"AU-11018","program":"pota","name":"Naval Stores State Heritage Area","coordinates":[153.034,-27.4744]},{"code":"AU-11019","program":"pota","name":"Story Bridge State Heritage Area","coordinates":[153.036,-27.4648]},{"code":"AU-11020","program":"pota","name":"Gas Stripping Tower State Heritage Area","coordinates":[153.003,-27.4793]},{"code":"AU-11021","program":"pota","name":"William Jolly Bridge State Heritage Area","coordinates":[153.015,-27.4696]},{"code":"AU-11023","program":"pota","name":"William Street & Queens Wharf Road Retaining Walls State Heritage Area","coordinates":[153.023,-27.4719]},{"code":"AU-11189","program":"pota","name":"Hays Inlet Fish Habitat Protection Area","coordinates":[153.041,-27.2778]}]}