{"lat":-27.5,"lon":29.25,"programs":["gma","sota"],"count":8,"references":[{"code":"XZS/MP-008","program":"gma","name":"Gemsbokberg","coordinates":[29.42830086,-27.45829964]},{"code":"XZS/MP-044","program":"gma","name":"Gemsbokberg (South Peak)","coordinates":[29.4277,-27.4761]},{"code":"ZT/FS-012","program":"gma","name":"Gemsbokberg","coordinates":[29.4277,-27.4757]},{"code":"ZS/FS-043","program":"sota","name":"Gemsbokberg","coordinates":[29.4277,-27.4757]},{"code":"ZS/FS-049","program":"sota","name":"Prinsloo","coordinates":[29.2822,-27.4405]},{"code":"ZS/FS-226","program":"sota","name":"Perdekop","coordinates":[29.2778,-27.394]},{"code":"ZS/FS-235","program":"sota","name":"Delta","coordinates":[29.381,-27.4099]},{"code":"ZS/FS-236","program":"sota","name":"Landskroon","coordinates":[29.4185,-27.3135]}]}