{"lat":-27,"lon":-49,"programs":["sota"],"count":22,"references":[{"code":"PP5/VI-039","program":"sota","name":"Morro do Baú","coordinates":[-48.9309,-26.7996]},{"code":"PP5/VI-049","program":"sota","name":"Morro do Governo","coordinates":[-48.9657,-26.7889]},{"code":"PP5/VI-064","program":"sota","name":"PP5/VI-064","coordinates":[-48.9798,-26.805]},{"code":"PP5/VI-069","program":"sota","name":"PP5/VI-069","coordinates":[-48.9567,-26.759]},{"code":"PP5/VI-070","program":"sota","name":"PP5/VI-070","coordinates":[-48.9964,-26.8066]},{"code":"PP5/VI-071","program":"sota","name":"Máximo","coordinates":[-48.8987,-26.7627]},{"code":"PP5/VI-077","program":"sota","name":"Curitibano do Sul","coordinates":[-48.8694,-26.7533]},{"code":"PP5/VI-081","program":"sota","name":"PP5/VI-081","coordinates":[-48.9969,-26.9979]},{"code":"PP5/VI-083","program":"sota","name":"João Signarelli","coordinates":[-48.9953,-26.7514]},{"code":"PP5/VI-091","program":"sota","name":"PP5/VI-091","coordinates":[-48.9561,-26.8357]},{"code":"PP5/VI-111","program":"sota","name":"Morro da Guarita","coordinates":[-48.9052,-26.869]},{"code":"PP5/VI-116","program":"sota","name":"Morro da Pedra","coordinates":[-48.7748,-26.7958]},{"code":"PP5/VI-119","program":"sota","name":"Morro da Prata","coordinates":[-48.8444,-26.8028]},{"code":"PP5/VI-124","program":"sota","name":"PP5/VI-124","coordinates":[-48.8217,-26.9304]},{"code":"PP5/VI-129","program":"sota","name":"PP5/VI-129","coordinates":[-48.7867,-26.8262]},{"code":"PP5/VI-130","program":"sota","name":"São João","coordinates":[-48.7986,-26.9435]},{"code":"PP5/VI-132","program":"sota","name":"PP5/VI-132","coordinates":[-48.9724,-26.9857]},{"code":"PP5/VI-135","program":"sota","name":"Morro Pelado","coordinates":[-48.9116,-26.9585]},{"code":"PP5/VI-141","program":"sota","name":"Morro da Fruteira","coordinates":[-48.8348,-26.8463]},{"code":"PP5/VI-151","program":"sota","name":"PP5/VI-151","coordinates":[-48.7627,-26.9063]},{"code":"PP5/VI-153","program":"sota","name":"PP5/VI-153","coordinates":[-48.9387,-26.9729]},{"code":"PP5/VI-155","program":"sota","name":"PP5/VI-155","coordinates":[-48.9254,-26.9701]}]}