{"lat":-27.5,"lon":30,"programs":["gma","sota"],"count":7,"references":[{"code":"ZT/MP-002","program":"gma","name":"Kanonkop","coordinates":[30.10000038,-27.29829979]},{"code":"ZS/MP-004","program":"sota","name":"Ossewakop","coordinates":[30.1501,-27.3909]},{"code":"ZS/MP-027","program":"sota","name":"Ntshele","coordinates":[30.0464,-27.3868]},{"code":"ZS/MP-028","program":"sota","name":"Spitskop","coordinates":[30.0679,-27.3319]},{"code":"ZS/MP-036","program":"sota","name":"ZS/MP-036","coordinates":[30.0685,-27.3659]},{"code":"ZS/MP-040","program":"sota","name":"Wynberg (East Peak)","coordinates":[30.0019,-27.3328]},{"code":"ZS/MP-042","program":"sota","name":"ZS/MP-042","coordinates":[30.1861,-27.2693]}]}