{"lat":-27.5,"lon":31.5,"programs":["sota"],"count":6,"references":[{"code":"ZS/KN-401","program":"sota","name":"Phakamisa","coordinates":[31.5628,-27.4656]},{"code":"ZS/KN-413","program":"sota","name":"KwaNkweme","coordinates":[31.5287,-27.4391]},{"code":"ZS/KN-421","program":"sota","name":"Zwide","coordinates":[31.5451,-27.4436]},{"code":"ZS/KN-428","program":"sota","name":"Ngedle","coordinates":[31.5657,-27.3722]},{"code":"ZS/KN-429","program":"sota","name":"ZS/KN-429","coordinates":[31.5288,-27.3845]},{"code":"ZS/KN-459","program":"sota","name":"Mbeka","coordinates":[31.7115,-27.4333]}]}