{"lat":-27.5,"lon":152.5,"programs":["pota","sota"],"count":6,"references":[{"code":"AU-7169","program":"pota","name":"D'Aguilar State Forest","coordinates":[152.68,-27.302]},{"code":"AU-10869","program":"pota","name":"Lockyer Creek Railway Bridge (Clarendon) State Heritage Area","coordinates":[152.53,-27.4199]},{"code":"VK4/SE-045","program":"sota","name":"South of Mt Sim Jue","coordinates":[152.67807,-27.26259]},{"code":"VK4/SE-099","program":"sota","name":"Horse Mountain","coordinates":[152.72185,-27.44501]},{"code":"VK4/SE-126","program":"sota","name":"Northbrook","coordinates":[152.7238,-27.3221]},{"code":"VK4/SE-171","program":"sota","name":"Mount England","coordinates":[152.6556,-27.3962]}]}