{"lat":-27,"lon":-65.75,"programs":["pota","sota"],"count":6,"references":[{"code":"AR-0398","program":"pota","name":"Reserva provincial La Angostura Provincial Nature Reserve","coordinates":[-65.704,-26.8999]},{"code":"LUK/TN-017","program":"sota","name":"Medano del Tafi","coordinates":[-65.6321,-26.8123]},{"code":"LUK/TN-018","program":"sota","name":"LUK/TN-018","coordinates":[-65.6329,-26.7797]},{"code":"LUK/TS-016","program":"sota","name":"Cerro Ñuñorco Grande","coordinates":[-65.7151,-26.981]},{"code":"LUK/TS-019","program":"sota","name":"El Pelao","coordinates":[-65.7382,-26.9053]},{"code":"LUK/TS-033","program":"sota","name":"LUK/TS-033","coordinates":[-65.6013,-26.9853]}]}