{"lat":-28.75,"lon":28.25,"programs":["gma","sota"],"count":12,"references":[{"code":"ZT/FS-008","program":"gma","name":"Surrender Hill","coordinates":[28.39170074,-28.60499954]},{"code":"7P/SB-009","program":"sota","name":"Qholaqhoe","coordinates":[28.4461,-28.6619]},{"code":"7P/SB-010","program":"sota","name":"7P/SB-010","coordinates":[28.4656,-28.7192]},{"code":"ZS/FS-021","program":"sota","name":"Snymanshoekberg","coordinates":[28.3174,-28.5222]},{"code":"ZS/FS-022","program":"sota","name":"Mount Horeb","coordinates":[28.4561,-28.5069]},{"code":"ZS/FS-023","program":"sota","name":"ZS/FS-023","coordinates":[28.344,-28.523]},{"code":"ZS/FS-025","program":"sota","name":"Zaaihoek","coordinates":[28.3684,-28.5075]},{"code":"ZS/FS-029","program":"sota","name":"Ventersberg","coordinates":[28.2583,-28.589]},{"code":"ZS/FS-064","program":"sota","name":"ZS/FS-064","coordinates":[28.2996,-28.6767]},{"code":"ZS/FS-070","program":"sota","name":"Schoongezicht","coordinates":[28.3372,-28.6616]},{"code":"ZS/FS-084","program":"sota","name":"ZS/FS-084","coordinates":[28.3259,-28.6797]},{"code":"ZS/FS-217","program":"sota","name":"ZS/FS-217","coordinates":[28.2576,-28.5649]}]}