{"lat":-28.25,"lon":153.5,"programs":["pota"],"count":16,"references":[{"code":"AU-1680","program":"pota","name":"Ukerebagh Nature Reserve","coordinates":[153.548,-28.1897]},{"code":"AU-1683","program":"pota","name":"Tweed Estuary Nature Reserve","coordinates":[153.516,-28.1906]},{"code":"AU-2441","program":"pota","name":"Cook Island Nature Park","coordinates":[153.578,-28.1957]},{"code":"AU-3225","program":"pota","name":"Cook Island Aquatic Reserve","coordinates":[153.578,-28.196]},{"code":"AU-3237","program":"pota","name":"Tweed Heads Historic Site Historical Reserve","coordinates":[153.549,-28.197]},{"code":"AU-9772","program":"pota","name":"Duranbah State Beach","coordinates":[153.552,-28.1668]},{"code":"AU-9773","program":"pota","name":"Letitia State Beach","coordinates":[153.555,-28.1721]},{"code":"AU-9774","program":"pota","name":"Fingal State Beach","coordinates":[153.564,-28.1924]},{"code":"AU-9775","program":"pota","name":"Dreamtime State Beach","coordinates":[153.567,-28.2115]},{"code":"AU-9290","program":"pota","name":"Bilinga State Beach","coordinates":[153.506,-28.1539]},{"code":"AU-9291","program":"pota","name":"North Kirra State Beach","coordinates":[153.519,-28.1628]},{"code":"AU-9292","program":"pota","name":"Kirra State Beach","coordinates":[153.529,-28.1664]},{"code":"AU-9293","program":"pota","name":"Coolangatta State Beach","coordinates":[153.538,-28.166]},{"code":"AU-9294","program":"pota","name":"Greenmount State Beach","coordinates":[153.543,-28.1665]},{"code":"AU-9295","program":"pota","name":"Rainbow Bay State Beach","coordinates":[153.547,-28.1639]},{"code":"AU-9296","program":"pota","name":"Froggy State Beach","coordinates":[153.55,-28.1633]}]}