{"lat":-28,"lon":-68.5,"programs":["sota"],"count":8,"references":[{"code":"LUR/TG-083","program":"sota","name":"Cerro de la Fortuna","coordinates":[-68.368,-27.7626]},{"code":"LUR/TG-090","program":"sota","name":"Cerro Filo de los Asadores","coordinates":[-68.3982,-27.8806]},{"code":"LUR/TG-102","program":"sota","name":"Cerro Tostado Negro","coordinates":[-68.2704,-27.8682]},{"code":"LUR/TG-116","program":"sota","name":"LUR/TG-116","coordinates":[-68.3723,-27.9248]},{"code":"LUR/TG-124","program":"sota","name":"LUR/TG-124","coordinates":[-68.3596,-27.9585]},{"code":"LUR/TG-129","program":"sota","name":"Cerro Cordero","coordinates":[-68.4504,-27.9526]},{"code":"LUR/TG-132","program":"sota","name":"LUR/TG-132","coordinates":[-68.3556,-27.8445]},{"code":"LUR/TG-156","program":"sota","name":"LUR/TG-156","coordinates":[-68.2777,-27.9771]}]}