{"lat":-28,"lon":153.25,"programs":["pota","sota"],"count":19,"references":[{"code":"AU-1080","program":"pota","name":"Southern Moreton Bay Islands National Park","coordinates":[153.395,-27.8009]},{"code":"AU-1082","program":"pota","name":"South Stradbroke Island Conservation Park","coordinates":[153.423,-27.8586]},{"code":"AU-1099","program":"pota","name":"Saltwater Creek Conservation Park","coordinates":[153.318,-27.8947]},{"code":"AU-1125","program":"pota","name":"Pine Ridge Conservation Park","coordinates":[153.393,-27.9006]},{"code":"AU-1126","program":"pota","name":"Pimpama Conservation Park","coordinates":[153.348,-27.8271]},{"code":"AU-1152","program":"pota","name":"Nerang National Park","coordinates":[153.301,-27.9685]},{"code":"AU-1425","program":"pota","name":"Coombabah Lake Conservation Park","coordinates":[153.349,-27.926]},{"code":"AU-7163","program":"pota","name":"Nerang State Forest","coordinates":[153.332,-27.985]},{"code":"AU-8920","program":"pota","name":"Broadwater State Beach","coordinates":[153.419,-27.9685]},{"code":"AU-9270","program":"pota","name":"The Spit State Beach","coordinates":[153.43,-27.9403]},{"code":"AU-9271","program":"pota","name":"Philip Park North State Beach","coordinates":[153.429,-27.9618]},{"code":"AU-9272","program":"pota","name":"Philip Park State Beach","coordinates":[153.429,-27.965]},{"code":"AU-9273","program":"pota","name":"Philip Park South State Beach","coordinates":[153.429,-27.9697]},{"code":"AU-9274","program":"pota","name":"Southport Main State Beach","coordinates":[153.43,-27.9756]},{"code":"AU-9275","program":"pota","name":"Narrowneck State Beach","coordinates":[153.43,-27.9875]},{"code":"AU-9276","program":"pota","name":"Surfers Paradise State Beach","coordinates":[153.432,-28]},{"code":"AU-10518","program":"pota","name":"Pimpama National Wild and Scenic River","coordinates":[153.266,-27.7911]},{"code":"AU-10983","program":"pota","name":"Earnest Junction Railway Tunnel State Heritage Area","coordinates":[153.356,-27.9653]},{"code":"VK4/SE-109","program":"sota","name":"Mt Nathan","coordinates":[153.27324,-27.99496]}]}