{"lat":-28.5,"lon":152.5,"programs":["pota","sota"],"count":26,"references":[{"code":"AU-1694","program":"pota","name":"Toonumbar State Conservation Area","coordinates":[152.717,-28.4516]},{"code":"AU-1813","program":"pota","name":"Mount Nothofagus National Park","coordinates":[152.614,-28.2961]},{"code":"AU-1819","program":"pota","name":"Mount Clunie National Park","coordinates":[152.532,-28.3202]},{"code":"AU-2333","program":"pota","name":"North Obelisk Nature Park","coordinates":[152.53,-28.4777]},{"code":"AU-6938","program":"pota","name":"Urbenville State Forest","coordinates":[152.558,-28.4664]},{"code":"AU-7685","program":"pota","name":"Bald Knob State Forest","coordinates":[152.546,-28.3796]},{"code":"AU-7686","program":"pota","name":"Woodenbong State Forest","coordinates":[152.551,-28.3912]},{"code":"AU-7688","program":"pota","name":"Unumgar State Forest","coordinates":[152.7,-28.4222]},{"code":"AU-7689","program":"pota","name":"Mount Lindesay State Forest","coordinates":[152.653,-28.3797]},{"code":"AU-7690","program":"pota","name":"Donaldson State Forest","coordinates":[152.587,-28.3367]},{"code":"AU-7691","program":"pota","name":"Edinburgh Castle State Forest","coordinates":[152.668,-28.4377]},{"code":"AU-1205","program":"pota","name":"Mount Barney National Park","coordinates":[152.642,-28.2853]},{"code":"VK2/NR-006","program":"sota","name":"Glassy Mountain","coordinates":[152.6924,-28.455]},{"code":"VK2/NT-055","program":"sota","name":"Mt Clunie","coordinates":[152.5186,-28.3122]},{"code":"VK2/NT-090","program":"sota","name":"Edinburgh Castle","coordinates":[152.6353,-28.4588]},{"code":"VK2/NT-103","program":"sota","name":"Bald Knob","coordinates":[152.5327,-28.3752]},{"code":"VK2/NT-115","program":"sota","name":"VK2/NT-115","coordinates":[152.5301,-28.4798]},{"code":"VK2/NT-121","program":"sota","name":"VK2/NT-121","coordinates":[152.6017,-28.4365]},{"code":"VK4/SE-001","program":"sota","name":"Mt Barney (East Peak)","coordinates":[152.69698,-28.28015]},{"code":"VK4/SE-002","program":"sota","name":"Mt Ballow","coordinates":[152.61407,-28.26925]},{"code":"VK4/SE-004","program":"sota","name":"Gwyala Peak","coordinates":[152.663,-28.28523]},{"code":"VK4/SE-009","program":"sota","name":"Mt Lindsey","coordinates":[152.72086,-28.34467]},{"code":"VK4/SE-014","program":"sota","name":"Mt Ernest","coordinates":[152.70921,-28.31566]},{"code":"VK4/SE-047","program":"sota","name":"Mt Gillies","coordinates":[152.7497,-28.31419]},{"code":"VK4/SE-119","program":"sota","name":"Mount Barney (West Peak)","coordinates":[152.6865,-28.2816]},{"code":"VK4/SE-121","program":"sota","name":"Focal Peak","coordinates":[152.6349,-28.2618]}]}