{"lat":-28.5,"lon":27.75,"programs":["sota"],"count":5,"references":[{"code":"ZS/FS-015","program":"sota","name":"Biddulphsberg","coordinates":[27.7592,-28.2724]},{"code":"ZS/FS-066","program":"sota","name":"Kepskop","coordinates":[27.9628,-28.4603]},{"code":"ZS/FS-234","program":"sota","name":"Witkop","coordinates":[27.9012,-28.3826]},{"code":"ZS/FS-248","program":"sota","name":"Suringkop","coordinates":[27.8735,-28.2787]},{"code":"ZS/FS-250","program":"sota","name":"Longsiekkop","coordinates":[27.7858,-28.3866]}]}