{"lat":-28.25,"lon":152.25,"programs":["pota","sota"],"count":22,"references":[{"code":"AU-1077","program":"pota","name":"Spicers Gap Road Conservation Park","coordinates":[152.412,-28.0808]},{"code":"AU-1242","program":"pota","name":"Main Range National Park","coordinates":[152.482,-28.2087]},{"code":"AU-7167","program":"pota","name":"Gambubal State Forest","coordinates":[152.383,-28.2461]},{"code":"AU-7168","program":"pota","name":"Swanfels State Forest","coordinates":[152.323,-28.1229]},{"code":"AU-7477","program":"pota","name":"Swanfels State Forest","coordinates":[152.289,-28.1363]},{"code":"AU-10955","program":"pota","name":"Allan Cunningham Monument State Heritage Area","coordinates":[152.395,-28.0497]},{"code":"VK4/SD-001","program":"sota","name":"Mt Superbus","coordinates":[152.45384,-28.22188]},{"code":"VK4/SD-003","program":"sota","name":"Mt Asplenium","coordinates":[152.43323,-28.15666]},{"code":"VK4/SD-004","program":"sota","name":"Mt Guymer","coordinates":[152.38818,-28.19322]},{"code":"VK4/SD-005","program":"sota","name":"Spicers Peak","coordinates":[152.39326,-28.09824]},{"code":"VK4/SD-006","program":"sota","name":"Bald Mtn","coordinates":[152.41547,-28.2303]},{"code":"VK4/SD-007","program":"sota","name":"Bare Rock","coordinates":[152.38518,-28.02687]},{"code":"VK4/SD-008","program":"sota","name":"Mt Mitchell","coordinates":[152.38892,-28.05917]},{"code":"VK4/SD-009","program":"sota","name":"Mt Bauer","coordinates":[152.32948,-28.17742]},{"code":"VK4/SD-011","program":"sota","name":"Pinnacle Rock","coordinates":[152.35913,-28.15002]},{"code":"VK4/SD-012","program":"sota","name":"Swanfels SF","coordinates":[152.30678,-28.13068]},{"code":"VK4/SD-015","program":"sota","name":"Taylors Peak","coordinates":[152.3018,-28.04548]},{"code":"VK4/SD-016","program":"sota","name":"Mt Develin","coordinates":[152.32086,-28.02227]},{"code":"VK4/SD-027","program":"sota","name":"Mount Roberts","coordinates":[152.4725,-28.2032]},{"code":"VK4/SD-029","program":"sota","name":"Sentinel Point","coordinates":[152.3929,-28.16]},{"code":"VK4/SD-030","program":"sota","name":"Double Top","coordinates":[152.4117,-28.1135]},{"code":"VK4/SE-129","program":"sota","name":"Mount Neilson","coordinates":[152.4964,-28.1598]}]}