{"lat":-28.75,"lon":30.5,"programs":["sota"],"count":13,"references":[{"code":"ZS/KN-144","program":"sota","name":"Qudeni","coordinates":[30.7282,-28.6741]},{"code":"ZS/KN-220","program":"sota","name":"Msinga","coordinates":[30.503,-28.7012]},{"code":"ZS/KN-221","program":"sota","name":"Ntile","coordinates":[30.5235,-28.6315]},{"code":"ZS/KN-228","program":"sota","name":"Zonyama","coordinates":[30.5258,-28.6522]},{"code":"ZS/KN-255","program":"sota","name":"Sigubudu","coordinates":[30.5877,-28.618]},{"code":"ZS/KN-263","program":"sota","name":"Nocomboshe","coordinates":[30.6043,-28.6682]},{"code":"ZS/KN-272","program":"sota","name":"Nhlezuka","coordinates":[30.5619,-28.6178]},{"code":"ZS/KN-296","program":"sota","name":"Mahlaba","coordinates":[30.6582,-28.513]},{"code":"ZS/KN-336","program":"sota","name":"Mahlatshana","coordinates":[30.6382,-28.5512]},{"code":"ZS/KN-341","program":"sota","name":"Ntshongweni","coordinates":[30.6666,-28.7197]},{"code":"ZS/KN-357","program":"sota","name":"Samungu","coordinates":[30.73,-28.733]},{"code":"ZS/KN-387","program":"sota","name":"ZS/KN-387","coordinates":[30.6416,-28.7061]},{"code":"ZS/KN-391","program":"sota","name":"ZS/KN-391","coordinates":[30.6686,-28.6305]}]}