{"lat":-28.5,"lon":153.5,"programs":["pota"],"count":17,"references":[{"code":"AU-1622","program":"pota","name":"Wooyung Nature Reserve","coordinates":[153.556,-28.4411]},{"code":"AU-2004","program":"pota","name":"Cudgera Creek Nature Reserve","coordinates":[153.523,-28.4077]},{"code":"AU-2005","program":"pota","name":"Cudgen Nature Reserve","coordinates":[153.558,-28.3217]},{"code":"AU-2112","program":"pota","name":"Billinudgel Nature Reserve","coordinates":[153.545,-28.4773]},{"code":"AU-9776","program":"pota","name":"Kingscliff State Beach","coordinates":[153.573,-28.2511]},{"code":"AU-9777","program":"pota","name":"Casuarina State Beach","coordinates":[153.575,-28.2983]},{"code":"AU-9778","program":"pota","name":"South Kingscliff State Beach","coordinates":[153.582,-28.2717]},{"code":"AU-9779","program":"pota","name":"Cabarita State Beach","coordinates":[153.572,-28.3293]},{"code":"AU-9780","program":"pota","name":"Bogangar State Beach","coordinates":[153.572,-28.3226]},{"code":"AU-9781","program":"pota","name":"Norries State Beach","coordinates":[153.575,-28.3353]},{"code":"AU-9782","program":"pota","name":"Maggies State Beach","coordinates":[153.575,-28.349]},{"code":"AU-9783","program":"pota","name":"Hastings Point State Beach","coordinates":[153.577,-28.3589]},{"code":"AU-9784","program":"pota","name":"Cudgera National Park","coordinates":[153.574,-28.374]},{"code":"AU-9785","program":"pota","name":"Pottsville State Beach","coordinates":[153.566,-28.4023]},{"code":"AU-9786","program":"pota","name":"South National Park","coordinates":[153.552,-28.4928]},{"code":"AU-9787","program":"pota","name":"New Brighton State Beach","coordinates":[153.553,-28.4773]},{"code":"AU-9788","program":"pota","name":"Mooball National Park","coordinates":[153.559,-28.4321]}]}