{"lat":-28.75,"lon":30.25,"programs":["sota"],"count":12,"references":[{"code":"ZS/KN-250","program":"sota","name":"Mumbe","coordinates":[30.3999,-28.5683]},{"code":"ZS/KN-267","program":"sota","name":"Nhlomula","coordinates":[30.4841,-28.6318]},{"code":"ZS/KN-292","program":"sota","name":"Mpompolwane","coordinates":[30.3734,-28.6245]},{"code":"ZS/KN-297","program":"sota","name":"Ntanyazulu","coordinates":[30.31,-28.5918]},{"code":"ZS/KN-307","program":"sota","name":"Mancanco","coordinates":[30.3812,-28.6619]},{"code":"ZS/KN-319","program":"sota","name":"ZS/KN-319","coordinates":[30.3622,-28.6764]},{"code":"ZS/KN-320","program":"sota","name":"Mashunka","coordinates":[30.2874,-28.7174]},{"code":"ZS/KN-322","program":"sota","name":"Mzweni","coordinates":[30.2816,-28.6492]},{"code":"ZS/KN-329","program":"sota","name":"ZS/KN-329","coordinates":[30.2921,-28.6781]},{"code":"ZS/KN-332","program":"sota","name":"Mpuntsheni","coordinates":[30.2834,-28.6202]},{"code":"ZS/KN-339","program":"sota","name":"ZS/KN-339","coordinates":[30.2936,-28.732]},{"code":"ZS/KN-361","program":"sota","name":"Nhlonhloni","coordinates":[30.3396,-28.7073]}]}