{"lat":-28.75,"lon":28,"programs":["gma","sota"],"count":14,"references":[{"code":"ZT/FS-001","program":"gma","name":"First Pyramid","coordinates":[28.005012,-28.612588]},{"code":"ZT/FS-002","program":"gma","name":"Second Pyramid","coordinates":[28.008711,-28.60467]},{"code":"ZT/FS-003","program":"gma","name":"Verzierkerf","coordinates":[28.039925,-28.641009]},{"code":"7P/SB-014","program":"sota","name":"7P/SB-014","coordinates":[28.1714,-28.7267]},{"code":"7P/SB-016","program":"sota","name":"Makoena","coordinates":[28.2064,-28.7233]},{"code":"ZS/FS-033","program":"sota","name":"ZS/FS-033","coordinates":[28.0079,-28.5603]},{"code":"ZS/FS-104","program":"sota","name":"ZS/FS-104","coordinates":[28.214,-28.6866]},{"code":"ZS/FS-204","program":"sota","name":"Verzierkerf","coordinates":[28.0402,-28.6408]},{"code":"ZS/FS-206","program":"sota","name":"Zwartkrans","coordinates":[28.0132,-28.511]},{"code":"ZS/FS-207","program":"sota","name":"Sikonjelashoed","coordinates":[28.0338,-28.6693]},{"code":"ZS/FS-212","program":"sota","name":"Second Pyramid","coordinates":[28.0088,-28.6049]},{"code":"ZS/FS-219","program":"sota","name":"Mount Morkel","coordinates":[28.0525,-28.6947]},{"code":"ZS/FS-238","program":"sota","name":"Hoenderkop","coordinates":[28.2026,-28.6599]},{"code":"ZS/FS-241","program":"sota","name":"Dwarsberg","coordinates":[28.103,-28.6532]}]}