{"lat":-28.75,"lon":30.75,"programs":["sota"],"count":6,"references":[{"code":"ZS/KN-154","program":"sota","name":"Madlozi","coordinates":[30.8588,-28.5528]},{"code":"ZS/KN-162","program":"sota","name":"Ntanyeni","coordinates":[30.7971,-28.5183]},{"code":"ZS/KN-165","program":"sota","name":"Qwababane","coordinates":[30.7849,-28.6278]},{"code":"ZS/KN-279","program":"sota","name":"Mbengwana","coordinates":[30.7628,-28.5597]},{"code":"ZS/KN-306","program":"sota","name":"Jokweni","coordinates":[30.9135,-28.7161]},{"code":"ZS/KN-318","program":"sota","name":"Macala","coordinates":[30.9582,-28.7349]}]}