{"lat":-29,"lon":152.5,"programs":["pota","sota"],"count":8,"references":[{"code":"AU-1740","program":"pota","name":"Richmond Range National Park","coordinates":[152.737,-28.7956]},{"code":"AU-3206","program":"pota","name":"Jubullum Flat Camp Aboriginal Area","coordinates":[152.572,-28.882]},{"code":"AU-7807","program":"pota","name":"Sugarloaf State Forest","coordinates":[152.631,-28.9799]},{"code":"AU-7906","program":"pota","name":"Bonalbo State Forest","coordinates":[152.648,-28.8583]},{"code":"AU-7950","program":"pota","name":"Cherry Tree West State Forest","coordinates":[152.744,-28.9521]},{"code":"VK2/NT-133","program":"sota","name":"VK2/NT-133","coordinates":[152.6291,-28.7849]},{"code":"VK2/NT-136","program":"sota","name":"VK2/NT-136","coordinates":[152.5096,-28.7635]},{"code":"VK2/NT-140","program":"sota","name":"VK2/NT-140","coordinates":[152.5554,-28.9425]}]}