{"lat":-29.25,"lon":17.25,"programs":["sota"],"count":6,"references":[{"code":"ZS/NC-726","program":"sota","name":"Haouseep","coordinates":[17.259,-29.1118]},{"code":"ZS/NC-729","program":"sota","name":"ZS/NC-729","coordinates":[17.3974,-29.0731]},{"code":"ZS/NC-757","program":"sota","name":"Kabies se Berg","coordinates":[17.326,-29.0596]},{"code":"ZS/NC-758","program":"sota","name":"Klaarkop","coordinates":[17.3637,-29.1444]},{"code":"ZS/NC-761","program":"sota","name":"Nana se Koppe","coordinates":[17.3445,-29.2367]},{"code":"ZS/NC-783","program":"sota","name":"Farquharson se Kp","coordinates":[17.2751,-29.2494]}]}