{"lat":-29.25,"lon":19,"programs":["sota"],"count":9,"references":[{"code":"ZS/NC-447","program":"sota","name":"Pella","coordinates":[19.2168,-29.0338]},{"code":"ZS/NC-455","program":"sota","name":"ZS/NC-455","coordinates":[19.0597,-29.0048]},{"code":"ZS/NC-456","program":"sota","name":"Pella se Berge","coordinates":[19.1034,-29.0041]},{"code":"ZS/NC-496","program":"sota","name":"Tafelkop","coordinates":[19.0474,-29.2329]},{"code":"ZS/NC-525","program":"sota","name":"T'Goob se Berg","coordinates":[19.2339,-29.1619]},{"code":"ZS/NC-544","program":"sota","name":"Klein Pella","coordinates":[19.0074,-29.0403]},{"code":"ZS/NC-577","program":"sota","name":"ZS/NC-577","coordinates":[19.0286,-29.033]},{"code":"ZS/NC-631","program":"sota","name":"ZS/NC-631","coordinates":[19.1689,-29.0015]},{"code":"ZS/NC-700","program":"sota","name":"Groot-Pellaberg","coordinates":[19.0297,-29.0077]}]}