{"lat":-29.25,"lon":153,"programs":["pota"],"count":11,"references":[{"code":"AU-1609","program":"pota","name":"Yarringully State Conservation Area","coordinates":[153.221,-29.0646]},{"code":"AU-1917","program":"pota","name":"Jackywalbin State Conservation Area","coordinates":[153.217,-29.1807]},{"code":"AU-2069","program":"pota","name":"Bungawalbin State Conservation Area","coordinates":[153.125,-29.0467]},{"code":"AU-2070","program":"pota","name":"Bungawalbin National Park","coordinates":[153.143,-29.1127]},{"code":"AU-2248","program":"pota","name":"Pyrocarpa Flora Reserve","coordinates":[153.217,-29.1509]},{"code":"AU-2562","program":"pota","name":"Bungawalbin Nature Park","coordinates":[153.13,-29.157]},{"code":"AU-2587","program":"pota","name":"Yarringully Nature Park","coordinates":[153.222,-29.0916]},{"code":"AU-6937","program":"pota","name":"Ellangowan State Forest","coordinates":[153.024,-29.0658]},{"code":"AU-7697","program":"pota","name":"Tabbimoble State Forest","coordinates":[153.242,-29.2168]},{"code":"AU-7919","program":"pota","name":"Braemar State Forest","coordinates":[153.014,-29.0151]},{"code":"AU-7934","program":"pota","name":"Bungawalbin State Forest","coordinates":[153.08,-29.0839]}]}