{"lat":-29,"lon":152.25,"programs":["pota","sota"],"count":7,"references":[{"code":"AU-2229","program":"pota","name":"White Beech Flora Reserve","coordinates":[152.31,-28.9577]},{"code":"AU-6939","program":"pota","name":"Girard State Forest","coordinates":[152.327,-28.9529]},{"code":"AU-7998","program":"pota","name":"Gilgurry State Forest","coordinates":[152.263,-28.8333]},{"code":"VK2/NT-075","program":"sota","name":"Mt Richmond","coordinates":[152.3274,-28.9633]},{"code":"VK2/NT-111","program":"sota","name":"VK2/NT-111","coordinates":[152.4044,-28.9852]},{"code":"VK2/NT-119","program":"sota","name":"Coutts Crown","coordinates":[152.3514,-28.7594]},{"code":"VK2/NT-128","program":"sota","name":"VK2/NT-128","coordinates":[152.4876,-28.9658]}]}