{"lat":-29.75,"lon":114.75,"programs":["pota"],"count":5,"references":[{"code":"AU-9952","program":"pota","name":"Murra Place State Beach","coordinates":[114.96,-29.6964]},{"code":"AU-9954","program":"pota","name":"Knobby Head State Beach","coordinates":[114.96,-29.6688]},{"code":"AU-9956","program":"pota","name":"Little Freshwater Bay State Beach","coordinates":[114.971,-29.6186]},{"code":"AU-9957","program":"pota","name":"Freshwater Bay State Beach","coordinates":[114.975,-29.6041]},{"code":"AU-9958","program":"pota","name":"Cliff Head Campground State Beach","coordinates":[114.994,-29.5203]}]}