{"lat":-29.25,"lon":29,"programs":["gma","sota"],"count":7,"references":[{"code":"ZT/KN-019","program":"gma","name":"The Litter","coordinates":[29.05669975,-29.05669975]},{"code":"7P/BB-013","program":"sota","name":"Cleft Peak","coordinates":[29.1672,-29.0022]},{"code":"7P/BB-015","program":"sota","name":"Lomo-se-Fubelu","coordinates":[29.1847,-29.0244]},{"code":"7P/BB-021","program":"sota","name":"Mphokojoane","coordinates":[29.0906,-29.1506]},{"code":"7P/BB-026","program":"sota","name":"Manyofaneng","coordinates":[29.0594,-29.1883]},{"code":"7P/BB-029","program":"sota","name":"Thaba-Tsullu","coordinates":[29.1175,-29.2033]},{"code":"7P/SB-005","program":"sota","name":"7P/SB-005","coordinates":[29.0219,-29.0681]}]}