{"lat":-29.25,"lon":152.25,"programs":["pota","sota"],"count":8,"references":[{"code":"AU-1701","program":"pota","name":"Timbarra National Park","coordinates":[152.309,-29.0336]},{"code":"AU-2279","program":"pota","name":"Jerewarrah Flora Reserve","coordinates":[152.437,-29.1948]},{"code":"AU-3192","program":"pota","name":"Washpool Flora Reserve","coordinates":[152.413,-29.209]},{"code":"AU-7985","program":"pota","name":"Ewingar State Forest","coordinates":[152.464,-29.1166]},{"code":"AU-8046","program":"pota","name":"Malara State Forest","coordinates":[152.309,-29.1281]},{"code":"VK2/NT-054","program":"sota","name":"VK2/NT-054","coordinates":[152.2833,-29.0474]},{"code":"VK2/NT-069","program":"sota","name":"VK2/NT-069","coordinates":[152.4066,-29.234]},{"code":"VK2/NT-089","program":"sota","name":"VK2/NT-089","coordinates":[152.418,-29.144]}]}