{"lat":-29.5,"lon":27.25,"programs":["sota"],"count":7,"references":[{"code":"7P/BD-004","program":"sota","name":"7P/BD-004","coordinates":[27.408405,-29.452541]},{"code":"7P/BD-008","program":"sota","name":"Likotsi","coordinates":[27.4531,-29.3797]},{"code":"7P/BD-012","program":"sota","name":"Qoaling","coordinates":[27.486979,-29.34449]},{"code":"ZS/FS-056","program":"sota","name":"Mabula","coordinates":[27.2658,-29.3383]},{"code":"ZS/FS-085","program":"sota","name":"Mabulanyane","coordinates":[27.3115,-29.2831]},{"code":"ZS/FS-113","program":"sota","name":"Beesneus","coordinates":[27.358,-29.2901]},{"code":"ZS/FS-152","program":"sota","name":"Moordkop","coordinates":[27.4409,-29.3105]}]}