{"lat":-29,"lon":18.5,"programs":["sota"],"count":11,"references":[{"code":"V5/KA-448","program":"sota","name":"V5/KA-448","coordinates":[18.5667,-28.7742]},{"code":"V5/KA-460","program":"sota","name":"V5/KA-460","coordinates":[18.665,-28.7597]},{"code":"ZS/NC-530","program":"sota","name":"Dabenoris a","coordinates":[18.6142,-28.9406]},{"code":"ZS/NC-536","program":"sota","name":"ZS/NC-536","coordinates":[18.6017,-28.9364]},{"code":"ZS/NC-547","program":"sota","name":"Nouroepberge","coordinates":[18.5967,-28.9851]},{"code":"ZS/NC-596","program":"sota","name":"Dabenorisberge","coordinates":[18.6269,-28.9168]},{"code":"ZS/NC-608","program":"sota","name":"Nouroep","coordinates":[18.561,-28.9844]},{"code":"ZS/NC-636","program":"sota","name":"Kubeep","coordinates":[18.5346,-28.9578]},{"code":"ZS/NC-637","program":"sota","name":"ZS/NC-637","coordinates":[18.6764,-28.9166]},{"code":"ZS/NC-658","program":"sota","name":"Levaillantspiek","coordinates":[18.6585,-28.9011]},{"code":"ZS/NC-663","program":"sota","name":"Elsberg","coordinates":[18.6682,-28.9235]}]}