{"lat":-29.5,"lon":152,"programs":["pota","sota"],"count":17,"references":[{"code":"AU-2054","program":"pota","name":"Capoompeta National Park","coordinates":[152.01,-29.3935]},{"code":"AU-7970","program":"pota","name":"Curramore State Forest","coordinates":[152.235,-29.3883]},{"code":"AU-7989","program":"pota","name":"Forest Land State Forest","coordinates":[152.106,-29.3067]},{"code":"AU-8040","program":"pota","name":"Little Spirabo State Forest","coordinates":[152.093,-29.3918]},{"code":"AU-10554","program":"pota","name":"Timbarra (Rocky) National Wild and Scenic River","coordinates":[152.219,-29.3318]},{"code":"VK2/NT-006","program":"sota","name":"The Magistrate","coordinates":[152.0099,-29.3767]},{"code":"VK2/NT-007","program":"sota","name":"Big Mount Spirabo","coordinates":[152.0995,-29.3471]},{"code":"VK2/NT-010","program":"sota","name":"Mount Bajimba","coordinates":[152.1058,-29.294]},{"code":"VK2/NT-017","program":"sota","name":"VK2/NT-017","coordinates":[152.0426,-29.4272]},{"code":"VK2/NT-028","program":"sota","name":"VK2/NT-028","coordinates":[152.1127,-29.396]},{"code":"VK2/NT-029","program":"sota","name":"VK2/NT-029","coordinates":[152.1707,-29.4921]},{"code":"VK2/NT-030","program":"sota","name":"Mount Jonblee","coordinates":[152.0114,-29.3248]},{"code":"VK2/NT-035","program":"sota","name":"VK2/NT-035","coordinates":[152.1542,-29.3168]},{"code":"VK2/NT-036","program":"sota","name":"VK2/NT-036","coordinates":[152.1326,-29.4411]},{"code":"VK2/NT-081","program":"sota","name":"VK2/NT-081","coordinates":[152.2123,-29.4105]},{"code":"VK2/NT-095","program":"sota","name":"VK2/NT-095","coordinates":[152.2277,-29.4264]},{"code":"VK2/NT-109","program":"sota","name":"VK2/NT-109","coordinates":[152.2327,-29.3168]}]}