{"lat":-3.5,"lon":102.25,"programs":["sota"],"count":9,"references":[{"code":"YBS/BE-003","program":"sota","name":"Gunung Hulu Palik","coordinates":[102.3428,-3.3917]},{"code":"YBS/BE-004","program":"sota","name":"Bukit Daun","coordinates":[102.3742,-3.3853]},{"code":"YBS/BE-007","program":"sota","name":"YBS/BE-007","coordinates":[102.3645,-3.3969]},{"code":"YBS/BE-025","program":"sota","name":"YBS/BE-025","coordinates":[102.4681,-3.2501]},{"code":"YBS/BE-027","program":"sota","name":"YBS/BE-027","coordinates":[102.397,-3.4267]},{"code":"YBS/BE-047","program":"sota","name":"Bukit Hulu Kokai","coordinates":[102.2736,-3.3606]},{"code":"YBS/BE-050","program":"sota","name":"YBS/BE-050","coordinates":[102.3497,-3.2964]},{"code":"YBS/BE-058","program":"sota","name":"YBS/BE-058","coordinates":[102.4737,-3.4694]},{"code":"YBS/SS-020","program":"sota","name":"YBS/SS-020","coordinates":[102.4991,-3.2543]}]}