{"lat":-30.75,"lon":28.5,"programs":["sota"],"count":7,"references":[{"code":"ZS/EC-211","program":"sota","name":"Zincuka","coordinates":[28.6219,-30.6569]},{"code":"ZS/EC-262","program":"sota","name":"Zimpofu","coordinates":[28.6891,-30.6038]},{"code":"ZS/EC-422","program":"sota","name":"Tumasi","coordinates":[28.5496,-30.5403]},{"code":"ZS/EC-432","program":"sota","name":"Gudlintaba","coordinates":[28.5534,-30.6305]},{"code":"ZS/EC-437","program":"sota","name":"Ntabelanga","coordinates":[28.551,-30.7237]},{"code":"ZS/EC-484","program":"sota","name":"ZS/EC-484","coordinates":[28.5044,-30.5281]},{"code":"ZS/EC-490","program":"sota","name":"Mdeni","coordinates":[28.6747,-30.5712]}]}