{"lat":-30.25,"lon":153,"programs":["pota","sota"],"count":32,"references":[{"code":"AU-1725","program":"pota","name":"Sherwood Nature Reserve","coordinates":[153.024,-30.0473]},{"code":"AU-1825","program":"pota","name":"Moonee Beach Nature Reserve","coordinates":[153.164,-30.1945]},{"code":"AU-1965","program":"pota","name":"Garby Nature Reserve","coordinates":[153.193,-30.069]},{"code":"AU-2014","program":"pota","name":"Coramba Nature Reserve","coordinates":[153.019,-30.1987]},{"code":"AU-2032","program":"pota","name":"Coffs Coast Regional Park","coordinates":[153.201,-30.074]},{"code":"AU-2274","program":"pota","name":"Madmans Creek Flora Reserve","coordinates":[153.109,-30.0651]},{"code":"AU-2290","program":"pota","name":"Bruxner Park Flora Reserve","coordinates":[153.099,-30.2442]},{"code":"AU-2393","program":"pota","name":"South West Solitary Island Nature Park","coordinates":[153.227,-30.1608]},{"code":"AU-2556","program":"pota","name":"Split Solitary Island Nature Park","coordinates":[153.181,-30.2404]},{"code":"AU-7707","program":"pota","name":"Wedding Bells State Forest","coordinates":[153.153,-30.0737]},{"code":"AU-7708","program":"pota","name":"Conglomerate State Forest","coordinates":[153.079,-30.0769]},{"code":"AU-8043","program":"pota","name":"Lower Bucca State Forest","coordinates":[153.081,-30.1529]},{"code":"AU-8906","program":"pota","name":"Pelican State Beach","coordinates":[153.146,-30.245]},{"code":"AU-8907","program":"pota","name":"Campbells State Beach","coordinates":[153.152,-30.2377]},{"code":"AU-8908","program":"pota","name":"Sapphire State Beach","coordinates":[153.154,-30.2292]},{"code":"AU-8909","program":"pota","name":"Moonee State Beach","coordinates":[153.158,-30.2108]},{"code":"AU-8910","program":"pota","name":"Emerald State Beach","coordinates":[153.19,-30.1703]},{"code":"AU-8911","program":"pota","name":"Sandy State Beach","coordinates":[153.2,-30.1489]},{"code":"AU-8912","program":"pota","name":"Woopi Back State Beach","coordinates":[153.208,-30.1141]},{"code":"AU-8913","program":"pota","name":"Woolgoolga State Beach","coordinates":[153.199,-30.1001]},{"code":"AU-8914","program":"pota","name":"Mullaway State Beach","coordinates":[153.203,-30.0744]},{"code":"AU-8915","program":"pota","name":"Ocean View State Beach","coordinates":[153.203,-30.0634]},{"code":"AU-8916","program":"pota","name":"Arrawarra State Beach","coordinates":[153.199,-30.0588]},{"code":"AU-8917","program":"pota","name":"Corindi State Beach","coordinates":[153.203,-30.0281]},{"code":"AU-9849","program":"pota","name":"Red Rock State Beach","coordinates":[153.216,-30.0063]},{"code":"AU-9850","program":"pota","name":"Darkum State Beach","coordinates":[153.2,-30.0856]},{"code":"AU-9851","program":"pota","name":"Hearns Lake State Beach","coordinates":[153.198,-30.1423]},{"code":"AU-9852","program":"pota","name":"Fiddamans State Beach","coordinates":[153.198,-30.1591]},{"code":"AU-9853","program":"pota","name":"Shelly State Beach","coordinates":[153.189,-30.1759]},{"code":"AU-10418","program":"pota","name":"Safety Beach State Beach","coordinates":[153.199,-30.0973]},{"code":"VK2/MN-056","program":"sota","name":"Mount Coramba","coordinates":[153.0532,-30.2193]},{"code":"VK2/MN-176","program":"sota","name":"VK2/MN-176","coordinates":[153.0807,-30.1105]}]}