{"lat":-30,"lon":152.5,"programs":["pota","sota"],"count":6,"references":[{"code":"AU-2387","program":"pota","name":"Hortons Creek Nature Park","coordinates":[152.661,-29.9902]},{"code":"AU-3181","program":"pota","name":"Chaelundi Flora Reserve","coordinates":[152.501,-29.975]},{"code":"AU-7768","program":"pota","name":"Nymboida State Forest","coordinates":[152.667,-29.8421]},{"code":"AU-7914","program":"pota","name":"Boundary Creek State Forest","coordinates":[152.635,-29.9581]},{"code":"AU-8050","program":"pota","name":"Marara State Forest","coordinates":[152.544,-29.9312]},{"code":"VK2/NR-031","program":"sota","name":"Rockview","coordinates":[152.7473,-29.8363]}]}