{"lat":-30,"lon":-71.25,"programs":["pota"],"count":5,"references":[{"code":"CL-0304","program":"pota","name":"PARQUE URBANO CERRO GRANDE Recreation Park","coordinates":[-71.217,-29.9478]},{"code":"CL-0323","program":"pota","name":"Gabriel Coll Recreation Site","coordinates":[-71.2377,-29.9092]},{"code":"CL-0336","program":"pota","name":"Humedal Urbano Rio Elqui Wetland Reserve","coordinates":[-71.1627,-29.9251]},{"code":"CL-0354","program":"pota","name":"Parque urbano Tierras Blancas Recreation Park","coordinates":[-71.2436,-29.9594]},{"code":"CL-0360","program":"pota","name":"PARQUE ESPEJO DEL SOL Recreation Park","coordinates":[-71.2391,-29.8668]}]}