{"lat":-30.5,"lon":150,"programs":["pota","sota"],"count":7,"references":[{"code":"AU-1814","program":"pota","name":"Mount Kaputar National Park","coordinates":[150.148,-30.2996]},{"code":"AU-3202","program":"pota","name":"Deriah Aboriginal Area","coordinates":[150.032,-30.354]},{"code":"VK2/NW-001","program":"sota","name":"Mount Kaputar","coordinates":[150.165,-30.2736]},{"code":"VK2/NW-004","program":"sota","name":"Mount Coryah","coordinates":[150.1209,-30.28]},{"code":"VK2/NW-020","program":"sota","name":"Mount Yulludunida","coordinates":[150.0794,-30.2894]},{"code":"VK2/NW-147","program":"sota","name":"VK2/NW-147","coordinates":[150.0016,-30.2648]},{"code":"VK2/NW-178","program":"sota","name":"Sugarloaf Hill","coordinates":[150.174,-30.4042]}]}