{"lat":-30.5,"lon":-69.75,"programs":["sota"],"count":13,"references":[{"code":"LUP/IS-014","program":"sota","name":"LUP/IS-014","coordinates":[-69.7278,-30.4303]},{"code":"LUP/IS-020","program":"sota","name":"Agua Negra","coordinates":[-69.688,-30.3273]},{"code":"LUP/IS-022","program":"sota","name":"Nevado de Pismanta","coordinates":[-69.6669,-30.4513]},{"code":"LUP/IS-024","program":"sota","name":"El Arenal","coordinates":[-69.7437,-30.2907]},{"code":"LUP/IS-042","program":"sota","name":"Co. Pata de Indio","coordinates":[-69.6343,-30.2848]},{"code":"LUP/IS-046","program":"sota","name":"Nevado de Bauchaceta","coordinates":[-69.6284,-30.4812]},{"code":"LUP/IS-053","program":"sota","name":"LUP/IS-053","coordinates":[-69.6756,-30.2724]},{"code":"LUP/IS-054","program":"sota","name":"LUP/IS-054","coordinates":[-69.699,-30.2683]},{"code":"LUP/IS-104","program":"sota","name":"Co. Fortuna","coordinates":[-69.6174,-30.3443]},{"code":"LUP/IS-106","program":"sota","name":"Co. Antecristo","coordinates":[-69.5758,-30.3055]},{"code":"LUP/IS-113","program":"sota","name":"Co. El Bronce","coordinates":[-69.5842,-30.3632]},{"code":"LUP/IS-120","program":"sota","name":"LUP/IS-120","coordinates":[-69.5117,-30.4944]},{"code":"LUP/IS-123","program":"sota","name":"Loma de la Leona Dormida","coordinates":[-69.5009,-30.4009]}]}