{"lat":-30.75,"lon":150.5,"programs":["pota","sota"],"count":7,"references":[{"code":"AU-1926","program":"pota","name":"Hobden Hill National Park","coordinates":[150.538,-30.5431]},{"code":"AU-8071","program":"pota","name":"Dinawirindi State Forest","coordinates":[150.648,-30.706]},{"code":"AU-10433","program":"pota","name":"Manilla National Wild and Scenic River","coordinates":[150.666,-30.6651]},{"code":"AU-10961","program":"pota","name":"Manilla railway underbridges State Historic Site","coordinates":[150.657,-30.6477]},{"code":"VK2/NW-035","program":"sota","name":"Hobden","coordinates":[150.5267,-30.5475]},{"code":"VK2/NW-080","program":"sota","name":"Baldwins Range","coordinates":[150.6098,-30.6786]},{"code":"VK2/NW-083","program":"sota","name":"Baldwin","coordinates":[150.6492,-30.73]}]}