{"lat":-30.75,"lon":29,"programs":["sota"],"count":7,"references":[{"code":"ZS/EC-289","program":"sota","name":"Nungi","coordinates":[29.1406,-30.6431]},{"code":"ZS/EC-306","program":"sota","name":"Nuungi","coordinates":[29.0744,-30.5314]},{"code":"ZS/EC-308","program":"sota","name":"Boschfontein","coordinates":[29.1358,-30.603]},{"code":"ZS/EC-528","program":"sota","name":"Ngcwera","coordinates":[29.1799,-30.6903]},{"code":"ZS/EC-537","program":"sota","name":"KuCawenye","coordinates":[29.2069,-30.632]},{"code":"ZS/EC-605","program":"sota","name":"Mpamba","coordinates":[29.0553,-30.6575]},{"code":"ZS/KN-166","program":"sota","name":"Hopedale","coordinates":[29.202,-30.6042]}]}