{"lat":-30,"lon":-69,"programs":["sota"],"count":6,"references":[{"code":"LUP/JA-001","program":"sota","name":"Yerba Loca","coordinates":[-68.9328,-29.7606]},{"code":"LUP/JA-004","program":"sota","name":"Co.de los Caballos","coordinates":[-68.8355,-29.9005]},{"code":"LUP/JA-006","program":"sota","name":"Co. Guachi","coordinates":[-68.8258,-29.9231]},{"code":"LUP/JA-007","program":"sota","name":"Guachi","coordinates":[-68.8547,-29.9374]},{"code":"LUP/JA-015","program":"sota","name":"LUP/JA-015","coordinates":[-68.9568,-29.9991]},{"code":"LUP/JA-016","program":"sota","name":"Co. Negro","coordinates":[-68.8288,-29.7972]}]}