{"lat":-30,"lon":114.75,"programs":["pota"],"count":9,"references":[{"code":"AU-7540","program":"pota","name":"Beagle Islands Nature Reserve","coordinates":[114.877,-29.8064]},{"code":"AU-9944","program":"pota","name":"Leeman Back State Beach","coordinates":[114.975,-29.9524]},{"code":"AU-9945","program":"pota","name":"Leeman State Beach","coordinates":[114.977,-29.9465]},{"code":"AU-9946","program":"pota","name":"Taylor Bay State Beach","coordinates":[114.982,-29.9195]},{"code":"AU-9947","program":"pota","name":"Dumper Bay State Beach","coordinates":[114.983,-29.9109]},{"code":"AU-9948","program":"pota","name":"Mace State Beach","coordinates":[114.98,-29.885]},{"code":"AU-9949","program":"pota","name":"Fred's State Beach","coordinates":[114.979,-29.8764]},{"code":"AU-9950","program":"pota","name":"Coolimba State Beach","coordinates":[114.98,-29.8562]},{"code":"AU-9951","program":"pota","name":"Gum Tree Bay State Beach","coordinates":[114.963,-29.785]}]}