{"lat":-30.75,"lon":29.25,"programs":["sota"],"count":7,"references":[{"code":"ZS/EC-180","program":"sota","name":"Nolangeni","coordinates":[29.44,-30.6556]},{"code":"ZS/EC-270","program":"sota","name":"Cinikungu","coordinates":[29.2797,-30.6608]},{"code":"ZS/EC-542","program":"sota","name":"Macibi","coordinates":[29.4674,-30.7446]},{"code":"ZS/KN-138","program":"sota","name":"Kraaikop","coordinates":[29.2565,-30.5749]},{"code":"ZS/KN-148","program":"sota","name":"Nocanda","coordinates":[29.3859,-30.5121]},{"code":"ZS/KN-180","program":"sota","name":"Spionskop","coordinates":[29.337,-30.612]},{"code":"ZS/KN-181","program":"sota","name":"Donkerhoek","coordinates":[29.3145,-30.5106]}]}