{"lat":-30.5,"lon":152.25,"programs":["pota","sota"],"count":5,"references":[{"code":"AU-1728","program":"pota","name":"Serpentine Nature Reserve","coordinates":[152.291,-30.4978]},{"code":"AU-1936","program":"pota","name":"Guy Fawkes River Nature Reserve","coordinates":[152.299,-30.3763]},{"code":"AU-2045","program":"pota","name":"Cathedral Rock National Park","coordinates":[152.268,-30.4403]},{"code":"VK2/NT-002","program":"sota","name":"Point Lookout","coordinates":[152.3972,-30.4821]},{"code":"VK2/NT-003","program":"sota","name":"Darkie Point","coordinates":[152.4171,-30.4388]}]}