{"lat":-30,"lon":153,"programs":["pota","sota"],"count":13,"references":[{"code":"AU-1599","program":"pota","name":"Yuraygir State Conservation Area","coordinates":[153.092,-29.8955]},{"code":"AU-2228","program":"pota","name":"Wells Crossing Flora Reserve","coordinates":[153.067,-29.8904]},{"code":"AU-2283","program":"pota","name":"Glenugie Peak Flora Reserve","coordinates":[153.063,-29.8368]},{"code":"AU-2298","program":"pota","name":"Arandin Flora Reserve","coordinates":[153.011,-29.7909]},{"code":"AU-3831","program":"pota","name":"Candole State Forest","coordinates":[153.2,-29.7825]},{"code":"AU-7702","program":"pota","name":"Glenugie State Forest","coordinates":[153.042,-29.856]},{"code":"AU-7703","program":"pota","name":"Newfoundland State Forest","coordinates":[153.168,-29.8142]},{"code":"AU-7706","program":"pota","name":"Barcoongere State Forest","coordinates":[153.194,-29.9256]},{"code":"AU-9847","program":"pota","name":"Station Creek State Beach","coordinates":[153.244,-29.9656]},{"code":"AU-9848","program":"pota","name":"Little State Beach","coordinates":[153.232,-29.9812]},{"code":"VK2/MN-118","program":"sota","name":"VK2/MN-118","coordinates":[153.1096,-29.9805]},{"code":"VK2/NR-038","program":"sota","name":"Browns Knob","coordinates":[153.1277,-29.9126]},{"code":"VK2/NR-039","program":"sota","name":"Glenugie Peak","coordinates":[153.0634,-29.834]}]}