{"lat":-30.5,"lon":115,"programs":["pota"],"count":6,"references":[{"code":"AU-0106","program":"pota","name":"Jurien Bay Marine Park","coordinates":[115.047,-30.433]},{"code":"AU-2919","program":"pota","name":"Hill River Nature Park","coordinates":[115.178,-30.2972]},{"code":"AU-2947","program":"pota","name":"Southern Beekeepers Nature Park","coordinates":[115.113,-30.3991]},{"code":"AU-7553","program":"pota","name":"Ronsard Rocks Nature Reserve","coordinates":[115.052,-30.4891]},{"code":"AU-9934","program":"pota","name":"Cervantes State Beach","coordinates":[115.064,-30.4963]},{"code":"AU-9935","program":"pota","name":"Jurien Bay State Beach","coordinates":[115.031,-30.3074]}]}