{"lat":-31.5,"lon":-69.25,"programs":["sota"],"count":7,"references":[{"code":"LUP/CE-003","program":"sota","name":"Co. Tontal","coordinates":[-69.208,-31.3741]},{"code":"LUP/CE-004","program":"sota","name":"Mogote de los Potreritos","coordinates":[-69.2069,-31.4336]},{"code":"LUP/CE-005","program":"sota","name":"Co. Casa de Piedra","coordinates":[-69.2112,-31.4759]},{"code":"LUP/ZO-010","program":"sota","name":"Pachaco","coordinates":[-69.1492,-31.3347]},{"code":"LUP/ZO-012","program":"sota","name":"Co. El Molle","coordinates":[-69.1013,-31.4263]},{"code":"LUP/ZO-013","program":"sota","name":"Mogote de los Potreritos","coordinates":[-69.1549,-31.4234]},{"code":"LUP/ZO-015","program":"sota","name":"Co. Linde","coordinates":[-69.1517,-31.3859]}]}