{"lat":-31.75,"lon":19.5,"programs":["sota"],"count":6,"references":[{"code":"ZS/NC-298","program":"sota","name":"Driefontein se Kop","coordinates":[19.6621,-31.6229]},{"code":"ZS/NC-332","program":"sota","name":"Windheuwel se Kop","coordinates":[19.7164,-31.6437]},{"code":"ZS/NC-415","program":"sota","name":"Kleinberg","coordinates":[19.7083,-31.6705]},{"code":"ZS/NC-417","program":"sota","name":"Rondeberg","coordinates":[19.7103,-31.5634]},{"code":"ZS/NC-418","program":"sota","name":"Antjie Boom se Baken","coordinates":[19.6346,-31.6933]},{"code":"ZS/NC-509","program":"sota","name":"Ghwaapberg","coordinates":[19.5199,-31.7034]}]}