{"lat":-31.5,"lon":116.25,"programs":["pota"],"count":7,"references":[{"code":"AU-2895","program":"pota","name":"Bewmalling Nature Park","coordinates":[116.414,-31.3435]},{"code":"AU-2896","program":"pota","name":"Bindoon Spring Nature Park","coordinates":[116.351,-31.3974]},{"code":"AU-3131","program":"pota","name":"Poison Gully Nature Park","coordinates":[116.396,-31.4655]},{"code":"AU-3415","program":"pota","name":"Camerer Nature Reserve","coordinates":[116.369,-31.272]},{"code":"AU-3469","program":"pota","name":"Drummond Nature Reserve","coordinates":[116.406,-31.316]},{"code":"AU-3496","program":"pota","name":"Flat Rock Gully Nature Reserve","coordinates":[116.413,-31.3968]},{"code":"AU-7036","program":"pota","name":"Julimar State Forest","coordinates":[116.293,-31.4145]}]}