{"lat":-31.5,"lon":152,"programs":["pota","sota"],"count":12,"references":[{"code":"AU-1647","program":"pota","name":"Werrikimbe State Conservation Area","coordinates":[152.194,-31.2883]},{"code":"AU-1708","program":"pota","name":"The Cells State Conservation Area","coordinates":[152.112,-31.4382]},{"code":"AU-2011","program":"pota","name":"Cottan-Bimbang National Park","coordinates":[152.113,-31.3248]},{"code":"AU-2352","program":"pota","name":"Mount Seaview Nature Park","coordinates":[152.184,-31.3348]},{"code":"AU-7366","program":"pota","name":"Doyles River State Forest","coordinates":[152.023,-31.3185]},{"code":"AU-7920","program":"pota","name":"Brassey State Forest","coordinates":[152.005,-31.2782]},{"code":"VK2/MN-003","program":"sota","name":"Mount Seaview","coordinates":[152.1655,-31.3334]},{"code":"VK2/MN-014","program":"sota","name":"VK2/MN-014","coordinates":[152.2334,-31.2869]},{"code":"VK2/MN-128","program":"sota","name":"Oxley Tobin","coordinates":[152.122,-31.421]},{"code":"VK2/MN-140","program":"sota","name":"VK2/MN-140","coordinates":[152.0326,-31.4534]},{"code":"VK2/MN-141","program":"sota","name":"VK2/MN-141","coordinates":[152.0467,-31.4463]},{"code":"VK2/MN-153","program":"sota","name":"Nalya","coordinates":[152.0033,-31.4909]}]}