{"lat":-31.75,"lon":138.5,"programs":["sota"],"count":8,"references":[{"code":"VK5/NE-001","program":"sota","name":"St Mary's Peak","coordinates":[138.55202,-31.50411]},{"code":"VK5/NE-002","program":"sota","name":"Mt Bonney","coordinates":[138.62854,-31.58329]},{"code":"VK5/NE-003","program":"sota","name":"Pompey Pillar","coordinates":[138.51747,-31.53334]},{"code":"VK5/NE-005","program":"sota","name":"Mt Karrawarra","coordinates":[138.62236,-31.5672]},{"code":"VK5/NE-011","program":"sota","name":"Near Rawnsley Bluff","coordinates":[138.61623,-31.6164]},{"code":"VK5/NE-015","program":"sota","name":"Binya Peak","coordinates":[138.6115,-31.55144]},{"code":"VK5/NE-032","program":"sota","name":"Chase Range","coordinates":[138.69986,-31.67771]},{"code":"VK5/NE-070","program":"sota","name":"Druid Range","coordinates":[138.69922,-31.72331]}]}