{"lat":-31.75,"lon":151,"programs":["pota","sota"],"count":6,"references":[{"code":"AU-2008","program":"pota","name":"Crawney Pass National Park","coordinates":[151.048,-31.6079]},{"code":"AU-2123","program":"pota","name":"Ben Halls Gap Nature Reserve","coordinates":[151.198,-31.6169]},{"code":"AU-3165","program":"pota","name":"Ben Halls Gap National Park","coordinates":[151.228,-31.579]},{"code":"AU-7890","program":"pota","name":"Ben Halls Gap State Forest","coordinates":[151.176,-31.5966]},{"code":"VK2/NW-002","program":"sota","name":"Wombramurra","coordinates":[151.1342,-31.6273]},{"code":"VK2/NW-011","program":"sota","name":"Liverpool Range Peak 3","coordinates":[151.0681,-31.5944]}]}