{"lat":-31.75,"lon":159,"programs":["iota","pota","sota"],"count":16,"references":[{"code":"OC-004","program":"iota","name":"LORD HOWE ISLAND","coordinates":[159.165000915,-31.634999275]},{"code":"AU-1860","program":"pota","name":"Lord Howe Island Marine Park","coordinates":[159.107,-31.5907]},{"code":"AU-2159","program":"pota","name":"Lord Howe Island Permanent Park Preserve","coordinates":[159.086,-31.5638]},{"code":"AU-2160","program":"pota","name":"Lord Howe Commonwealth Marine Reserve National Park","coordinates":[159.082,-31.57]},{"code":"AU-9879","program":"pota","name":"Salmon State Beach","coordinates":[159.075,-31.5591]},{"code":"AU-9880","program":"pota","name":"Kings State Beach","coordinates":[159.076,-31.5539]},{"code":"AU-9881","program":"pota","name":"Johnsons State Beach","coordinates":[159.075,-31.5514]},{"code":"AU-9882","program":"pota","name":"Lagoon State Beach","coordinates":[159.063,-31.5262]},{"code":"AU-9883","program":"pota","name":"Old Settlement State Beach","coordinates":[159.056,-31.5196]},{"code":"AU-9884","program":"pota","name":"North State Beach","coordinates":[159.044,-31.5176]},{"code":"AU-9885","program":"pota","name":"Neds State Beach","coordinates":[159.065,-31.5184]},{"code":"AU-9886","program":"pota","name":"Middle State Beach","coordinates":[159.075,-31.5269]},{"code":"AU-9887","program":"pota","name":"Blinky State Beach","coordinates":[159.082,-31.54]},{"code":"VK9/LH-001","program":"sota","name":"Mt Gower","coordinates":[159.07541,-31.586992]},{"code":"VK9/LH-002","program":"sota","name":"Mount Lidgbird","coordinates":[159.0836,-31.56605]},{"code":"VK9/LH-004","program":"sota","name":"Malabar Hill","coordinates":[159.06096,-31.5127]}]}