{"lat":-31.25,"lon":26.5,"programs":["sota"],"count":8,"references":[{"code":"ZS/EC-122","program":"sota","name":"Perdekop","coordinates":[26.628,-31.22]},{"code":"ZS/EC-128","program":"sota","name":"Bakenkop","coordinates":[26.5373,-31.2115]},{"code":"ZS/EC-131","program":"sota","name":"Telemachuskop","coordinates":[26.7294,-31.0292]},{"code":"ZS/EC-135","program":"sota","name":"Waaikraalberg","coordinates":[26.5391,-31.1269]},{"code":"ZS/EC-173","program":"sota","name":"Langberg","coordinates":[26.685,-31.0759]},{"code":"ZS/EC-228","program":"sota","name":"Venterskop","coordinates":[26.5558,-31.0267]},{"code":"ZS/EC-254","program":"sota","name":"Paardeverlies","coordinates":[26.5722,-31.0658]},{"code":"ZS/EC-312","program":"sota","name":"Kommandantskop","coordinates":[26.5551,-31.0572]}]}