{"lat":-31.5,"lon":151.75,"programs":["pota","sota"],"count":7,"references":[{"code":"AU-1804","program":"pota","name":"Mummel Gulf State Conservation Area","coordinates":[151.914,-31.3717]},{"code":"AU-1805","program":"pota","name":"Mummel Gulf National Park","coordinates":[151.856,-31.4126]},{"code":"AU-2010","program":"pota","name":"Cottan-Bimbang State Conservation Area","coordinates":[151.988,-31.3476]},{"code":"AU-7977","program":"pota","name":"Enfield State Forest","coordinates":[151.976,-31.3158]},{"code":"VK2/MN-139","program":"sota","name":"Walcrow","coordinates":[151.8763,-31.477]},{"code":"VK2/NT-008","program":"sota","name":"VK2/NT-008","coordinates":[151.8443,-31.2789]},{"code":"VK2/NT-026","program":"sota","name":"VK2/NT-026","coordinates":[151.8614,-31.3686]}]}