{"lat":-31.25,"lon":115.5,"programs":["pota"],"count":5,"references":[{"code":"AU-0071","program":"pota","name":"Moore River Nature Reserve","coordinates":[115.661,-31.1852]},{"code":"AU-0072","program":"pota","name":"Moore River National Park","coordinates":[115.684,-31.0849]},{"code":"AU-3387","program":"pota","name":"Bootine Nature Reserve","coordinates":[115.748,-31.2484]},{"code":"AU-3689","program":"pota","name":"Nabaroo Nature Reserve","coordinates":[115.53,-31.0814]},{"code":"AU-3773","program":"pota","name":"Sand Spring Well Nature Reserve","coordinates":[115.743,-31.1732]}]}