{"lat":-31.75,"lon":27.25,"programs":["sota"],"count":5,"references":[{"code":"ZS/EC-367","program":"sota","name":"Ntabalongo","coordinates":[27.3338,-31.617]},{"code":"ZS/EC-369","program":"sota","name":"Jinginja","coordinates":[27.2912,-31.6486]},{"code":"ZS/EC-465","program":"sota","name":"Indwe Poort","coordinates":[27.3861,-31.6054]},{"code":"ZS/EC-473","program":"sota","name":"Stock","coordinates":[27.4939,-31.525]},{"code":"ZS/EC-642","program":"sota","name":"Brooklyn","coordinates":[27.3564,-31.5126]}]}