{"lat":-31.5,"lon":152.5,"programs":["pota","sota"],"count":12,"references":[{"code":"AU-2269","program":"pota","name":"Mines Road Flora Reserve","coordinates":[152.537,-31.2801]},{"code":"AU-6920","program":"pota","name":"Bellangry State Forest","coordinates":[152.529,-31.282]},{"code":"AU-6926","program":"pota","name":"Cairncross State Forest","coordinates":[152.739,-31.3466]},{"code":"AU-7775","program":"pota","name":"Pappinbarra State Forest","coordinates":[152.541,-31.396]},{"code":"AU-7923","program":"pota","name":"Bril Bril State Forest","coordinates":[152.632,-31.2789]},{"code":"AU-7924","program":"pota","name":"Broken Bago State Forest","coordinates":[152.694,-31.4742]},{"code":"VK2/MN-045","program":"sota","name":"Five Ways Hill","coordinates":[152.5282,-31.2859]},{"code":"VK2/MN-069","program":"sota","name":"Mount Cairncross","coordinates":[152.6824,-31.3415]},{"code":"VK2/MN-077","program":"sota","name":"Albert","coordinates":[152.5152,-31.4136]},{"code":"VK2/MN-089","program":"sota","name":"VK2/MN-089","coordinates":[152.5731,-31.3592]},{"code":"VK2/MN-091","program":"sota","name":"Apple Tree Mountain","coordinates":[152.5407,-31.3414]},{"code":"VK2/MN-208","program":"sota","name":"VK2/MN-208","coordinates":[152.5385,-31.4963]}]}