{"lat":-31,"lon":116.5,"programs":["pota"],"count":6,"references":[{"code":"AU-3022","program":"pota","name":"Rogers Nature Park","coordinates":[116.662,-30.8481]},{"code":"AU-3487","program":"pota","name":"Elphin Nature Reserve","coordinates":[116.686,-30.861]},{"code":"AU-3501","program":"pota","name":"Fowler Gully Nature Reserve","coordinates":[116.628,-30.8599]},{"code":"AU-3597","program":"pota","name":"Lake Hinds Nature Reserve","coordinates":[116.56,-30.7799]},{"code":"AU-3608","program":"pota","name":"Lake Ninan Nature Reserve","coordinates":[116.642,-30.9528]},{"code":"AU-6766","program":"pota","name":"Wongan Hills Nature Reserve","coordinates":[116.637,-30.8067]}]}