{"lat":-32,"lon":26.75,"programs":["sota"],"count":9,"references":[{"code":"ZS/EC-003","program":"sota","name":"Hangklip","coordinates":[26.8341,-31.7707]},{"code":"ZS/EC-310","program":"sota","name":"Rockwood","coordinates":[26.9126,-31.7743]},{"code":"ZS/EC-374","program":"sota","name":"Nooitgedacht","coordinates":[26.7804,-31.7745]},{"code":"ZS/EC-456","program":"sota","name":"KuGqebenya","coordinates":[26.9972,-31.7881]},{"code":"ZS/EC-539","program":"sota","name":"Madeira","coordinates":[26.8334,-31.8691]},{"code":"ZS/EC-556","program":"sota","name":"ZS/EC-556","coordinates":[26.9807,-31.8267]},{"code":"ZS/EC-573","program":"sota","name":"ZS/EC-573","coordinates":[26.9585,-31.8793]},{"code":"ZS/EC-630","program":"sota","name":"ZS/EC-630","coordinates":[26.9314,-31.9347]},{"code":"ZS/EC-671","program":"sota","name":"Roydon","coordinates":[26.8986,-31.9473]}]}