{"lat":-32.25,"lon":115.5,"programs":["pota"],"count":12,"references":[{"code":"AU-2906","program":"pota","name":"Carnac Island Nature Park","coordinates":[115.663,-32.1214]},{"code":"AU-3133","program":"pota","name":"Rottnest Island State Reserve","coordinates":[115.512,-32.0061]},{"code":"AU-8725","program":"pota","name":"Port Beach State Beach","coordinates":[115.745,-32.0347]},{"code":"AU-9910","program":"pota","name":"Salmon Bay State Beach","coordinates":[115.504,-32.0126]},{"code":"AU-9911","program":"pota","name":"Little Salmon Bay State Beach","coordinates":[115.525,-32.0244]},{"code":"AU-9913","program":"pota","name":"Porpoise Bay State Beach","coordinates":[115.529,-32.0225]},{"code":"AU-9914","program":"pota","name":"Peterson State Beach","coordinates":[115.545,-32.0115]},{"code":"AU-9915","program":"pota","name":"Bickley Bay State Beach","coordinates":[115.555,-32.0059]},{"code":"AU-10771","program":"pota","name":"North Mole State Historic Site","coordinates":[115.725,-32.0538]},{"code":"AU-10844","program":"pota","name":"Fremantle Boys School ( former ) National Heritage Site","coordinates":[115.749,-32.0509]},{"code":"AU-10846","program":"pota","name":"St John Anglican Church National Heritage Site","coordinates":[115.748,-32.0536]},{"code":"AU-10954","program":"pota","name":"Round House Historic Site","coordinates":[115.741,-32.056]}]}