{"lat":-32.5,"lon":116,"programs":["pota","sota"],"count":8,"references":[{"code":"AU-0044","program":"pota","name":"Serpentine National Park","coordinates":[116.039,-32.3836]},{"code":"AU-0076","program":"pota","name":"Monadnocks 5(1)(g) Reserve","coordinates":[116.21,-32.256]},{"code":"AU-0121","program":"pota","name":"Gooralong Conservation Park","coordinates":[116.039,-32.325]},{"code":"AU-3258","program":"pota","name":"Karnet Nature Reserve","coordinates":[116.012,-32.395]},{"code":"AU-3717","program":"pota","name":"North Dandalup Nature Reserve","coordinates":[116.004,-32.4746]},{"code":"AU-6749","program":"pota","name":"Watkins Road Nature Reserve","coordinates":[116.002,-32.3005]},{"code":"VK6/SW-030","program":"sota","name":"Mt Solus","coordinates":[116.2139,-32.4704]},{"code":"VK6/SW-039","program":"sota","name":"Mt Randall","coordinates":[116.2317,-32.3296]}]}