{"lat":-32.25,"lon":133.5,"programs":["pota"],"count":12,"references":[{"code":"AU-0625","program":"pota","name":"Wittelbee Conservation Park","coordinates":[133.741,-32.2006]},{"code":"AU-9690","program":"pota","name":"Wittelbee Point West State Beach","coordinates":[133.733,-32.199]},{"code":"AU-9691","program":"pota","name":"Cape Vivonne North State Beach","coordinates":[133.688,-32.1773]},{"code":"AU-9692","program":"pota","name":"Ceduna Waters State Beach","coordinates":[133.694,-32.159]},{"code":"AU-9693","program":"pota","name":"Shelly State Beach","coordinates":[133.679,-32.145]},{"code":"AU-9694","program":"pota","name":"Cape Thevenard State Beach","coordinates":[133.664,-32.1396]},{"code":"AU-9695","program":"pota","name":"Ceduna State Beach","coordinates":[133.672,-32.1291]},{"code":"AU-9696","program":"pota","name":"Round Point State Beach","coordinates":[133.648,-32.0972]},{"code":"AU-9697","program":"pota","name":"Low Point State Beach","coordinates":[133.634,-32.0998]},{"code":"AU-9698","program":"pota","name":"Rocky Point West State Beach","coordinates":[133.612,-32.0857]},{"code":"AU-9699","program":"pota","name":"Daniel Bay State Beach","coordinates":[133.579,-32.1021]},{"code":"AU-9700","program":"pota","name":"Rocky Point State Beach","coordinates":[133.549,-32.1695]}]}