{"lat":-32.5,"lon":23.75,"programs":["sota"],"count":9,"references":[{"code":"ZS/EC-009","program":"sota","name":"Perdeberg","coordinates":[23.955,-32.2817]},{"code":"ZS/EC-272","program":"sota","name":"Bassonshoek","coordinates":[23.8211,-32.2715]},{"code":"ZS/EC-321","program":"sota","name":"Die Plate","coordinates":[23.879,-32.2988]},{"code":"ZS/EC-329","program":"sota","name":"Goewermentsberg","coordinates":[23.8882,-32.335]},{"code":"ZS/EC-355","program":"sota","name":"ZS/EC-355","coordinates":[23.8767,-32.3574]},{"code":"ZS/EC-398","program":"sota","name":"Camdeboo","coordinates":[23.8277,-32.3884]},{"code":"ZS/EC-614","program":"sota","name":"ZS/EC-614","coordinates":[23.8373,-32.3524]},{"code":"ZS/EC-619","program":"sota","name":"ZS/EC-619","coordinates":[23.7898,-32.3263]},{"code":"ZS/EC-660","program":"sota","name":"Swartberg","coordinates":[23.7811,-32.2877]}]}