{"lat":-32,"lon":150.5,"programs":["pota","sota"],"count":9,"references":[{"code":"AU-2458","program":"pota","name":"Cedar Brush Nature Park","coordinates":[150.68,-31.8466]},{"code":"VK2/HU-027","program":"sota","name":"VK2/HU-027","coordinates":[150.667,-31.9601]},{"code":"VK2/NW-012","program":"sota","name":"Bald Hill","coordinates":[150.7301,-31.8219]},{"code":"VK2/NW-023","program":"sota","name":"Towarri Mountain","coordinates":[150.6124,-31.8481]},{"code":"VK2/NW-044","program":"sota","name":"Liverpool Range","coordinates":[150.6738,-31.8408]},{"code":"VK2/NW-059","program":"sota","name":"Brees Mountain","coordinates":[150.6413,-31.8239]},{"code":"VK2/NW-070","program":"sota","name":"Mullins Mountain","coordinates":[150.5651,-31.8134]},{"code":"VK2/NW-114","program":"sota","name":"Mount Boo","coordinates":[150.5882,-31.793]},{"code":"VK2/NW-126","program":"sota","name":"Mount Hall","coordinates":[150.5032,-31.7823]}]}