{"lat":-32.5,"lon":115.75,"programs":["pota"],"count":5,"references":[{"code":"AU-3001","program":"pota","name":"Leda Nature Park","coordinates":[115.803,-32.2769]},{"code":"AU-3046","program":"pota","name":"Banksia Nature Park","coordinates":[115.889,-32.2539]},{"code":"AU-3613","program":"pota","name":"Lambkin Nature Reserve","coordinates":[115.977,-32.3674]},{"code":"AU-8544","program":"pota","name":"WA51784 Unnamed State Reserve","coordinates":[115.906,-32.3366]},{"code":"AU-8545","program":"pota","name":"Paganoni State Reserve","coordinates":[115.785,-32.434]}]}