{"lat":-32,"lon":151.75,"programs":["pota","sota"],"count":15,"references":[{"code":"AU-1637","program":"pota","name":"Woko National Park","coordinates":[151.789,-31.7589]},{"code":"AU-2015","program":"pota","name":"Copeland Tops State Conservation Area","coordinates":[151.818,-31.9848]},{"code":"AU-2026","program":"pota","name":"Coneac State Conservation Area","coordinates":[151.785,-31.8546]},{"code":"AU-2379","program":"pota","name":"Khatambuhl Nature Park","coordinates":[151.973,-31.7823]},{"code":"AU-2454","program":"pota","name":"Camels Hump Nature Park","coordinates":[151.928,-31.8244]},{"code":"AU-7916","program":"pota","name":"Bowman State Forest","coordinates":[151.774,-31.9015]},{"code":"AU-7960","program":"pota","name":"Coneac State Forest","coordinates":[151.825,-31.8875]},{"code":"VK2/MN-074","program":"sota","name":"Dingo Mountain","coordinates":[151.9493,-31.9171]},{"code":"VK2/MN-129","program":"sota","name":"Coneac","coordinates":[151.7775,-31.849]},{"code":"VK2/MN-135","program":"sota","name":"VK2/MN-135","coordinates":[151.7695,-31.7563]},{"code":"VK2/MN-152","program":"sota","name":"Copeland","coordinates":[151.8167,-31.9657]},{"code":"VK2/MN-154","program":"sota","name":"VK2/MN-154","coordinates":[151.8195,-31.8042]},{"code":"VK2/MN-160","program":"sota","name":"Utah Utah","coordinates":[151.9824,-31.853]},{"code":"VK2/MN-172","program":"sota","name":"VK2/MN-172","coordinates":[151.8333,-31.8354]},{"code":"VK2/MN-189","program":"sota","name":"Kauthi","coordinates":[151.881,-31.7506]}]}