{"lat":-32.75,"lon":115.5,"programs":["pota"],"count":6,"references":[{"code":"AU-0088","program":"pota","name":"Len Howard Conservation Park","coordinates":[115.69,-32.569]},{"code":"AU-2929","program":"pota","name":"McLarty Nature Park","coordinates":[115.7,-32.6938]},{"code":"AU-2930","program":"pota","name":"Mealup Point Nature Park","coordinates":[115.688,-32.6791]},{"code":"AU-3451","program":"pota","name":"Creery Island Nature Reserve","coordinates":[115.727,-32.564]},{"code":"AU-3603","program":"pota","name":"Lake McLarty Nature Reserve","coordinates":[115.715,-32.7038]},{"code":"AU-3604","program":"pota","name":"Lake Mealup Nature Reserve","coordinates":[115.713,-32.682]}]}