{"lat":-32.25,"lon":24.5,"programs":["pota","sota"],"count":12,"references":[{"code":"ZA-0079","program":"pota","name":"Camdeboo National Park","coordinates":[24.5412,-32.218]},{"code":"ZS/EC-386","program":"sota","name":"Groothoekberg","coordinates":[24.7264,-32.0376]},{"code":"ZS/EC-475","program":"sota","name":"Noordhoekberge","coordinates":[24.5477,-32.0223]},{"code":"ZS/EC-563","program":"sota","name":"ZS/EC-563","coordinates":[24.72,-32.2482]},{"code":"ZS/EC-602","program":"sota","name":"ZS/EC-602","coordinates":[24.7468,-32.143]},{"code":"ZS/EC-638","program":"sota","name":"Goewermentskop","coordinates":[24.5183,-32.1268]},{"code":"ZS/EC-648","program":"sota","name":"Uplands","coordinates":[24.7062,-32.2062]},{"code":"ZS/EC-672","program":"sota","name":"Conical Hill","coordinates":[24.6869,-32.1656]},{"code":"ZS/EC-713","program":"sota","name":"Goliatskraalkop","coordinates":[24.6167,-32.1181]},{"code":"ZS/EC-733","program":"sota","name":"ZS/EC-733","coordinates":[24.6304,-32.1971]},{"code":"ZS/EC-740","program":"sota","name":"Baviaanskop","coordinates":[24.5587,-32.1079]},{"code":"ZS/EC-767","program":"sota","name":"Lokasiekop","coordinates":[24.5542,-32.2375]}]}