{"lat":-32.25,"lon":26.5,"programs":["sota"],"count":9,"references":[{"code":"ZS/EC-225","program":"sota","name":"Tafelberg","coordinates":[26.5115,-32.1056]},{"code":"ZS/EC-305","program":"sota","name":"Vrischgewaagd","coordinates":[26.5468,-32.1987]},{"code":"ZS/EC-469","program":"sota","name":"Zangqokwe West","coordinates":[26.5531,-32.0653]},{"code":"ZS/EC-522","program":"sota","name":"KuCocoyi","coordinates":[26.6117,-32.0842]},{"code":"ZS/EC-530","program":"sota","name":"Ntabalanga","coordinates":[26.5994,-32.0046]},{"code":"ZS/EC-536","program":"sota","name":"KuGqoloma","coordinates":[26.6366,-32.1145]},{"code":"ZS/EC-547","program":"sota","name":"KuNtabankulu","coordinates":[26.629,-32.1393]},{"code":"ZS/EC-595","program":"sota","name":"KuTsolokazi","coordinates":[26.6175,-32.033]},{"code":"ZS/EC-690","program":"sota","name":"ZS/EC-690","coordinates":[26.7009,-32.0764]}]}