{"lat":-32.75,"lon":115.75,"programs":["pota"],"count":5,"references":[{"code":"AU-2931","program":"pota","name":"Meelon Nature Park","coordinates":[115.936,-32.6891]},{"code":"AU-2938","program":"pota","name":"Nine Mile Lake Nature Park","coordinates":[115.777,-32.738]},{"code":"AU-2990","program":"pota","name":"Goegrup Lake Nature Park","coordinates":[115.782,-32.5186]},{"code":"AU-3100","program":"pota","name":"Austin Bay Nature Park","coordinates":[115.756,-32.6342]},{"code":"AU-7541","program":"pota","name":"Boodalan Nature Reserve","coordinates":[115.751,-32.5933]}]}