{"lat":-32.75,"lon":19,"programs":["sota"],"count":23,"references":[{"code":"ZS/WC-006","program":"sota","name":"Sneeuberg","coordinates":[19.1532,-32.5075]},{"code":"ZS/WC-009","program":"sota","name":"The Pup","coordinates":[19.1871,-32.5237]},{"code":"ZS/WC-020","program":"sota","name":"Sugarloaf Peak","coordinates":[19.224,-32.5256]},{"code":"ZS/WC-170","program":"sota","name":"Heksberg","coordinates":[19.1606,-32.7004]},{"code":"ZS/WC-190","program":"sota","name":"Donkerkloofkop","coordinates":[19.164,-32.549]},{"code":"ZS/WC-196","program":"sota","name":"ZS/WC-196","coordinates":[19.1539,-32.6903]},{"code":"ZS/WC-208","program":"sota","name":"Apollo Peak","coordinates":[19.2047,-32.5451]},{"code":"ZS/WC-251","program":"sota","name":"Apex Peak","coordinates":[19.2032,-32.5784]},{"code":"ZS/WC-271","program":"sota","name":"Moorreespiek","coordinates":[19.2412,-32.5789]},{"code":"ZS/WC-296","program":"sota","name":"Middelbergpiek","coordinates":[19.1728,-32.6656]},{"code":"ZS/WC-345","program":"sota","name":"Grootberg","coordinates":[19.1534,-32.6025]},{"code":"ZS/WC-357","program":"sota","name":"Duiwelskop","coordinates":[19.0668,-32.5254]},{"code":"ZS/WC-375","program":"sota","name":"Kafkop","coordinates":[19.2127,-32.6297]},{"code":"ZS/WC-393","program":"sota","name":"ZS/WC-393","coordinates":[19.129,-32.668]},{"code":"ZS/WC-398","program":"sota","name":"ZS/WC-398","coordinates":[19.1643,-32.6495]},{"code":"ZS/WC-437","program":"sota","name":"Grootberg","coordinates":[19.1176,-32.6989]},{"code":"ZS/WC-458","program":"sota","name":"Witberg","coordinates":[19.1107,-32.6019]},{"code":"ZS/WC-524","program":"sota","name":"Maraisberg","coordinates":[19.0979,-32.5136]},{"code":"ZS/WC-573","program":"sota","name":"Grootkop","coordinates":[19.0973,-32.7487]},{"code":"ZS/WC-697","program":"sota","name":"Warmbadberg","coordinates":[19.0206,-32.7374]},{"code":"ZS/WC-716","program":"sota","name":"ZS/WC-716","coordinates":[19.1286,-32.7401]},{"code":"ZS/WC-749","program":"sota","name":"Toppie se Berg","coordinates":[19.1029,-32.6258]},{"code":"ZS/WC-750","program":"sota","name":"Perdekop","coordinates":[19.0935,-32.7208]}]}