{"lat":-32,"lon":150.75,"programs":["pota","sota"],"count":10,"references":[{"code":"AU-1690","program":"pota","name":"Towarri National Park","coordinates":[150.751,-31.8416]},{"code":"AU-2066","program":"pota","name":"Burning Mountain Nature Reserve","coordinates":[150.902,-31.8678]},{"code":"AU-2455","program":"pota","name":"Camerons Gorge Nature Park","coordinates":[150.996,-31.9006]},{"code":"AU-2577","program":"pota","name":"Wingen Maid Nature Park","coordinates":[150.825,-31.8846]},{"code":"AU-10558","program":"pota","name":"Pages National Wild and Scenic River","coordinates":[150.968,-31.8875]},{"code":"VK2/HU-011","program":"sota","name":"The Black Mountain","coordinates":[150.9293,-31.9502]},{"code":"VK2/HU-015","program":"sota","name":"Lagoon Mountain","coordinates":[150.9921,-31.9293]},{"code":"VK2/HU-019","program":"sota","name":"Sylphs Mountain","coordinates":[150.9248,-31.9091]},{"code":"VK2/HU-029","program":"sota","name":"Gateleys Mountain","coordinates":[150.9162,-31.8878]},{"code":"VK2/HU-049","program":"sota","name":"VK2/HU-049","coordinates":[150.7884,-31.9473]}]}