{"lat":-32,"lon":24.5,"programs":["sota"],"count":7,"references":[{"code":"ZS/EC-002","program":"sota","name":"Kompasberg","coordinates":[24.5398,-31.7593]},{"code":"ZS/EC-157","program":"sota","name":"Leeukop","coordinates":[24.6989,-31.7667]},{"code":"ZS/EC-314","program":"sota","name":"Quaggasvalley","coordinates":[24.6545,-31.8137]},{"code":"ZS/EC-328","program":"sota","name":"Witnek","coordinates":[24.6808,-31.8953]},{"code":"ZS/EC-418","program":"sota","name":"ZS/EC-418","coordinates":[24.5605,-31.8232]},{"code":"ZS/EC-507","program":"sota","name":"Wilgenbosch","coordinates":[24.5753,-31.8449]},{"code":"ZS/EC-557","program":"sota","name":"N Beth Suid","coordinates":[24.5393,-31.8819]}]}