{"lat":-32.75,"lon":117,"programs":["pota"],"count":6,"references":[{"code":"AU-3115","program":"pota","name":"Hotham River Nature Park","coordinates":[117.095,-32.6104]},{"code":"AU-3128","program":"pota","name":"Noombling Nature Park","coordinates":[117.001,-32.5269]},{"code":"AU-3664","program":"pota","name":"Moorumbine Nature Reserve","coordinates":[117.191,-32.5127]},{"code":"AU-3710","program":"pota","name":"Noonebin Nature Reserve","coordinates":[117.241,-32.5742]},{"code":"AU-3749","program":"pota","name":"Pingelly Nature Reserve","coordinates":[117.075,-32.5419]},{"code":"AU-6790","program":"pota","name":"Yornaning Nature Reserve","coordinates":[117.176,-32.7464]}]}