{"lat":-32.5,"lon":24.5,"programs":["sota"],"count":8,"references":[{"code":"ZS/EC-527","program":"sota","name":"ZS/EC-527","coordinates":[24.676,-32.2734]},{"code":"ZS/EC-594","program":"sota","name":"Tandjiesberg","coordinates":[24.6848,-32.3813]},{"code":"ZS/EC-627","program":"sota","name":"Hanglip","coordinates":[24.6424,-32.3041]},{"code":"ZS/EC-634","program":"sota","name":"Drie Koppe","coordinates":[24.6472,-32.2769]},{"code":"ZS/EC-666","program":"sota","name":"ZS/EC-666","coordinates":[24.637,-32.2613]},{"code":"ZS/EC-692","program":"sota","name":"Loskop","coordinates":[24.7163,-32.4059]},{"code":"ZS/EC-719","program":"sota","name":"ZS/EC-719","coordinates":[24.7083,-32.3361]},{"code":"ZS/EC-727","program":"sota","name":"Spandaukop","coordinates":[24.518,-32.2839]}]}