{"lat":-32,"lon":25.5,"programs":["sota"],"count":5,"references":[{"code":"ZS/EC-434","program":"sota","name":"Elandsberg","coordinates":[25.6749,-31.8551]},{"code":"ZS/EC-584","program":"sota","name":"Rooiberg","coordinates":[25.6506,-31.9236]},{"code":"ZS/EC-611","program":"sota","name":"Boesmansberg","coordinates":[25.5806,-31.8408]},{"code":"ZS/EC-616","program":"sota","name":"Speelmanskop","coordinates":[25.5742,-31.8858]},{"code":"ZS/EC-632","program":"sota","name":"Aasvoelkop","coordinates":[25.6286,-31.904]}]}