{"lat":-32.5,"lon":117,"programs":["pota"],"count":6,"references":[{"code":"AU-3144","program":"pota","name":"Weam Nature Park","coordinates":[117.108,-32.3765]},{"code":"AU-3516","program":"pota","name":"Goodenough Nature Reserve","coordinates":[117.113,-32.4891]},{"code":"AU-3541","program":"pota","name":"Horne Nature Reserve","coordinates":[117.112,-32.4664]},{"code":"AU-3586","program":"pota","name":"Kulyaling Nature Reserve","coordinates":[117.049,-32.4569]},{"code":"AU-3688","program":"pota","name":"Murnanying Nature Reserve","coordinates":[117.247,-32.4257]},{"code":"AU-3748","program":"pota","name":"Pingeculling Nature Reserve","coordinates":[117.112,-32.4025]}]}