{"lat":-32.5,"lon":152.25,"programs":["pota","sota"],"count":13,"references":[{"code":"AU-1670","program":"pota","name":"Wallingat National Park","coordinates":[152.416,-32.2902]},{"code":"AU-1786","program":"pota","name":"Myall Lakes National Park","coordinates":[152.362,-32.4493]},{"code":"AU-2395","program":"pota","name":"Smiths Lake Nature Park","coordinates":[152.475,-32.3847]},{"code":"AU-7729","program":"pota","name":"Bachelor State Forest","coordinates":[152.356,-32.2743]},{"code":"AU-7844","program":"pota","name":"Wallingat State Forest","coordinates":[152.426,-32.3419]},{"code":"AU-9037","program":"pota","name":"Fiona State Beach","coordinates":[152.422,-32.4806]},{"code":"AU-9038","program":"pota","name":"Submarine State Beach","coordinates":[152.475,-32.4626]},{"code":"AU-10594","program":"pota","name":"Wallingat National Wild and Scenic River","coordinates":[152.395,-32.2749]},{"code":"VK2/MN-114","program":"sota","name":"Mt Chapman","coordinates":[152.3035,-32.3753]},{"code":"VK2/MN-207","program":"sota","name":"VK2/MN-207","coordinates":[152.2556,-32.3097]},{"code":"VK2/MN-211","program":"sota","name":"Koolonock","coordinates":[152.2586,-32.444]},{"code":"VK2/MN-212","program":"sota","name":"VK2/MN-212","coordinates":[152.3696,-32.267]},{"code":"VK2/MN-214","program":"sota","name":"Whoota Whoota Lookout","coordinates":[152.4675,-32.3008]}]}