{"lat":-32.25,"lon":151.25,"programs":["pota","sota"],"count":15,"references":[{"code":"AU-1810","program":"pota","name":"Mount Royal National Park","coordinates":[151.312,-32.2041]},{"code":"AU-2133","program":"pota","name":"Barrington Tops National Park","coordinates":[151.496,-32.0215]},{"code":"AU-2267","program":"pota","name":"Mount Allyn Flora Reserve","coordinates":[151.416,-32.1165]},{"code":"AU-6928","program":"pota","name":"Chichester (Allyn River) State Forest","coordinates":[151.475,-32.1324]},{"code":"AU-8052","program":"pota","name":"Masseys Creek State Forest","coordinates":[151.423,-32.2151]},{"code":"VK2/HU-001","program":"sota","name":"Woolooma Range","coordinates":[151.2687,-32.0525]},{"code":"VK2/HU-002","program":"sota","name":"Mount Cockcrow","coordinates":[151.3018,-32.1206]},{"code":"VK2/HU-003","program":"sota","name":"Big Losy Mountain","coordinates":[151.325,-32.0945]},{"code":"VK2/HU-007","program":"sota","name":"Mount Royal","coordinates":[151.3257,-32.1742]},{"code":"VK2/HU-013","program":"sota","name":"Mount Cabre Bald","coordinates":[151.3834,-32.1489]},{"code":"VK2/HU-014","program":"sota","name":"Mount Carrow","coordinates":[151.3504,-32.2126]},{"code":"VK2/HU-020","program":"sota","name":"VK2/HU-020","coordinates":[151.4288,-32.2021]},{"code":"VK2/HU-024","program":"sota","name":"VK2/HU-024","coordinates":[151.2832,-32.2448]},{"code":"VK2/HU-025","program":"sota","name":"Smiths Mount","coordinates":[151.3367,-32.2377]},{"code":"VK2/MN-120","program":"sota","name":"Brumlow Tops","coordinates":[151.4478,-32.0029]}]}