{"lat":-32,"lon":27.25,"programs":["sota"],"count":13,"references":[{"code":"ZS/EC-402","program":"sota","name":"Ntabexegwazana","coordinates":[27.494,-31.7751]},{"code":"ZS/EC-603","program":"sota","name":"Sigwangu","coordinates":[27.2531,-31.7975]},{"code":"ZS/EC-613","program":"sota","name":"Mcewula","coordinates":[27.3156,-31.8819]},{"code":"ZS/EC-628","program":"sota","name":"Untholonze","coordinates":[27.4415,-31.8933]},{"code":"ZS/EC-653","program":"sota","name":"Manqata","coordinates":[27.3733,-31.8506]},{"code":"ZS/EC-674","program":"sota","name":"Ntabamtonjeni","coordinates":[27.461,-31.9974]},{"code":"ZS/EC-703","program":"sota","name":"Lubisi","coordinates":[27.4524,-31.8184]},{"code":"ZS/EC-721","program":"sota","name":"Tsakana","coordinates":[27.43,-31.8755]},{"code":"ZS/EC-750","program":"sota","name":"Emkonjama","coordinates":[27.2653,-31.9447]},{"code":"ZS/EC-772","program":"sota","name":"KuNtabaholi","coordinates":[27.2807,-31.9154]},{"code":"ZS/EC-778","program":"sota","name":"Ntabaluxa","coordinates":[27.2862,-31.9017]},{"code":"ZS/EC-792","program":"sota","name":"Xabisweni","coordinates":[27.2994,-31.9242]},{"code":"ZS/EC-801","program":"sota","name":"Ntolonze","coordinates":[27.372,-31.9341]}]}