{"lat":-32,"lon":117.5,"programs":["pota"],"count":10,"references":[{"code":"AU-3240","program":"pota","name":"Badjaling Nature Reserve","coordinates":[117.505,-31.989]},{"code":"AU-3450","program":"pota","name":"Craig Nature Reserve","coordinates":[117.738,-31.7668]},{"code":"AU-3513","program":"pota","name":"Glenluce Nature Reserve","coordinates":[117.676,-31.7807]},{"code":"AU-3524","program":"pota","name":"Gundaring Nature Reserve","coordinates":[117.625,-31.8518]},{"code":"AU-3572","program":"pota","name":"Kokerbin Nature Reserve","coordinates":[117.705,-31.8866]},{"code":"AU-3667","program":"pota","name":"Moulien Nature Reserve","coordinates":[117.539,-31.8339]},{"code":"AU-3670","program":"pota","name":"Mount Caroline Nature Reserve","coordinates":[117.635,-31.7921]},{"code":"AU-3678","program":"pota","name":"Mount Stirling Nature Reserve","coordinates":[117.619,-31.8333]},{"code":"AU-3694","program":"pota","name":"Nangeen Hill Nature Reserve","coordinates":[117.685,-31.838]},{"code":"AU-3738","program":"pota","name":"Pantapin Nature Reserve","coordinates":[117.655,-31.9521]}]}