{"lat":-32.25,"lon":-69,"programs":["pota","sota"],"count":5,"references":[{"code":"AR-0011","program":"pota","name":"Paisaje Protegido Pedernal Landscape Reserve","coordinates":[-68.777,-32.0053]},{"code":"LUP/SA-006","program":"sota","name":"Co. Potranca","coordinates":[-68.9737,-32.0363]},{"code":"LUP/SA-008","program":"sota","name":"Co. Pedernal","coordinates":[-68.8063,-32.0673]},{"code":"LUP/SA-010","program":"sota","name":"Co. Los Pozos","coordinates":[-68.8659,-32.1451]},{"code":"LUP/SA-011","program":"sota","name":"LUP/SA-011","coordinates":[-68.7565,-32.0207]}]}