{"lat":-32.25,"lon":150.75,"programs":["pota","sota"],"count":7,"references":[{"code":"AU-1731","program":"pota","name":"Scone Mountain National Park","coordinates":[150.89,-32.0402]},{"code":"AU-2466","program":"pota","name":"Brushy Hill Nature Park","coordinates":[150.962,-32.0455]},{"code":"VK2/HU-037","program":"sota","name":"Bells Mountain","coordinates":[150.97,-32.2278]},{"code":"VK2/HU-038","program":"sota","name":"Colonel Mountain","coordinates":[150.9659,-32.1775]},{"code":"VK2/HU-042","program":"sota","name":"Scone Mountain","coordinates":[150.9158,-32.0316]},{"code":"VK2/HU-048","program":"sota","name":"VK2/HU-048","coordinates":[150.7619,-32.0642]},{"code":"VK2/HU-083","program":"sota","name":"VK2/HU-083","coordinates":[150.9066,-32.1041]}]}