{"lat":-32.25,"lon":27.25,"programs":["sota"],"count":8,"references":[{"code":"ZS/EC-658","program":"sota","name":"Makomo","coordinates":[27.3222,-32.1106]},{"code":"ZS/EC-699","program":"sota","name":"Intaba Etsolo","coordinates":[27.2878,-32.1075]},{"code":"ZS/EC-705","program":"sota","name":"Anta","coordinates":[27.334,-32.2038]},{"code":"ZS/EC-732","program":"sota","name":"ZS/EC-732","coordinates":[27.3822,-32.2003]},{"code":"ZS/EC-757","program":"sota","name":"Stratheric","coordinates":[27.3275,-32.075]},{"code":"ZS/EC-805","program":"sota","name":"Dunville","coordinates":[27.4731,-32.1938]},{"code":"ZS/EC-822","program":"sota","name":"ZS/EC-822","coordinates":[27.3467,-32.0611]},{"code":"ZS/EC-850","program":"sota","name":"ZS/EC-850","coordinates":[27.4112,-32.1621]}]}