{"lat":-33.25,"lon":116.25,"programs":["pota"],"count":5,"references":[{"code":"AU-7562","program":"pota","name":"Bednall State Forest","coordinates":[116.361,-33.0808]},{"code":"AU-7563","program":"pota","name":"Morgan State Forest","coordinates":[116.432,-33.0683]},{"code":"AU-7564","program":"pota","name":"Nalyerin State Forest","coordinates":[116.365,-33.1033]},{"code":"AU-7565","program":"pota","name":"Stockyard State Forest","coordinates":[116.455,-33.1179]},{"code":"AU-7566","program":"pota","name":"Godfrey State Forest","coordinates":[116.485,-33.2134]}]}