{"lat":-33,"lon":18.5,"programs":["sota"],"count":5,"references":[{"code":"ZS/WC-615","program":"sota","name":"Levant Hill","coordinates":[18.7336,-32.7718]},{"code":"ZS/WC-788","program":"sota","name":"Perdekop","coordinates":[18.6415,-32.792]},{"code":"ZS/WC-810","program":"sota","name":"Aasvoëlkop","coordinates":[18.7383,-32.9161]},{"code":"ZS/WC-823","program":"sota","name":"Kafkloof","coordinates":[18.6161,-32.8043]},{"code":"ZS/WC-862","program":"sota","name":"Skurweberg South","coordinates":[18.6237,-32.8198]}]}