{"lat":-33.75,"lon":134.75,"programs":["pota"],"count":6,"references":[{"code":"AU-0642","program":"pota","name":"Waldegrave Islands Conservation Park","coordinates":[134.796,-33.5983]},{"code":"AU-9640","program":"pota","name":"Boord State Beach","coordinates":[134.883,-33.6504]},{"code":"AU-9641","program":"pota","name":"Jetty State Beach","coordinates":[134.88,-33.6368]},{"code":"AU-9642","program":"pota","name":"Cape Finniss State Beach","coordinates":[134.843,-33.6213]},{"code":"AU-9643","program":"pota","name":"Pablo’s State Beach","coordinates":[134.854,-33.5613]},{"code":"AU-9644","program":"pota","name":"Walkers Rock State Beach","coordinates":[134.857,-33.5585]}]}