{"lat":-33.75,"lon":-69.5,"programs":["pota","sota"],"count":7,"references":[{"code":"AR-0091","program":"pota","name":"Manzano Historico Landscape Reserve","coordinates":[-69.3832,-33.6023]},{"code":"LUM/FU-024","program":"sota","name":"Campanario del Pircas","coordinates":[-69.4817,-33.7192]},{"code":"LUM/FU-031","program":"sota","name":"LUM/FU-031","coordinates":[-69.3864,-33.7478]},{"code":"LUM/FU-032","program":"sota","name":"Torrecillas","coordinates":[-69.4758,-33.5822]},{"code":"LUM/FU-033","program":"sota","name":"LUM/FU-033","coordinates":[-69.3644,-33.7394]},{"code":"LUM/FU-034","program":"sota","name":"San Pedro","coordinates":[-69.4103,-33.6042]},{"code":"LUM/FU-035","program":"sota","name":"Culandrillo","coordinates":[-69.3436,-33.5997]}]}