{"lat":-33.75,"lon":-70.75,"programs":["pota"],"count":6,"references":[{"code":"CL-0115","program":"pota","name":"El Panul State Park","coordinates":[-70.5095,-33.5366]},{"code":"CL-0156","program":"pota","name":"Pueblito Las Vizcachas Recreation Park","coordinates":[-70.529,-33.6015]},{"code":"CL-0162","program":"pota","name":"La Bandera Recreation Park","coordinates":[-70.6399,-33.5423]},{"code":"CL-0295","program":"pota","name":"San Luis Orione Recreation Park","coordinates":[-70.7118,-33.511]},{"code":"CL-0346","program":"pota","name":"Parque Natural Cerro La Ballena Natural Area","coordinates":[-70.5458,-33.6065]},{"code":"CL-0391","program":"pota","name":"Parque Metropolitano Sur Cerro Chena Recreation Park","coordinates":[-70.7202,-33.6032]}]}