{"lat":-33.25,"lon":149.25,"programs":["pota","sota"],"count":15,"references":[{"code":"AU-2403","program":"pota","name":"Girralang Nature Park","coordinates":[149.275,-33.1467]},{"code":"AU-2417","program":"pota","name":"Freemantle Nature Park","coordinates":[149.327,-33.1861]},{"code":"AU-7095","program":"pota","name":"The Bridle Track State Trail","coordinates":[149.472,-33.1506]},{"code":"AU-7096","program":"pota","name":"Bruinbun Reserve","coordinates":[149.455,-33.147]},{"code":"AU-7097","program":"pota","name":"Amy Anderson Reserve","coordinates":[149.447,-33.1509]},{"code":"AU-7098","program":"pota","name":"Tattersalls Hole Reserve","coordinates":[149.435,-33.1403]},{"code":"AU-7099","program":"pota","name":"Black Gate Reserve","coordinates":[149.428,-33.1347]},{"code":"AU-7100","program":"pota","name":"Native Dog Reserve","coordinates":[149.427,-33.1186]},{"code":"AU-7101","program":"pota","name":"Johnsons Hole Reserve","coordinates":[149.411,-33.117]},{"code":"AU-7102","program":"pota","name":"Randwick Hole Reserve","coordinates":[149.393,-33.1018]},{"code":"AU-7103","program":"pota","name":"Sammys Hole Reserve","coordinates":[149.391,-33.0933]},{"code":"AU-7104","program":"pota","name":"Mary Flynn Campground Reserve","coordinates":[149.4,-33.0807]},{"code":"AU-7105","program":"pota","name":"Cave Hole Reserve","coordinates":[149.407,-33.0713]},{"code":"AU-7106","program":"pota","name":"Turon Crossing Reserve","coordinates":[149.41,-33.0697]},{"code":"VK2/CT-053","program":"sota","name":"VK2/CT-053","coordinates":[149.4565,-33.2431]}]}