{"lat":-33.5,"lon":21.75,"programs":["sota"],"count":18,"references":[{"code":"ZS/WC-090","program":"sota","name":"Kariegasberg","coordinates":[21.9304,-33.3716]},{"code":"ZS/WC-094","program":"sota","name":"Boesmansnek","coordinates":[21.8436,-33.3812]},{"code":"ZS/WC-097","program":"sota","name":"ZS/WC-097","coordinates":[21.9644,-33.3651]},{"code":"ZS/WC-100","program":"sota","name":"Kangoberg","coordinates":[21.8569,-33.3823]},{"code":"ZS/WC-103","program":"sota","name":"Waboomsberg","coordinates":[21.9962,-33.3553]},{"code":"ZS/WC-113","program":"sota","name":"ZS/WC-113","coordinates":[21.8276,-33.3911]},{"code":"ZS/WC-136","program":"sota","name":"ZS/WC-136","coordinates":[21.7932,-33.3895]},{"code":"ZS/WC-172","program":"sota","name":"ZS/WC-172","coordinates":[21.8388,-33.3695]},{"code":"ZS/WC-222","program":"sota","name":"ZS/WC-222","coordinates":[21.9842,-33.3263]},{"code":"ZS/WC-228","program":"sota","name":"ZS/WC-228","coordinates":[21.8982,-33.322]},{"code":"ZS/WC-292","program":"sota","name":"ZS/WC-292","coordinates":[21.957,-33.3312]},{"code":"ZS/WC-412","program":"sota","name":"Waterkloof","coordinates":[21.7832,-33.322]},{"code":"ZS/WC-702","program":"sota","name":"Aasvoëlberg","coordinates":[21.8532,-33.2567]},{"code":"ZS/WC-734","program":"sota","name":"Damascus New","coordinates":[21.9579,-33.2528]},{"code":"ZS/WC-755","program":"sota","name":"ZS/WC-755","coordinates":[21.9461,-33.4709]},{"code":"ZS/WC-778","program":"sota","name":"Coetzeespoort","coordinates":[21.8578,-33.4829]},{"code":"ZS/WC-804","program":"sota","name":"ZS/WC-804","coordinates":[21.7734,-33.2601]},{"code":"ZS/WC-833","program":"sota","name":"Potgieterspoort","coordinates":[21.9725,-33.4916]}]}