{"lat":-33.25,"lon":-70.25,"programs":["sota"],"count":20,"references":[{"code":"CE3/CO-004","program":"sota","name":"Cerro Juncal Chico","coordinates":[-70.1136,-33.0719]},{"code":"CE3/CO-006","program":"sota","name":"Cerro El Plomo","coordinates":[-70.2147,-33.2372]},{"code":"CE3/CO-008","program":"sota","name":"Cerro Littoria","coordinates":[-70.2186,-33.2175]},{"code":"CE3/CO-009","program":"sota","name":"Cerro Fickenscher","coordinates":[-70.2114,-33.2067]},{"code":"CE3/CO-014","program":"sota","name":"CE3/CO-014","coordinates":[-70.0642,-33.2031]},{"code":"CE3/CO-016","program":"sota","name":"Cerro Picarte","coordinates":[-70.1556,-33.1128]},{"code":"CE3/CO-018","program":"sota","name":"Cerro Federacion","coordinates":[-70.1483,-33.1247]},{"code":"CE3/CO-020","program":"sota","name":"Cerro Negro","coordinates":[-70.2347,-33.1394]},{"code":"CE3/CO-022","program":"sota","name":"Cerro Bahamonde","coordinates":[-70.2006,-33.1239]},{"code":"CE3/CO-023","program":"sota","name":"Cerro Anec","coordinates":[-70.1994,-33.1103]},{"code":"CE3/CO-040","program":"sota","name":"Cerro Esmeralda CP","coordinates":[-70.1467,-33.2017]},{"code":"CE3/SA-001","program":"sota","name":"Cerro Altar","coordinates":[-70.2436,-33.1869]},{"code":"LUM/PL-001","program":"sota","name":"Nevado del Plomo","coordinates":[-70.0658,-33.1036]},{"code":"LUM/PL-003","program":"sota","name":"Juncal","coordinates":[-70.0867,-33.0456]},{"code":"LUM/PL-004","program":"sota","name":"Risopatrón","coordinates":[-70.0636,-33.1519]},{"code":"LUM/PL-005","program":"sota","name":"Bologna","coordinates":[-70.0567,-33.1322]},{"code":"LUM/PL-012","program":"sota","name":"Reichert","coordinates":[-70.0264,-33.2358]},{"code":"LUM/PL-027","program":"sota","name":"LUM/PL-027","coordinates":[-70.0586,-33.2164]},{"code":"LUM/PL-039","program":"sota","name":"LUM/PL-039","coordinates":[-70.0314,-33.0206]},{"code":"LUM/PL-042","program":"sota","name":"LUM/PL-042","coordinates":[-70.0144,-33.1517]}]}