{"lat":-33.5,"lon":21.5,"programs":["pota","sota"],"count":11,"references":[{"code":"ZA-0087","program":"pota","name":"Swartberg Gamkaskloof Nature Reserve","coordinates":[21.6253,-33.3637]},{"code":"ZS/WC-123","program":"sota","name":"ZS/WC-123","coordinates":[21.5048,-33.4109]},{"code":"ZS/WC-143","program":"sota","name":"Blouberg","coordinates":[21.5532,-33.4105]},{"code":"ZS/WC-189","program":"sota","name":"ZS/WC-189","coordinates":[21.7429,-33.3921]},{"code":"ZS/WC-198","program":"sota","name":"Osberg","coordinates":[21.6788,-33.4024]},{"code":"ZS/WC-442","program":"sota","name":"Hartmansberg","coordinates":[21.6013,-33.3365]},{"code":"ZS/WC-454","program":"sota","name":"Gamkasberg","coordinates":[21.6869,-33.3343]},{"code":"ZS/WC-757","program":"sota","name":"Paardenberg","coordinates":[21.5519,-33.4876]},{"code":"ZS/WC-789","program":"sota","name":"Rooipunt","coordinates":[21.7392,-33.2609]},{"code":"ZS/WC-840","program":"sota","name":"Wittepoort","coordinates":[21.6469,-33.272]},{"code":"ZS/WC-861","program":"sota","name":"ZS/WC-861","coordinates":[21.5157,-33.4987]}]}