{"lat":-33,"lon":150.75,"programs":["pota","sota"],"count":5,"references":[{"code":"AU-3178","program":"pota","name":"Wollemi State Conservation Area","coordinates":[150.838,-32.755]},{"code":"VK2/HU-040","program":"sota","name":"Mount Yengo","coordinates":[150.8526,-32.985]},{"code":"VK2/HU-056","program":"sota","name":"Mount Wareng","coordinates":[150.8554,-32.8725]},{"code":"VK2/HU-061","program":"sota","name":"Mount Poppong","coordinates":[150.866,-32.7522]},{"code":"VK2/HU-062","program":"sota","name":"Mount Isobel","coordinates":[150.9494,-32.8021]}]}