{"lat":-33.75,"lon":19.5,"programs":["sota"],"count":7,"references":[{"code":"ZS/WC-083","program":"sota","name":"Keeromsberg","coordinates":[19.6028,-33.5621]},{"code":"ZS/WC-129","program":"sota","name":"Tierberg","coordinates":[19.5945,-33.5726]},{"code":"ZS/WC-199","program":"sota","name":"Saw-Edge Peak","coordinates":[19.6506,-33.5936]},{"code":"ZS/WC-225","program":"sota","name":"Rabiesberg","coordinates":[19.6512,-33.6098]},{"code":"ZS/WC-236","program":"sota","name":"Naudesberg","coordinates":[19.7411,-33.65]},{"code":"ZS/WC-632","program":"sota","name":"ZS/WC-632","coordinates":[19.715,-33.6055]},{"code":"ZS/WC-687","program":"sota","name":"Dwarsberg","coordinates":[19.727,-33.5854]}]}