{"lat":-33.75,"lon":20,"programs":["sota"],"count":12,"references":[{"code":"ZS/WC-422","program":"sota","name":"Sanhoek se Berg","coordinates":[20.1534,-33.5968]},{"code":"ZS/WC-496","program":"sota","name":"Bloutoring","coordinates":[20.2409,-33.5081]},{"code":"ZS/WC-507","program":"sota","name":"Nougashoogte","coordinates":[20.0791,-33.53]},{"code":"ZS/WC-511","program":"sota","name":"ZS/WC-511","coordinates":[20.0468,-33.5434]},{"code":"ZS/WC-544","program":"sota","name":"Apoliskop","coordinates":[20.2151,-33.5412]},{"code":"ZS/WC-550","program":"sota","name":"ZS/WC-550","coordinates":[20.0075,-33.5501]},{"code":"ZS/WC-562","program":"sota","name":"ZS/WC-562","coordinates":[20.1041,-33.5281]},{"code":"ZS/WC-564","program":"sota","name":"Zandleegte","coordinates":[20.1906,-33.6976]},{"code":"ZS/WC-584","program":"sota","name":"ZS/WC-584","coordinates":[20.1122,-33.5044]},{"code":"ZS/WC-600","program":"sota","name":"ZS/WC-600","coordinates":[20.1373,-33.5334]},{"code":"ZS/WC-660","program":"sota","name":"Leeuhoek","coordinates":[20.1797,-33.5486]},{"code":"ZS/WC-733","program":"sota","name":"Keisieberg","coordinates":[20.0038,-33.6802]}]}