{"lat":-33.25,"lon":20.5,"programs":["sota"],"count":8,"references":[{"code":"ZS/WC-429","program":"sota","name":"Tafelkop","coordinates":[20.5242,-33.0658]},{"code":"ZS/WC-486","program":"sota","name":"Ramkop","coordinates":[20.6271,-33.0548]},{"code":"ZS/WC-512","program":"sota","name":"Pietermeintjies","coordinates":[20.5328,-33.2115]},{"code":"ZS/WC-532","program":"sota","name":"Droëberg","coordinates":[20.6515,-33.0535]},{"code":"ZS/WC-592","program":"sota","name":"Ghaapkop","coordinates":[20.639,-33.2088]},{"code":"ZS/WC-595","program":"sota","name":"ZS/WC-595","coordinates":[20.6107,-33.1937]},{"code":"ZS/WC-680","program":"sota","name":"ZS/WC-680","coordinates":[20.695,-33.196]},{"code":"ZS/WC-694","program":"sota","name":"ZS/WC-694","coordinates":[20.7201,-33.1918]}]}