{"lat":-33.75,"lon":24.25,"programs":["sota"],"count":9,"references":[{"code":"ZS/EL-036","program":"sota","name":"Scholtzberg","coordinates":[24.2603,-33.5714]},{"code":"ZS/EL-052","program":"sota","name":"ZS/EL-052","coordinates":[24.2826,-33.5737]},{"code":"ZS/EL-090","program":"sota","name":"Baviaanskloofberge","coordinates":[24.4519,-33.5885]},{"code":"ZS/EL-106","program":"sota","name":"Baviaanskloofberge","coordinates":[24.3245,-33.5894]},{"code":"ZS/EL-124","program":"sota","name":"Wilgefontein","coordinates":[24.3586,-33.6039]},{"code":"ZS/EL-175","program":"sota","name":"Klipgat","coordinates":[24.3067,-33.6839]},{"code":"ZS/EL-274","program":"sota","name":"ZS/EL-274","coordinates":[24.4016,-33.7115]},{"code":"ZS/EL-275","program":"sota","name":"Langkop","coordinates":[24.4336,-33.6533]},{"code":"ZS/EL-276","program":"sota","name":"Tafelkop","coordinates":[24.4148,-33.6626]}]}