{"lat":-33,"lon":117,"programs":["pota"],"count":5,"references":[{"code":"AU-3393","program":"pota","name":"Bradford Nature Reserve","coordinates":[117.038,-32.9021]},{"code":"AU-3500","program":"pota","name":"Fourteen Mile Brook Nature Reserve","coordinates":[117.096,-32.8317]},{"code":"AU-3649","program":"pota","name":"Minniging Nature Reserve","coordinates":[117.054,-32.872]},{"code":"AU-3770","program":"pota","name":"Rosedale Nature Reserve","coordinates":[117.159,-32.8298]},{"code":"AU-8551","program":"pota","name":"Montague State Forest","coordinates":[117.111,-32.7708]}]}