{"lat":-33,"lon":134,"programs":["pota"],"count":13,"references":[{"code":"AU-0699","program":"pota","name":"Sceale Bay Conservation Park","coordinates":[134.197,-32.9458]},{"code":"AU-9656","program":"pota","name":"Surfers State Beach","coordinates":[134.194,-32.95]},{"code":"AU-9657","program":"pota","name":"Yanerbie State Beach","coordinates":[134.141,-32.9318]},{"code":"AU-9658","program":"pota","name":"Smooth Pool State Beach","coordinates":[134.108,-32.9122]},{"code":"AU-9659","program":"pota","name":"Tractor State Beach","coordinates":[134.114,-32.8689]},{"code":"AU-9660","program":"pota","name":"Back State Beach","coordinates":[134.125,-32.7952]},{"code":"AU-9661","program":"pota","name":"Hally’s State Beach","coordinates":[134.095,-32.7536]},{"code":"AU-9663","program":"pota","name":"Shag Point State Beach","coordinates":[134.195,-32.7544]},{"code":"AU-9664","program":"pota","name":"Doctors West State Beach","coordinates":[134.193,-32.7912]},{"code":"AU-9665","program":"pota","name":"Doctors State Beach","coordinates":[134.201,-32.7969]},{"code":"AU-9666","program":"pota","name":"Jetty State Beach","coordinates":[134.211,-32.7953]},{"code":"AU-9667","program":"pota","name":"Crawfords Landing State Beach","coordinates":[134.233,-32.7722]},{"code":"AU-9668","program":"pota","name":"Perforated Landing State Beach","coordinates":[134.241,-32.7574]}]}