{"lat":-33.75,"lon":115.25,"programs":["pota"],"count":8,"references":[{"code":"AU-2901","program":"pota","name":"Broadwater Nature Park","coordinates":[115.285,-33.6716]},{"code":"AU-3135","program":"pota","name":"Sabina Nature Park","coordinates":[115.402,-33.6467]},{"code":"AU-3494","program":"pota","name":"Fish Road Nature Reserve","coordinates":[115.389,-33.7315]},{"code":"AU-10065","program":"pota","name":"Unnamed park WA44838 State Natural Reserve","coordinates":[115.447,-33.594]},{"code":"AU-10068","program":"pota","name":"Broadwater State Beach","coordinates":[115.282,-33.6561]},{"code":"AU-10069","program":"pota","name":"Busselton Jetty Historic Site","coordinates":[115.339,-33.6301]},{"code":"AU-10564","program":"pota","name":"Geographe National Park","coordinates":[115.358,-33.5511]},{"code":"AU-10981","program":"pota","name":"Ludlow National Wild and Scenic River","coordinates":[115.426,-33.6135]}]}