{"lat":-33.25,"lon":19,"programs":["sota"],"count":9,"references":[{"code":"ZS/WC-082","program":"sota","name":"Groot-Winterhoek","coordinates":[19.146,-33.1063]},{"code":"ZS/WC-112","program":"sota","name":"Eureka Peak","coordinates":[19.1745,-33.0991]},{"code":"ZS/WC-117","program":"sota","name":"Klein-Winterhoekpiek","coordinates":[19.139,-33.1461]},{"code":"ZS/WC-197","program":"sota","name":"Drostersberg","coordinates":[19.166,-33.0357]},{"code":"ZS/WC-224","program":"sota","name":"Groen","coordinates":[19.1479,-33.0169]},{"code":"ZS/WC-301","program":"sota","name":"Kleinpoortberg","coordinates":[19.1205,-33.1777]},{"code":"ZS/WC-341","program":"sota","name":"Roodezandsberg","coordinates":[19.0753,-33.2133]},{"code":"ZS/WC-571","program":"sota","name":"Luisekop","coordinates":[19.0841,-33.1662]},{"code":"ZS/WC-756","program":"sota","name":"Oukloofberg","coordinates":[19.0721,-33.2446]}]}