{"lat":-33.75,"lon":117.25,"programs":["pota"],"count":5,"references":[{"code":"AU-3109","program":"pota","name":"Cherry Tree Pool Nature Park","coordinates":[117.268,-33.7095]},{"code":"AU-3150","program":"pota","name":"Woodanilling Nature Park","coordinates":[117.475,-33.5667]},{"code":"AU-3291","program":"pota","name":"Strathmore Hill Nature Reserve","coordinates":[117.36,-33.607]},{"code":"AU-3422","program":"pota","name":"Carrolup Nature Reserve","coordinates":[117.364,-33.6927]},{"code":"AU-3633","program":"pota","name":"Maragoonda Nature Reserve","coordinates":[117.307,-33.6751]}]}