{"lat":-33,"lon":-70.25,"programs":["pota","sota"],"count":11,"references":[{"code":"CL-0157","program":"pota","name":"Parque Andino Juncal Protected Area","coordinates":[-70.0928,-32.9158]},{"code":"LUM/PH-010","program":"sota","name":"Tolosa","coordinates":[-70.0331,-32.7689]},{"code":"LUM/PH-031","program":"sota","name":"Caracoles","coordinates":[-70.1081,-32.8003]},{"code":"LUM/PH-034","program":"sota","name":"Tres Hermanos Sur","coordinates":[-70.1283,-32.7594]},{"code":"LUM/PL-014","program":"sota","name":"Alto del Rio Blanco","coordinates":[-70.0094,-32.9539]},{"code":"LUM/PL-017","program":"sota","name":"Tres Gemelos","coordinates":[-70.0047,-32.8819]},{"code":"LUM/PL-020","program":"sota","name":"León Blanco","coordinates":[-70.02,-32.9625]},{"code":"LUM/PL-021","program":"sota","name":"Leon Negro","coordinates":[-70.0272,-32.9722]},{"code":"LUM/PL-037","program":"sota","name":"Gustavo","coordinates":[-70.0053,-32.9236]},{"code":"LUM/PL-041","program":"sota","name":"Navarro Sur o Mital","coordinates":[-70.0475,-32.8653]},{"code":"LUM/PL-048","program":"sota","name":"Santa Elena","coordinates":[-70.0533,-32.8378]}]}