{"lat":-33.5,"lon":-70,"programs":["sota"],"count":21,"references":[{"code":"CE3/CO-001","program":"sota","name":"Nevado sin Nombre","coordinates":[-69.7978,-33.4244]},{"code":"CE3/CO-002","program":"sota","name":"CE3/CO-002","coordinates":[-69.8275,-33.4292]},{"code":"CE3/CO-029","program":"sota","name":"CE3/CO-029","coordinates":[-69.8749,-33.2753]},{"code":"CE3/CO-036","program":"sota","name":"CE3/CO-036","coordinates":[-69.9267,-33.3097]},{"code":"CE3/CO-037","program":"sota","name":"CE3/CO-037","coordinates":[-69.8319,-33.3403]},{"code":"CE3/CO-038","program":"sota","name":"CE3/CO-038","coordinates":[-69.9617,-33.4744]},{"code":"CE3/CO-041","program":"sota","name":"Cerro Ortega","coordinates":[-69.9697,-33.3464]},{"code":"CE3/CO-042","program":"sota","name":"Cerro El Barco","coordinates":[-69.8581,-33.4528]},{"code":"CE3/CO-044","program":"sota","name":"Cerro Los Negros","coordinates":[-69.8994,-33.4117]},{"code":"CE3/CO-073","program":"sota","name":"Cerro Museo","coordinates":[-69.9631,-33.4353]},{"code":"LUM/PL-006","program":"sota","name":"Pollerita","coordinates":[-69.9161,-33.2672]},{"code":"LUM/PL-007","program":"sota","name":"Chimbote","coordinates":[-69.945,-33.2839]},{"code":"LUM/PL-008","program":"sota","name":"Robicano o Catedral","coordinates":[-69.9825,-33.3136]},{"code":"LUM/PL-013","program":"sota","name":"Sierra Bella","coordinates":[-69.8344,-33.2733]},{"code":"LUM/PL-023","program":"sota","name":"LUM/PL-023","coordinates":[-69.8261,-33.2597]},{"code":"LUM/PL-029","program":"sota","name":"Orientacion","coordinates":[-69.8011,-33.2875]},{"code":"LUM/PL-030","program":"sota","name":"LUM/PL-030","coordinates":[-69.7861,-33.27]},{"code":"LUM/PL-032","program":"sota","name":"LUM/PL-032","coordinates":[-69.7833,-33.26]},{"code":"LUM/PL-043","program":"sota","name":"LUM/PL-043","coordinates":[-69.9894,-33.2517]},{"code":"LUM/PU-001","program":"sota","name":"Tupungato","coordinates":[-69.7703,-33.3583]},{"code":"LUM/PU-002","program":"sota","name":"Alto San Juan","coordinates":[-69.8153,-33.4692]}]}