{"lat":-33.75,"lon":115,"programs":["pota"],"count":18,"references":[{"code":"AU-0003","program":"pota","name":"Yelverton National Park","coordinates":[115.081,-33.7475]},{"code":"AU-2927","program":"pota","name":"Locke Nature Park","coordinates":[115.23,-33.6678]},{"code":"AU-3526","program":"pota","name":"Haag Nature Reserve","coordinates":[115.13,-33.7158]},{"code":"AU-7111","program":"pota","name":"NTWA Bushland covenant (0116B) Reserve","coordinates":[115.142,-33.7233]},{"code":"AU-7120","program":"pota","name":"Unnamed WA26065 Nature Reserve","coordinates":[115.057,-33.7105]},{"code":"AU-10054","program":"pota","name":"Eagle Bay State Beach","coordinates":[115.069,-33.5602]},{"code":"AU-10055","program":"pota","name":"Bunker Bay State Beach","coordinates":[115.033,-33.5432]},{"code":"AU-10056","program":"pota","name":"Meelup State Beach","coordinates":[115.087,-33.5737]},{"code":"AU-10057","program":"pota","name":"Castle Bay State Beach","coordinates":[115.095,-33.581]},{"code":"AU-10058","program":"pota","name":"Curtis Bay State Beach","coordinates":[115.103,-33.5933]},{"code":"AU-10059","program":"pota","name":"Blackhurst Park State Beach","coordinates":[115.105,-33.6014]},{"code":"AU-10060","program":"pota","name":"Dunsborough State Beach","coordinates":[115.112,-33.6139]},{"code":"AU-10061","program":"pota","name":"Windmills State Beach","coordinates":[115.008,-33.5422]},{"code":"AU-10062","program":"pota","name":"Kabbijgup State Beach","coordinates":[115.014,-33.5818]},{"code":"AU-10063","program":"pota","name":"Yallingup State Beach","coordinates":[115.024,-33.6398]},{"code":"AU-10064","program":"pota","name":"Cape to Cape State Trail","coordinates":[115.019,-33.5374]},{"code":"AU-10066","program":"pota","name":"Siesta Park State Beach","coordinates":[115.225,-33.6534]},{"code":"AU-10067","program":"pota","name":"Marybrook State Beach","coordinates":[115.198,-33.6472]}]}