{"lat":-33.5,"lon":136,"programs":["pota","sota"],"count":5,"references":[{"code":"AU-0719","program":"pota","name":"Poolgarra Conservation Reserve","coordinates":[136.086,-33.298]},{"code":"AU-0915","program":"pota","name":"Darke Range Conservation Park","coordinates":[136.176,-33.4755]},{"code":"AU-0949","program":"pota","name":"Caralue Bluff Conservation Park","coordinates":[136.205,-33.2553]},{"code":"VK5/SW-002","program":"sota","name":"Caralue Bluff","coordinates":[136.18224,-33.2829]},{"code":"VK5/SW-006","program":"sota","name":"Darke Peak","coordinates":[136.16566,-33.43237]}]}