{"lat":-34,"lon":23.25,"programs":["pota","sota"],"count":18,"references":[{"code":"ZA-0095","program":"pota","name":"Garden Route National Park","coordinates":[23.4538,-33.8339]},{"code":"ZS/EL-070","program":"sota","name":"Topberg","coordinates":[23.4883,-33.8072]},{"code":"ZS/EL-091","program":"sota","name":"ZS/EL-091","coordinates":[23.4622,-33.7837]},{"code":"ZS/WC-259","program":"sota","name":"Langekloof","coordinates":[23.3952,-33.7926]},{"code":"ZS/WC-280","program":"sota","name":"Niekerksberg","coordinates":[23.4152,-33.776]},{"code":"ZS/WC-344","program":"sota","name":"ZS/WC-344","coordinates":[23.4539,-33.8031]},{"code":"ZS/WC-350","program":"sota","name":"ZS/WC-350","coordinates":[23.3252,-33.7988]},{"code":"ZS/WC-353","program":"sota","name":"ZS/WC-353","coordinates":[23.3701,-33.7721]},{"code":"ZS/WC-407","program":"sota","name":"De Hoek","coordinates":[23.2975,-33.7958]},{"code":"ZS/WC-498","program":"sota","name":"ZS/WC-498","coordinates":[23.2726,-33.764]},{"code":"ZS/WC-508","program":"sota","name":"ZS/WC-508","coordinates":[23.2678,-33.7952]},{"code":"ZS/WC-613","program":"sota","name":"ZS/WC-613","coordinates":[23.3252,-33.8183]},{"code":"ZS/WC-851","program":"sota","name":"Vleitjies se Berg","coordinates":[23.3343,-33.8561]},{"code":"ZS/WC-879","program":"sota","name":"Klein Palmiet Rivier","coordinates":[23.3941,-33.8525]},{"code":"ZS/WC-883","program":"sota","name":"ZS/WC-883","coordinates":[23.425,-33.8543]},{"code":"ZS/WC-886","program":"sota","name":"ZS/WC-886","coordinates":[23.468,-33.8616]},{"code":"ZS/WC-889","program":"sota","name":"Spitskop","coordinates":[23.4,-33.9014]},{"code":"ZS/WC-897","program":"sota","name":"Tarkaberg","coordinates":[23.314,-33.874]}]}