{"lat":-34.25,"lon":115.75,"programs":["pota"],"count":15,"references":[{"code":"AU-0136","program":"pota","name":"Easter National Park","coordinates":[115.795,-34.2468]},{"code":"AU-0170","program":"pota","name":"Blackbutt Conservation Park","coordinates":[115.951,-34.1243]},{"code":"AU-1791","program":"pota","name":"Beaton State Forest","coordinates":[115.892,-34.0098]},{"code":"AU-2912","program":"pota","name":"Donnelly River Nature Park","coordinates":[115.947,-34.21]},{"code":"AU-3241","program":"pota","name":"Lewin State Forest","coordinates":[115.882,-34.2044]},{"code":"AU-3349","program":"pota","name":"Lindsay State Forest","coordinates":[115.952,-34.2326]},{"code":"AU-3732","program":"pota","name":"Easter State Forest","coordinates":[115.769,-34.1857]},{"code":"AU-3734","program":"pota","name":"Iffley State Forest","coordinates":[115.796,-34.231]},{"code":"AU-6412","program":"pota","name":"Nelson State Forest","coordinates":[115.987,-34.0333]},{"code":"AU-7028","program":"pota","name":"Barlee Brook State Forest","coordinates":[115.811,-34.1376]},{"code":"AU-7122","program":"pota","name":"Warren Blackwood Stock Route State Trail","coordinates":[115.928,-34.0457]},{"code":"AU-7578","program":"pota","name":"Netic State Forest","coordinates":[115.971,-34.0745]},{"code":"AU-7579","program":"pota","name":"Andrew State Forest","coordinates":[115.845,-34.1322]},{"code":"AU-7580","program":"pota","name":"Wheatley State Forest","coordinates":[115.914,-34.1124]},{"code":"AU-7581","program":"pota","name":"Gordon State Forest","coordinates":[115.909,-34.173]}]}