{"lat":-34,"lon":18.75,"programs":["gma","iota","pota","sota"],"count":15,"references":[{"code":"XZS/WC-022","program":"gma","name":"Buller's Kop","coordinates":[18.98670006,-33.93669891]},{"code":"XZS/WC-041","program":"gma","name":"Square Tower Peak","coordinates":[18.95829964,-33.95830154]},{"code":"AF-064","program":"iota","name":"WESTERN CAPE PROVINCE SOUTH WEST group","coordinates":[18.93500042,-33.959999085]},{"code":"ZA-0094","program":"pota","name":"Paarl Mountain Nature Reserve","coordinates":[18.9363,-33.7584]},{"code":"ZA-0149","program":"pota","name":"Jan Marais Nature Reserve","coordinates":[18.8767,-33.9327]},{"code":"ZS/WC-016","program":"sota","name":"First Ridge Peak","coordinates":[18.9915,-33.9768]},{"code":"ZS/WC-017","program":"sota","name":"The Twins","coordinates":[18.9717,-33.968]},{"code":"ZS/WC-018","program":"sota","name":"Drakensteinpiek","coordinates":[18.9988,-33.9315]},{"code":"ZS/WC-023","program":"sota","name":"Simonsberg","coordinates":[18.9274,-33.8841]},{"code":"ZS/WC-024","program":"sota","name":"Haelkop","coordinates":[18.9295,-33.998]},{"code":"ZS/WC-032","program":"sota","name":"Spitskop","coordinates":[18.9912,-33.9517]},{"code":"ZS/WC-038","program":"sota","name":"Devil's Tooth","coordinates":[18.9895,-33.9138]},{"code":"ZS/WC-917","program":"sota","name":"Klapmutskop","coordinates":[18.8575,-33.8297]},{"code":"ZS/WC-931","program":"sota","name":"Bottelaryberg","coordinates":[18.778,-33.9079]},{"code":"ZS/WC-971","program":"sota","name":"Drostersnes","coordinates":[18.9179,-33.8788]}]}