{"lat":-34.25,"lon":-70.25,"programs":["sota"],"count":16,"references":[{"code":"CE3/CO-025","program":"sota","name":"Nevado Flores","coordinates":[-70.1653,-34.14]},{"code":"CE3/CO-030","program":"sota","name":"Cerro Serrucho","coordinates":[-70.0781,-34.1981]},{"code":"CE3/CO-039","program":"sota","name":"Cerro Circo","coordinates":[-70.0492,-34.2431]},{"code":"CE3/CO-049","program":"sota","name":"Cerro Cabeza de Novillo","coordinates":[-70.1703,-34.0467]},{"code":"CE3/CO-052","program":"sota","name":"Cerro Azul","coordinates":[-70.2481,-34.0569]},{"code":"CE3/CO-053","program":"sota","name":"Cerro del Valle","coordinates":[-70.1433,-34.1208]},{"code":"CE3/CO-054","program":"sota","name":"CE3/CO-054","coordinates":[-70.0678,-34.2072]},{"code":"CE3/CO-056","program":"sota","name":"Cerro Azufre","coordinates":[-70.215,-34.03]},{"code":"CE3/CO-060","program":"sota","name":"CE3/CO-060","coordinates":[-70.1647,-34.0976]},{"code":"CE3/CO-062","program":"sota","name":"CE3/CO-062","coordinates":[-70.1289,-34.1072]},{"code":"CE3/CO-076","program":"sota","name":"Cerro Manantial Redondo","coordinates":[-70.074,-34.0407]},{"code":"CE3/CO-088","program":"sota","name":"Cerro Amarillo","coordinates":[-70.1706,-34.0725]},{"code":"CE3/CO-090","program":"sota","name":"CE3/CO-090","coordinates":[-70.0642,-34.0217]},{"code":"CE3/CO-096","program":"sota","name":"CE3/CO-096","coordinates":[-70.1153,-34.1991]},{"code":"CE3/CO-097","program":"sota","name":"CE3/CO-097","coordinates":[-70.0728,-34.0588]},{"code":"CE3/CO-101","program":"sota","name":"CE3/CO-101","coordinates":[-70.0069,-34.1694]}]}