{"lat":-34,"lon":122.5,"programs":["pota"],"count":6,"references":[{"code":"AU-8707","program":"pota","name":"Membinup Beach State Beach","coordinates":[122.651,-33.8911]},{"code":"AU-8708","program":"pota","name":"Orleans Bay Beach State Beach","coordinates":[122.593,-33.9099]},{"code":"AU-8709","program":"pota","name":"Thistle Beach State Beach","coordinates":[122.581,-33.9442]},{"code":"AU-8710","program":"pota","name":"Crystal Cove Beach State Beach","coordinates":[122.576,-33.9474]},{"code":"AU-8711","program":"pota","name":"Little Wharton Beach State Beach","coordinates":[122.576,-33.9474]},{"code":"AU-8712","program":"pota","name":"Wharton Beach State Beach","coordinates":[122.562,-33.9388]}]}