{"lat":-34.5,"lon":135.25,"programs":["pota","sota"],"count":7,"references":[{"code":"AU-0705","program":"pota","name":"Rocky Island (North) Conservation Park","coordinates":[135.26,-34.2586]},{"code":"AU-9633","program":"pota","name":"Farm State Beach","coordinates":[135.394,-34.4968]},{"code":"AU-9634","program":"pota","name":"Gallipoli State Beach","coordinates":[135.391,-34.4653]},{"code":"AU-9635","program":"pota","name":"Greenly State Beach","coordinates":[135.358,-34.3603]},{"code":"VK5/SW-012","program":"sota","name":"Marble Range","coordinates":[135.4922,-34.42932]},{"code":"VK5/SW-033","program":"sota","name":"Mt Greenly","coordinates":[135.37112,-34.34159]},{"code":"VK5/SW-035","program":"sota","name":"Mount Dutton","coordinates":[135.42838,-34.48898]}]}