{"lat":-34,"lon":23,"programs":["sota"],"count":11,"references":[{"code":"ZS/WC-469","program":"sota","name":"ZS/WC-469","coordinates":[23.2206,-33.759]},{"code":"ZS/WC-500","program":"sota","name":"Zondaghsberg","coordinates":[23.1567,-33.7511]},{"code":"ZS/WC-538","program":"sota","name":"Gatberg","coordinates":[23.0661,-33.7512]},{"code":"ZS/WC-546","program":"sota","name":"ZS/WC-546","coordinates":[23.2457,-33.7969]},{"code":"ZS/WC-662","program":"sota","name":"George Kop","coordinates":[23.1879,-33.7844]},{"code":"ZS/WC-667","program":"sota","name":"Bosberg","coordinates":[23.0553,-33.8054]},{"code":"ZS/WC-723","program":"sota","name":"Platboshoogte","coordinates":[23.0842,-33.8631]},{"code":"ZS/WC-741","program":"sota","name":"Klein Spitskop","coordinates":[23.108,-33.9183]},{"code":"ZS/WC-774","program":"sota","name":"Jonkersberg","coordinates":[23.0979,-33.9348]},{"code":"ZS/WC-805","program":"sota","name":"ZS/WC-805","coordinates":[23.1737,-33.9023]},{"code":"ZS/WC-844","program":"sota","name":"Perdekop","coordinates":[23.2227,-33.9083]}]}