{"lat":-34,"lon":116,"programs":["pota"],"count":6,"references":[{"code":"AU-0110","program":"pota","name":"Hester Conservation Park","coordinates":[116.175,-33.8941]},{"code":"AU-7030","program":"pota","name":"Greenbushes State Forest","coordinates":[116.036,-33.8022]},{"code":"AU-8508","program":"pota","name":"WA43031 Unnamed Nature Reserve","coordinates":[116.086,-33.948]},{"code":"AU-8510","program":"pota","name":"Greenbushes Forest Reserve","coordinates":[116.088,-33.8469]},{"code":"AU-8529","program":"pota","name":"Jolly State Natural Reserve","coordinates":[116.23,-33.8172]},{"code":"AU-8530","program":"pota","name":"Catterick State Forest","coordinates":[116.114,-33.7814]}]}