{"lat":-34.25,"lon":151,"programs":["pota","sota"],"count":7,"references":[{"code":"AU-1689","program":"pota","name":"Towra Point Nature Reserve","coordinates":[151.164,-34.0157]},{"code":"AU-1735","program":"pota","name":"Royal National Park","coordinates":[151.035,-34.1137]},{"code":"AU-1904","program":"pota","name":"Kamay Botany Bay National Park","coordinates":[151.226,-34.0238]},{"code":"AU-3220","program":"pota","name":"Boat Harbour Aquatic Reserve","coordinates":[151.202,-34.039]},{"code":"AU-3229","program":"pota","name":"Shiprock Aquatic Reserve","coordinates":[151.129,-34.068]},{"code":"AU-3230","program":"pota","name":"Towra Point Aquatic Reserve","coordinates":[151.181,-34.024]},{"code":"VK2/IL-017","program":"sota","name":"Bulgo Hill","coordinates":[151.0297,-34.1922]}]}