{"lat":-34.75,"lon":142.75,"programs":["pota"],"count":9,"references":[{"code":"AU-2606","program":"pota","name":"Bannerton Flora and Fauna Reserve","coordinates":[142.799,-34.7034]},{"code":"AU-2710","program":"pota","name":"Lakes Powell and Carpul Wildlife Reserve","coordinates":[142.883,-34.7157]},{"code":"AU-2802","program":"pota","name":"Toltol Flora and Fauna Reserve","coordinates":[142.811,-34.6563]},{"code":"AU-4172","program":"pota","name":"Bumbang I261 Bushland Reserve","coordinates":[142.77,-34.5973]},{"code":"AU-4175","program":"pota","name":"Bumbang I38 Bushland Reserve","coordinates":[142.761,-34.7199]},{"code":"AU-4176","program":"pota","name":"Bumbang I39 Bushland Reserve","coordinates":[142.752,-34.6389]},{"code":"AU-6903","program":"pota","name":"Toltol I263 Bushland Reserve","coordinates":[142.812,-34.6849]},{"code":"AU-6904","program":"pota","name":"Toltol I40 Bushland Reserve","coordinates":[142.802,-34.6964]},{"code":"AU-11069","program":"pota","name":"Bumbang Island Historic Reserve","coordinates":[142.788,-34.5799]}]}