{"lat":-34,"lon":20.25,"programs":["sota"],"count":8,"references":[{"code":"ZS/WC-204","program":"sota","name":"Misty Point","coordinates":[20.4361,-33.9577]},{"code":"ZS/WC-250","program":"sota","name":"Leeurivierberg","coordinates":[20.3245,-33.9495]},{"code":"ZS/WC-403","program":"sota","name":"MIddelrivierberg","coordinates":[20.3043,-33.9392]},{"code":"ZS/WC-426","program":"sota","name":"Eenuurkop","coordinates":[20.4076,-33.9735]},{"code":"ZS/WC-540","program":"sota","name":"ZS/WC-540","coordinates":[20.3724,-33.9661]},{"code":"ZS/WC-633","program":"sota","name":"Kleinberg","coordinates":[20.3975,-33.7986]},{"code":"ZS/WC-762","program":"sota","name":"Minnaarskop","coordinates":[20.3141,-33.8016]},{"code":"ZS/WC-898","program":"sota","name":"ZS/WC-898","coordinates":[20.3458,-33.8596]}]}