{"lat":-34,"lon":23.5,"programs":["sota"],"count":18,"references":[{"code":"ZS/EL-005","program":"sota","name":"Peak Formosa","coordinates":[23.7033,-33.864]},{"code":"ZS/EL-007","program":"sota","name":"Thumb Peak","coordinates":[23.6202,-33.8432]},{"code":"ZS/EL-078","program":"sota","name":"Spitskop","coordinates":[23.7469,-33.8767]},{"code":"ZS/EL-082","program":"sota","name":"ZS/EL-082","coordinates":[23.6975,-33.8417]},{"code":"ZS/EL-113","program":"sota","name":"Langkloofberge","coordinates":[23.5742,-33.8091]},{"code":"ZS/EL-122","program":"sota","name":"Benekop","coordinates":[23.7029,-33.8917]},{"code":"ZS/EL-127","program":"sota","name":"ZS/EL-127","coordinates":[23.6133,-33.8171]},{"code":"ZS/EL-132","program":"sota","name":"ZS/EL-132","coordinates":[23.7018,-33.8844]},{"code":"ZS/EL-159","program":"sota","name":"Stoeikloof","coordinates":[23.7397,-33.7803]},{"code":"ZS/EL-161","program":"sota","name":"ZS/EL-161","coordinates":[23.6518,-33.8212]},{"code":"ZS/EL-164","program":"sota","name":"Grenadiers Cap","coordinates":[23.7115,-33.9226]},{"code":"ZS/WC-439","program":"sota","name":"Tsitsikamaberg","coordinates":[23.6523,-33.8557]},{"code":"ZS/WC-503","program":"sota","name":"ZS/WC-503","coordinates":[23.562,-33.8292]},{"code":"ZS/WC-526","program":"sota","name":"Boom se Berg","coordinates":[23.5092,-33.7938]},{"code":"ZS/WC-614","program":"sota","name":"Witberg","coordinates":[23.5203,-33.8987]},{"code":"ZS/WC-635","program":"sota","name":"ZS/WC-635","coordinates":[23.6032,-33.882]},{"code":"ZS/WC-735","program":"sota","name":"Zoetkraal","coordinates":[23.5207,-33.8309]},{"code":"ZS/WC-856","program":"sota","name":"ZS/WC-856","coordinates":[23.5173,-33.8494]}]}