{"lat":-34.25,"lon":19,"programs":["sota"],"count":6,"references":[{"code":"ZS/WC-284","program":"sota","name":"Victoria Peak","coordinates":[19.0356,-34.0124]},{"code":"ZS/WC-319","program":"sota","name":"Dwarsberg","coordinates":[19.0257,-34.0209]},{"code":"ZS/WC-506","program":"sota","name":"Moordenaarskloof","coordinates":[19.0116,-34.0703]},{"code":"ZS/WC-560","program":"sota","name":"Mount Lebanon","coordinates":[19.135,-34.1398]},{"code":"ZS/WC-761","program":"sota","name":"Houhoekberg","coordinates":[19.1718,-34.1897]},{"code":"ZS/WC-890","program":"sota","name":"Rietvlakte","coordinates":[19.1525,-34.2276]}]}