{"lat":-34.75,"lon":-70,"programs":["sota"],"count":14,"references":[{"code":"LUM/PR-002","program":"sota","name":"Guanaquero","coordinates":[-69.9053,-34.5439]},{"code":"LUM/PR-003","program":"sota","name":"LUM/PR-003","coordinates":[-69.9972,-34.7497]},{"code":"LUM/PR-006","program":"sota","name":"Del Arroyo Blanco","coordinates":[-69.8714,-34.7433]},{"code":"LUM/PR-007","program":"sota","name":"Puntas del Arroyo Malo","coordinates":[-69.9247,-34.6381]},{"code":"LUM/PR-013","program":"sota","name":"LUM/PR-013","coordinates":[-69.9228,-34.5053]},{"code":"LUM/PR-014","program":"sota","name":"Malo","coordinates":[-69.8394,-34.6322]},{"code":"LUM/PR-016","program":"sota","name":"LUM/PR-016","coordinates":[-69.8631,-34.6869]},{"code":"LUM/PR-017","program":"sota","name":"LUM/PR-017","coordinates":[-69.8889,-34.6289]},{"code":"LUM/PR-022","program":"sota","name":"LUM/PR-022","coordinates":[-69.8944,-34.6733]},{"code":"LUM/PR-024","program":"sota","name":"De las 3 Lagunas","coordinates":[-69.7686,-34.7131]},{"code":"LUM/PR-029","program":"sota","name":"LUM/PR-029","coordinates":[-69.8083,-34.6431]},{"code":"LUM/PR-030","program":"sota","name":"LUM/PR-030","coordinates":[-69.9692,-34.6075]},{"code":"LUM/PR-039","program":"sota","name":"LUM/PR-039","coordinates":[-69.9756,-34.6508]},{"code":"LUM/PR-041","program":"sota","name":"Amarillo","coordinates":[-69.77,-34.6033]}]}