{"lat":-34.5,"lon":137.25,"programs":["pota"],"count":8,"references":[{"code":"AU-0880","program":"pota","name":"Goose Island Conservation Park","coordinates":[137.364,-34.4561]},{"code":"AU-0908","program":"pota","name":"Eastern Spencer Gulf Marine Park","coordinates":[137.418,-34.3984]},{"code":"AU-9537","program":"pota","name":"Point Pearce State Beach","coordinates":[137.486,-34.4811]},{"code":"AU-9538","program":"pota","name":"Point Pearce Bay State Beach","coordinates":[137.479,-34.4402]},{"code":"AU-9539","program":"pota","name":"Island Point State Beach","coordinates":[137.437,-34.4288]},{"code":"AU-9540","program":"pota","name":"Chinaman Well State Beach","coordinates":[137.48,-34.3773]},{"code":"AU-9541","program":"pota","name":"Bolgowan State Beach","coordinates":[137.492,-34.3246]},{"code":"AU-9542","program":"pota","name":"Tiparra Rocks State Beach","coordinates":[137.499,-34.2863]}]}