{"lat":-34,"lon":122,"programs":["pota","sota"],"count":6,"references":[{"code":"AU-0153","program":"pota","name":"Cape Le Grand National Park","coordinates":[122.186,-33.9523]},{"code":"AU-3681","program":"pota","name":"Mullet Lake Nature Reserve","coordinates":[122,-33.8159]},{"code":"AU-6767","program":"pota","name":"Woody Island Nature Reserve","coordinates":[122.016,-33.9625]},{"code":"AU-8713","program":"pota","name":"Lucky Bay Beach State Beach","coordinates":[122.221,-33.9907]},{"code":"VK6/SG-010","program":"sota","name":"Mount Le Grande","coordinates":[122.135,-33.994]},{"code":"VK6/SG-027","program":"sota","name":"Frenchman Peak","coordinates":[122.1665,-33.9678]}]}