{"lat":-34.5,"lon":116,"programs":["pota"],"count":13,"references":[{"code":"AU-0039","program":"pota","name":"Sir James Mitchell National Park","coordinates":[116.146,-34.3455]},{"code":"AU-0125","program":"pota","name":"Gloucester National Park","coordinates":[116.076,-34.44]},{"code":"AU-2914","program":"pota","name":"Eastbrook Nature Park","coordinates":[116.098,-34.4112]},{"code":"AU-2952","program":"pota","name":"Whistler Nature Park","coordinates":[116.095,-34.3925]},{"code":"AU-3789","program":"pota","name":"Smith Brook Nature Reserve","coordinates":[116.173,-34.3513]},{"code":"AU-4370","program":"pota","name":"Solai State Forest","coordinates":[116.018,-34.2738]},{"code":"AU-4764","program":"pota","name":"Big Brook State Forest","coordinates":[116.027,-34.4061]},{"code":"AU-7595","program":"pota","name":"Channybearup State Forest","coordinates":[116.047,-34.347]},{"code":"AU-7596","program":"pota","name":"Diamond 1 State Forest","coordinates":[116.125,-34.3433]},{"code":"AU-7597","program":"pota","name":"Diamong 2 State Forest","coordinates":[116.155,-34.3995]},{"code":"AU-7604","program":"pota","name":"Brockman State Forest","coordinates":[116.068,-34.4719]},{"code":"AU-7605","program":"pota","name":"Collins State Forest","coordinates":[116.166,-34.4545]},{"code":"AU-7606","program":"pota","name":"Nairn State Forest","coordinates":[116.181,-34.4756]}]}