{"lat":-34.5,"lon":18.75,"programs":["sota"],"count":9,"references":[{"code":"ZS/WC-675","program":"sota","name":"Sanctuary Peak","coordinates":[18.8791,-34.2611]},{"code":"ZS/WC-759","program":"sota","name":"Platberg","coordinates":[18.9289,-34.3276]},{"code":"ZS/WC-783","program":"sota","name":"Voorberg","coordinates":[18.895,-34.3413]},{"code":"ZS/WC-784","program":"sota","name":"Blousteenberg","coordinates":[18.8647,-34.2699]},{"code":"ZS/WC-795","program":"sota","name":"Buffelstalberg","coordinates":[18.8659,-34.3125]},{"code":"ZS/WC-864","program":"sota","name":"Klipkop","coordinates":[18.9531,-34.3484]},{"code":"ZS/WC-876","program":"sota","name":"Rooielsberg","coordinates":[18.8348,-34.2827]},{"code":"ZS/WC-936","program":"sota","name":"Hangklip","coordinates":[18.829,-34.3654]},{"code":"ZS/WC-958","program":"sota","name":"Twee Susters","coordinates":[18.8301,-34.3274]}]}