{"lat":-34.75,"lon":-55.5,"programs":["pota","sota"],"count":6,"references":[{"code":"UY-0097","program":"pota","name":"Cuenca Media del Arroyo Solís Grande Protected Area","coordinates":[-55.445,-34.713]},{"code":"UY-0030","program":"pota","name":"Parque Nacional de Aguas Blancas National Park","coordinates":[-55.373,-34.508]},{"code":"CX/CG-002","program":"sota","name":"Cerro de las Ánimas","coordinates":[-55.3208,-34.7475]},{"code":"CX/CG-003","program":"sota","name":"Cerro Tupambaé","coordinates":[-55.3369,-34.6736]},{"code":"CX/CG-005","program":"sota","name":"Cerro Betete","coordinates":[-55.3167,-34.6911]},{"code":"CX/CG-006","program":"sota","name":"Cerro Mirador","coordinates":[-55.3308,-34.5269]}]}