{"lat":-34.75,"lon":-58.75,"programs":["pota"],"count":11,"references":[{"code":"AR-0247","program":"pota","name":"Parque Yrigoyen Nature Park","coordinates":[-58.517,-34.5837]},{"code":"AR-0295","program":"pota","name":"Moron Nature Reserve","coordinates":[-58.6528,-34.6773]},{"code":"AR-0296","program":"pota","name":"El Corredor Nature Reserve","coordinates":[-58.6695,-34.5735]},{"code":"AR-0297","program":"pota","name":"San Francisco Park","coordinates":[-58.6613,-34.5707]},{"code":"AR-0298","program":"pota","name":"Presidente Nestor Kirchner Nature Reserve","coordinates":[-58.6737,-34.5876]},{"code":"AR-0299","program":"pota","name":"Rio Reconquista Nature Reserve","coordinates":[-58.7219,-34.6189]},{"code":"AR-0300","program":"pota","name":"Malvinas Argentinas National Park","coordinates":[-58.7168,-34.6127]},{"code":"AR-0301","program":"pota","name":"Parque Publico del Golf Park","coordinates":[-58.5535,-34.5046]},{"code":"AR-0302","program":"pota","name":"Parque Publico Carlos Arenaza Park","coordinates":[-58.5542,-34.5046]},{"code":"AR-0201","program":"pota","name":"Reserva Ecologica Parque Sarmiento - Reservorio Ecological Reserve","coordinates":[-58.5035,-34.5602]},{"code":"AR-0214","program":"pota","name":"Parque Doctor Juan Bautista Alberdi Nature Park","coordinates":[-58.5023,-34.6606]}]}