{"lat":-35,"lon":143,"programs":["pota"],"count":9,"references":[{"code":"AU-0338","program":"pota","name":"Menzies Nature Conservation Reserve","coordinates":[143.042,-34.8009]},{"code":"AU-4112","program":"pota","name":"Bower Tank Bushland Reserve","coordinates":[143.215,-34.9113]},{"code":"AU-4741","program":"pota","name":"Heywood Lake Wildlife Reserve","coordinates":[143.214,-34.7938]},{"code":"AU-4879","program":"pota","name":"Kodoonong Bushland Reserve","coordinates":[143.147,-34.8809]},{"code":"AU-5352","program":"pota","name":"Natya Bushland Reserve","coordinates":[143.224,-34.9615]},{"code":"AU-5494","program":"pota","name":"Possum Flat Bushland Reserve","coordinates":[143.183,-34.982]},{"code":"AU-5577","program":"pota","name":"Ryans Bushland Reserve","coordinates":[143.179,-34.999]},{"code":"AU-6071","program":"pota","name":"Yungera Bushland Reserve","coordinates":[143.141,-34.7826]},{"code":"AU-6877","program":"pota","name":"Piangil - Yungera Railway Bushland Reserve","coordinates":[143.14,-34.8041]}]}