{"lat":-35.75,"lon":150,"programs":["pota","sota"],"count":11,"references":[{"code":"AU-2001","program":"pota","name":"Cullendulla Creek Nature Reserve","coordinates":[150.205,-35.6961]},{"code":"AU-2038","program":"pota","name":"Clyde River National Park","coordinates":[150.15,-35.6789]},{"code":"AU-2251","program":"pota","name":"Peach Tree Creek Flora Reserve","coordinates":[150.093,-35.5552]},{"code":"AU-2286","program":"pota","name":"Currowan Creek Flora Reserve","coordinates":[150.033,-35.5422]},{"code":"AU-6924","program":"pota","name":"Boyne State Forest","coordinates":[150.217,-35.5935]},{"code":"AU-7797","program":"pota","name":"Shallow Crossing State Forest","coordinates":[150.16,-35.5239]},{"code":"AU-7891","program":"pota","name":"Benandarah State Forest","coordinates":[150.22,-35.648]},{"code":"AU-7904","program":"pota","name":"Bolaro State Forest","coordinates":[150.08,-35.6764]},{"code":"AU-7928","program":"pota","name":"Buckenbowra State Forest","coordinates":[150.032,-35.7008]},{"code":"AU-8064","program":"pota","name":"Currowan State Forest","coordinates":[150.058,-35.586]},{"code":"VK2/SC-040","program":"sota","name":"Bolaro Mountain","coordinates":[150.0388,-35.6687]}]}