{"lat":-35.25,"lon":138.5,"programs":["pota"],"count":24,"references":[{"code":"AU-0666","program":"pota","name":"The Knoll Conservation Park","coordinates":[138.699,-35.0073]},{"code":"AU-0677","program":"pota","name":"Sturt Gorge Recreation Park","coordinates":[138.576,-35.0418]},{"code":"AU-0691","program":"pota","name":"Shepherds Hill Recreation Park","coordinates":[138.587,-35.0156]},{"code":"AU-0697","program":"pota","name":"Scott Creek Conservation Park","coordinates":[138.693,-35.0864]},{"code":"AU-0743","program":"pota","name":"Onkaparinga River National Park","coordinates":[138.562,-35.158]},{"code":"AU-0804","program":"pota","name":"Mark Oliphant Conservation Park","coordinates":[138.704,-35.0344]},{"code":"AU-0805","program":"pota","name":"Marino Conservation Park","coordinates":[138.509,-35.0526]},{"code":"AU-0973","program":"pota","name":"Blackwood Forest Recreation Park","coordinates":[138.629,-35.0285]},{"code":"AU-0984","program":"pota","name":"Belair National Park","coordinates":[138.645,-35.0066]},{"code":"AU-2883","program":"pota","name":"Mount Panorama Forest Reserve","coordinates":[138.675,-35.1734]},{"code":"AU-2884","program":"pota","name":"Knott Hill Forest Reserve","coordinates":[138.686,-35.1871]},{"code":"AU-2889","program":"pota","name":"Glenthorne - Ityamaiitpinna Yarta Nature Park","coordinates":[138.538,-35.0496]},{"code":"AU-7047","program":"pota","name":"Doris Coulls Reserve","coordinates":[138.739,-35.0041]},{"code":"AU-7050","program":"pota","name":"HK Fry National Trust Reserve","coordinates":[138.699,-35.0029]},{"code":"AU-7065","program":"pota","name":"Manning Flora & Fauna Reserve","coordinates":[138.58,-35.1909]},{"code":"AU-7070","program":"pota","name":"Nurrutti Reserve","coordinates":[138.742,-35.0314]},{"code":"AU-7072","program":"pota","name":"Pimpala Conservation Reserve","coordinates":[138.541,-35.1089]},{"code":"AU-7082","program":"pota","name":"Watiparinga Reserve","coordinates":[138.599,-35.0148]},{"code":"AU-7085","program":"pota","name":"Woorabinda Bushland Reserve","coordinates":[138.713,-35.0151]},{"code":"AU-8766","program":"pota","name":"Somerton State Beach","coordinates":[138.511,-35.0031]},{"code":"AU-8768","program":"pota","name":"Brighton State Beach","coordinates":[138.515,-35.0192]},{"code":"AU-8773","program":"pota","name":"Seacliff State Beach","coordinates":[138.516,-35.0363]},{"code":"AU-10609","program":"pota","name":"Kauwi-Marnirla Field River Conservation Park","coordinates":[138.505,-35.092]},{"code":"AU-10837","program":"pota","name":"Kingston Park Coastal Reserve","coordinates":[138.515,-35.0393]}]}