{"lat":-35,"lon":142.5,"programs":["pota"],"count":5,"references":[{"code":"AU-2600","program":"pota","name":"Annuello Flora and Fauna Reserve","coordinates":[142.592,-34.8846]},{"code":"AU-2738","program":"pota","name":"Moss Tank Flora and Fauna Reserve","coordinates":[142.721,-34.8083]},{"code":"AU-2827","program":"pota","name":"Wemen Flora and Fauna Reserve","coordinates":[142.676,-34.7611]},{"code":"AU-3157","program":"pota","name":"Murray - Kulkyne Park","coordinates":[142.534,-34.7675]},{"code":"AU-5554","program":"pota","name":"River Murray Reserve","coordinates":[142.661,-34.7584]}]}