{"lat":-35.5,"lon":142.75,"programs":["pota"],"count":7,"references":[{"code":"AU-3966","program":"pota","name":"Balmers Tank Bushland Reserve","coordinates":[142.902,-35.4348]},{"code":"AU-4108","program":"pota","name":"Bourka I156 Bushland Reserve","coordinates":[142.789,-35.4552]},{"code":"AU-4208","program":"pota","name":"Burupga Bushland Reserve","coordinates":[142.797,-35.4795]},{"code":"AU-4965","program":"pota","name":"Lake Tyrrell Wildlife Reserve","coordinates":[142.842,-35.3629]},{"code":"AU-4966","program":"pota","name":"Lake Wahpool West Bushland Reserve","coordinates":[142.951,-35.2613]},{"code":"AU-4980","program":"pota","name":"Lang Plain Bushland Reserve","coordinates":[142.965,-35.4055]},{"code":"AU-5486","program":"pota","name":"Pooks Bushland Reserve","coordinates":[142.933,-35.2918]}]}