{"lat":-35,"lon":-58.5,"programs":["pota"],"count":5,"references":[{"code":"AR-0219","program":"pota","name":"Santa Catalina Nature Reserve","coordinates":[-58.4351,-34.7842]},{"code":"AR-0254","program":"pota","name":"Lomas de Zamora Park","coordinates":[-58.4313,-34.7678]},{"code":"AR-0267","program":"pota","name":"Parque Finky Recreation Park","coordinates":[-58.3999,-34.7857]},{"code":"AR-0268","program":"pota","name":"Parque LLAVALLOL Recreation Park","coordinates":[-58.4388,-34.797]},{"code":"AR-0307","program":"pota","name":"Laguna de San Vicente Nature Reserve","coordinates":[-58.4274,-34.9942]}]}