{"lat":-35.5,"lon":136.75,"programs":["pota"],"count":6,"references":[{"code":"AU-0682","program":"pota","name":"Southern Spencer Gulf Marine Park","coordinates":[136.984,-35.3156]},{"code":"AU-0855","program":"pota","name":"Innes National Park","coordinates":[136.859,-35.2566]},{"code":"AU-0998","program":"pota","name":"Althorpe Islands Conservation Park","coordinates":[136.86,-35.3716]},{"code":"AU-9514","program":"pota","name":"Willyama State Beach","coordinates":[136.974,-35.2504]},{"code":"AU-9515","program":"pota","name":"Jolly State Beach","coordinates":[136.966,-35.2609]},{"code":"AU-9516","program":"pota","name":"Cable Bay State Beach","coordinates":[136.9,-35.2861]}]}