{"lat":-35.5,"lon":173.25,"programs":["pota","sota"],"count":9,"references":[{"code":"NZ-0237","program":"pota","name":"Warawara Forest Conservation Park","coordinates":[173.312,-35.3832]},{"code":"NZ-0644","program":"pota","name":"Te Hura Ecological Area","coordinates":[173.294,-35.4065]},{"code":"NZ-0657","program":"pota","name":"Paponga Conservation Area","coordinates":[173.444,-35.3215]},{"code":"NZ-0659","program":"pota","name":"Warawara Forest Sanctuary","coordinates":[173.272,-35.3793]},{"code":"ZL1/NL-004","program":"sota","name":"Panguru","coordinates":[173.3611,-35.3523]},{"code":"ZL1/NL-005","program":"sota","name":"Moumoukai","coordinates":[173.3424,-35.3622]},{"code":"ZL1/NL-010","program":"sota","name":"Maungapohatu","coordinates":[173.3132,-35.3893]},{"code":"ZL1/NL-067","program":"sota","name":"Ongaru","coordinates":[173.2994,-35.3381]},{"code":"ZL1/NL-108","program":"sota","name":"Tarakeha","coordinates":[173.2989,-35.4339]}]}