{"lat":-35.25,"lon":141.5,"programs":["pota"],"count":11,"references":[{"code":"AU-2615","program":"pota","name":"Boinka Flora Reserve","coordinates":[141.6,-35.1955]},{"code":"AU-2655","program":"pota","name":"Dunstans Flora and Fauna Reserve","coordinates":[141.666,-35.1489]},{"code":"AU-4085","program":"pota","name":"Boinka Bushland Reserve","coordinates":[141.544,-35.1599]},{"code":"AU-5021","program":"pota","name":"Linga Bushland Reserve","coordinates":[141.693,-35.1692]},{"code":"AU-5022","program":"pota","name":"Linga School South Bushland Reserve","coordinates":[141.67,-35.2144]},{"code":"AU-5082","program":"pota","name":"Mamemgorook I236 Bushland Reserve","coordinates":[141.746,-35.1114]},{"code":"AU-5506","program":"pota","name":"Purnya Bushland Reserve","coordinates":[141.633,-35.1044]},{"code":"AU-5789","program":"pota","name":"Underbool I61 Bushland Reserve","coordinates":[141.712,-35.1217]},{"code":"AU-5790","program":"pota","name":"Underbool I71 Bushland Reserve","coordinates":[141.704,-35.1564]},{"code":"AU-6002","program":"pota","name":"Worooa Bushland Reserve","coordinates":[141.533,-35.2451]},{"code":"AU-8165","program":"pota","name":"Boinka State Forest","coordinates":[141.557,-35.0599]}]}