{"lat":-35,"lon":142.25,"programs":["pota"],"count":9,"references":[{"code":"AU-4204","program":"pota","name":"Burnell I35 Bushland Reserve","coordinates":[142.381,-34.971]},{"code":"AU-4205","program":"pota","name":"Burnell I36 Bushland Reserve","coordinates":[142.433,-34.9811]},{"code":"AU-4586","program":"pota","name":"Gayfield Bushland Reserve","coordinates":[142.448,-34.8044]},{"code":"AU-4855","program":"pota","name":"Kia I242 Bushland Reserve","coordinates":[142.349,-34.8949]},{"code":"AU-4856","program":"pota","name":"Kia I242A Bushland Reserve","coordinates":[142.312,-34.9318]},{"code":"AU-4857","program":"pota","name":"Kia I31 Bushland Reserve","coordinates":[142.29,-34.9165]},{"code":"AU-4858","program":"pota","name":"Kia I33 Bushland Reserve","coordinates":[142.296,-34.973]},{"code":"AU-4859","program":"pota","name":"Kiamal Bushland Reserve","coordinates":[142.311,-34.9946]},{"code":"AU-5430","program":"pota","name":"Ouyen I34 Bushland Reserve","coordinates":[142.329,-34.9991]}]}