{"lat":-35.5,"lon":138.75,"programs":["pota"],"count":6,"references":[{"code":"AU-0750","program":"pota","name":"Nurragi Conservation Reserve","coordinates":[138.924,-35.3831]},{"code":"AU-0920","program":"pota","name":"Currency Creek Game Reserve","coordinates":[138.84,-35.4844]},{"code":"AU-0964","program":"pota","name":"Bullock Hill Conservation Park","coordinates":[138.798,-35.3117]},{"code":"AU-7068","program":"pota","name":"Muntiri Reserve","coordinates":[138.916,-35.4499]},{"code":"AU-10444","program":"pota","name":"River Angas National Wild and Scenic River","coordinates":[138.996,-35.3319]},{"code":"AU-10453","program":"pota","name":"Finniss National Wild and Scenic River","coordinates":[138.888,-35.4779]}]}