{"lat":-35.25,"lon":138.25,"programs":["pota"],"count":11,"references":[{"code":"AU-0742","program":"pota","name":"Onkaparinga River Recreation Park","coordinates":[138.485,-35.1603]},{"code":"AU-0793","program":"pota","name":"Moana Sands Conservation Park","coordinates":[138.473,-35.2023]},{"code":"AU-0868","program":"pota","name":"Hallett Cove Conservation Park","coordinates":[138.499,-35.0737]},{"code":"AU-8775","program":"pota","name":"Hallett Cove State Beach","coordinates":[138.496,-35.0778]},{"code":"AU-8778","program":"pota","name":"Christies Beach State Beach","coordinates":[138.468,-35.1362]},{"code":"AU-8780","program":"pota","name":"Port Noarlunga State Beach","coordinates":[138.468,-35.1494]},{"code":"AU-8782","program":"pota","name":"Southport State Beach","coordinates":[138.469,-35.1593]},{"code":"AU-8784","program":"pota","name":"Seaford State Beach","coordinates":[138.467,-35.1829]},{"code":"AU-8787","program":"pota","name":"Moana State Beach","coordinates":[138.47,-35.1975]},{"code":"AU-8789","program":"pota","name":"Maslin State Beach","coordinates":[138.47,-35.2336]},{"code":"AU-9482","program":"pota","name":"O’Sullivan State Beach","coordinates":[138.468,-35.122]}]}