{"lat":-35.5,"lon":-72.5,"programs":["pota"],"count":6,"references":[{"code":"CL-0219","program":"pota","name":"Parque Cerro Mutrún Park","coordinates":[-72.4131,-35.3231]},{"code":"CL-0231","program":"pota","name":"Rocas de Constitución Sanctuary","coordinates":[-72.4163,-35.3191]},{"code":"CL-0240","program":"pota","name":"Humedal desembocadura Rio Maule Wetland Management District","coordinates":[-72.4077,-35.3258]},{"code":"CL-0262","program":"pota","name":"Parque de mitigación fluvial Recreation Park","coordinates":[-72.4077,-35.3256]},{"code":"CL-0303","program":"pota","name":"Cuevas de Quivolgo Archeological Reserve","coordinates":[-72.3976,-35.3166]},{"code":"CL-0410","program":"pota","name":"Humedal de Junquillar Wetland Reserve","coordinates":[-72.3805,-35.2506]}]}