{"lat":-35,"lon":138.25,"programs":["pota"],"count":11,"references":[{"code":"AU-0669","program":"pota","name":"Tennyson Dunes Conservation Reserve","coordinates":[138.483,-34.8799]},{"code":"AU-0891","program":"pota","name":"Fort Glanville Conservation Park","coordinates":[138.478,-34.8517]},{"code":"AU-8738","program":"pota","name":"Henley State Beach","coordinates":[138.493,-34.9193]},{"code":"AU-8739","program":"pota","name":"Grange State Beach","coordinates":[138.488,-34.9019]},{"code":"AU-8744","program":"pota","name":"Tennyson State Beach","coordinates":[138.482,-34.8812]},{"code":"AU-8746","program":"pota","name":"Semaphore State Beach","coordinates":[138.478,-34.8374]},{"code":"AU-8751","program":"pota","name":"Semaphore South State Beach","coordinates":[138.476,-34.8484]},{"code":"AU-8753","program":"pota","name":"Largs Bay State Beach","coordinates":[138.487,-34.8204]},{"code":"AU-8755","program":"pota","name":"North Haven State Beach","coordinates":[138.482,-34.7875]},{"code":"AU-8757","program":"pota","name":"Henley South State Beach","coordinates":[138.495,-34.9275]},{"code":"AU-10405","program":"pota","name":"Fort Largs Historic Site","coordinates":[138.492,-34.8118]}]}