{"lat":-35.75,"lon":-68.75,"programs":["sota"],"count":10,"references":[{"code":"LUM/PY-005","program":"sota","name":"Guadaloso","coordinates":[-68.6583,-35.6611]},{"code":"LUM/PY-006","program":"sota","name":"Guanaco","coordinates":[-68.6064,-35.7267]},{"code":"LUM/PY-010","program":"sota","name":"LUM/PY-010","coordinates":[-68.6017,-35.6972]},{"code":"LUM/PY-012","program":"sota","name":"Mancha Jarillas","coordinates":[-68.6964,-35.5978]},{"code":"LUM/PY-013","program":"sota","name":"De los Jagueles","coordinates":[-68.6317,-35.6139]},{"code":"LUM/PY-014","program":"sota","name":"Rincón","coordinates":[-68.7225,-35.7344]},{"code":"LUM/PY-016","program":"sota","name":"Amarillo","coordinates":[-68.7097,-35.5869]},{"code":"LUM/PY-034","program":"sota","name":"LUM/PY-034","coordinates":[-68.7322,-35.5619]},{"code":"LUM/SR-002","program":"sota","name":"Plateado","coordinates":[-68.5072,-35.6972]},{"code":"LUM/SR-004","program":"sota","name":"LUM/SR-004","coordinates":[-68.5764,-35.6631]}]}