{"lat":-35.75,"lon":143.25,"programs":["pota"],"count":6,"references":[{"code":"AU-2622","program":"pota","name":"Brimy Bill Wildlife Reserve","coordinates":[143.283,-35.6622]},{"code":"AU-2818","program":"pota","name":"Wangie Flora and Fauna Reserve","coordinates":[143.265,-35.7027]},{"code":"AU-4950","program":"pota","name":"Lake Lalbert Wildlife Reserve","coordinates":[143.333,-35.6706]},{"code":"AU-5063","program":"pota","name":"Magpie Tank Bushland Reserve","coordinates":[143.43,-35.5362]},{"code":"AU-5695","program":"pota","name":"Talgitcha Bushland Reserve","coordinates":[143.464,-35.6628]},{"code":"AU-5897","program":"pota","name":"White Gate Bushland Reserve","coordinates":[143.383,-35.585]}]}