{"lat":-35.5,"lon":150.25,"programs":["pota","sota"],"count":13,"references":[{"code":"AU-1781","program":"pota","name":"Narrawallee Creek Nature Reserve","coordinates":[150.472,-35.2915]},{"code":"AU-1838","program":"pota","name":"Meroo National Park","coordinates":[150.377,-35.4713]},{"code":"AU-2589","program":"pota","name":"Yatteyattah Nature Park","coordinates":[150.419,-35.2567]},{"code":"AU-7761","program":"pota","name":"North Brooman State Forest","coordinates":[150.281,-35.4687]},{"code":"AU-7818","program":"pota","name":"Termeil State Forest","coordinates":[150.375,-35.4418]},{"code":"AU-7865","program":"pota","name":"Woodburn State Forest","coordinates":[150.429,-35.3972]},{"code":"AU-7988","program":"pota","name":"Flat Rock State Forest","coordinates":[150.326,-35.4047]},{"code":"AU-9344","program":"pota","name":"Buckleys State Beach","coordinates":[150.474,-35.2991]},{"code":"AU-9345","program":"pota","name":"Narrawallee State Beach","coordinates":[150.472,-35.312]},{"code":"AU-9346","program":"pota","name":"Mollymook State Beach","coordinates":[150.475,-35.3322]},{"code":"VK2/SC-024","program":"sota","name":"Talaterang Mountain","coordinates":[150.271,-35.2776]},{"code":"VK2/SC-033","program":"sota","name":"Pigeon House Mountain","coordinates":[150.2651,-35.3488]},{"code":"VK2/SC-050","program":"sota","name":"Boyne","coordinates":[150.3206,-35.4522]}]}