{"lat":-36.5,"lon":146.5,"programs":["pota"],"count":25,"references":[{"code":"AU-4020","program":"pota","name":"Beechworth Bushland Reserve","coordinates":[146.694,-36.3377]},{"code":"AU-4520","program":"pota","name":"Eldorado I73 Bushland Reserve","coordinates":[146.514,-36.3147]},{"code":"AU-4545","program":"pota","name":"Everton I4 Bushland Reserve","coordinates":[146.55,-36.4045]},{"code":"AU-4546","program":"pota","name":"Everton I6 Bushland Reserve","coordinates":[146.541,-36.3723]},{"code":"AU-4547","program":"pota","name":"Everton I74 Bushland Reserve","coordinates":[146.542,-36.4041]},{"code":"AU-4548","program":"pota","name":"Everton I78 Bushland Reserve","coordinates":[146.603,-36.3832]},{"code":"AU-5301","program":"pota","name":"Murmungee I37 Bushland Reserve","coordinates":[146.672,-36.4469]},{"code":"AU-5302","program":"pota","name":"Murmungee I38 Bushland Reserve","coordinates":[146.672,-36.4646]},{"code":"AU-5303","program":"pota","name":"Murmungee I75 Bushland Reserve","coordinates":[146.582,-36.4208]},{"code":"AU-5304","program":"pota","name":"Murmungee I76 Bushland Reserve","coordinates":[146.62,-36.4057]},{"code":"AU-5305","program":"pota","name":"Murmungee I77 Bushland Reserve","coordinates":[146.589,-36.4515]},{"code":"AU-5306","program":"pota","name":"Murmungee I79 Bushland Reserve","coordinates":[146.656,-36.4875]},{"code":"AU-5307","program":"pota","name":"Murmungee I80 Bushland Reserve","coordinates":[146.673,-36.4612]},{"code":"AU-5308","program":"pota","name":"Murmungee I81 Bushland Reserve","coordinates":[146.696,-36.4158]},{"code":"AU-5309","program":"pota","name":"Murmungee Scenic Reserve","coordinates":[146.654,-36.4085]},{"code":"AU-5437","program":"pota","name":"Ovens River K16 Streamside Reserve","coordinates":[146.601,-36.4939]},{"code":"AU-5538","program":"pota","name":"Reedy Creek K17 Streamside Reserve","coordinates":[146.675,-36.3129]},{"code":"AU-5539","program":"pota","name":"Reedy Creek K18 Streamside Reserve","coordinates":[146.686,-36.3026]},{"code":"AU-5644","program":"pota","name":"Stanley I21 Bushland Reserve","coordinates":[146.742,-36.3755]},{"code":"AU-5722","program":"pota","name":"Tarrawingee I8 Bushland Reserve","coordinates":[146.51,-36.3343]},{"code":"AU-5723","program":"pota","name":"Tarrawingee I9 Bushland Reserve","coordinates":[146.511,-36.323]},{"code":"AU-5906","program":"pota","name":"Whorouly Streamside Reserve","coordinates":[146.599,-36.4873]},{"code":"AU-10977","program":"pota","name":"Beechworth Administrative Precinct National Heritage Area","coordinates":[146.689,-36.3592]},{"code":"AU-11056","program":"pota","name":"Beechworth Powder Magazine Historic Reserve","coordinates":[146.679,-36.3552]},{"code":"AU-11082","program":"pota","name":"Cunningham Gully Historic Reserve","coordinates":[146.703,-36.4406]}]}