{"lat":-36.25,"lon":146.75,"programs":["pota","sota"],"count":22,"references":[{"code":"AU-10567","program":"pota","name":"Monument Hill Parklands Historic Site","coordinates":[146.902,-36.0791]},{"code":"AU-10568","program":"pota","name":"Nail Can Hill Flora and Fauna Reserve","coordinates":[146.902,-36.0647]},{"code":"AU-0199","program":"pota","name":"Wodonga Regional Park","coordinates":[146.909,-36.1057]},{"code":"AU-0263","program":"pota","name":"Ryans Lagoon Nature Conservation Reserve","coordinates":[146.97,-36.1091]},{"code":"AU-0421","program":"pota","name":"Fell Timber Creek Nature Conservation Reserve","coordinates":[146.82,-36.1244]},{"code":"AU-0503","program":"pota","name":"Baranduda Regional Park","coordinates":[146.887,-36.2421]},{"code":"AU-3985","program":"pota","name":"Baranduda Bushland Reserve","coordinates":[146.978,-36.2167]},{"code":"AU-3996","program":"pota","name":"Barnawartha South I16 Bushland Reserve","coordinates":[146.762,-36.1266]},{"code":"AU-4091","program":"pota","name":"Bonegilla Nature Conservation Reserve","coordinates":[146.965,-36.1353]},{"code":"AU-4353","program":"pota","name":"Cookinburra Nature Conservation Reserve","coordinates":[146.766,-36.1385]},{"code":"AU-4778","program":"pota","name":"Indigo Creek Streamside Reserve","coordinates":[146.75,-36.183]},{"code":"AU-5938","program":"pota","name":"Wodonga Bushland Reserve","coordinates":[146.9,-36.1487]},{"code":"AU-5992","program":"pota","name":"Woorragee North I18 Bushland Reserve","coordinates":[146.791,-36.2108]},{"code":"AU-5993","program":"pota","name":"Woorragee North I92 Bushland Reserve","coordinates":[146.782,-36.1792]},{"code":"AU-7527","program":"pota","name":"High Country Rail State Trail","coordinates":[146.982,-36.1405]},{"code":"AU-8634","program":"pota","name":"Bonegilla Wetland Bushland Reserve","coordinates":[146.982,-36.1235]},{"code":"VK2/RI-033","program":"sota","name":"Hamilton Hill","coordinates":[146.8832,-36.0101]},{"code":"VK2/RI-035","program":"sota","name":"One Tree Hill","coordinates":[146.9616,-36.02]},{"code":"VK3/VE-234","program":"sota","name":"Mcdonald Hill","coordinates":[146.7914,-36.11419]},{"code":"VK3/VE-237","program":"sota","name":"Huon Hill","coordinates":[146.92998,-36.13298]},{"code":"VK3/VE-243","program":"sota","name":"Bears Hill","coordinates":[146.9074,-36.15546]},{"code":"VK3/VE-281","program":"sota","name":"VK3/VE-281","coordinates":[146.8157,-36.2218]}]}