{"lat":-36.5,"lon":142.5,"programs":["pota"],"count":10,"references":[{"code":"AU-3976","program":"pota","name":"Bangerang I101 Bushland Reserve","coordinates":[142.544,-36.2526]},{"code":"AU-4503","program":"pota","name":"Dunmunkle Bushland Reserve","coordinates":[142.712,-36.3732]},{"code":"AU-4844","program":"pota","name":"Kellalac Bushland Reserve","coordinates":[142.525,-36.3018]},{"code":"AU-5158","program":"pota","name":"Minyip Bushland Reserve","coordinates":[142.603,-36.4521]},{"code":"AU-5394","program":"pota","name":"Nullan I104 Bushland Reserve","coordinates":[142.561,-36.2982]},{"code":"AU-5395","program":"pota","name":"Nullan I105 Bushland Reserve","coordinates":[142.576,-36.3384]},{"code":"AU-5396","program":"pota","name":"Nullan I106 Bushland Reserve","coordinates":[142.534,-36.3818]},{"code":"AU-5397","program":"pota","name":"Nullan I107 Bushland Reserve","coordinates":[142.548,-36.3708]},{"code":"AU-5398","program":"pota","name":"Nullan I108 Bushland Reserve","coordinates":[142.622,-36.3541]},{"code":"AU-5399","program":"pota","name":"Nullan I109 Bushland Reserve","coordinates":[142.542,-36.482]}]}