{"lat":-36.75,"lon":144.5,"programs":["pota","sota"],"count":16,"references":[{"code":"AU-0265","program":"pota","name":"Runnymede Nature Conservation Reserve","coordinates":[144.731,-36.5837]},{"code":"AU-3994","program":"pota","name":"Barnadown Streamside Reserve","coordinates":[144.541,-36.649]},{"code":"AU-4217","program":"pota","name":"Campaspe River K39 Streamside Reserve","coordinates":[144.518,-36.7233]},{"code":"AU-4218","program":"pota","name":"Campaspe River K40 Streamside Reserve","coordinates":[144.524,-36.6903]},{"code":"AU-4219","program":"pota","name":"Campaspe River K41 Streamside Reserve","coordinates":[144.525,-36.6679]},{"code":"AU-4220","program":"pota","name":"Campaspe River, Axedale Streamside Reserve","coordinates":[144.515,-36.7487]},{"code":"AU-4533","program":"pota","name":"English Bridge Streamside Reserve","coordinates":[144.561,-36.6267]},{"code":"AU-4658","program":"pota","name":"Goornong H102 Bushland Reserve","coordinates":[144.516,-36.6152]},{"code":"AU-4659","program":"pota","name":"Goornong H102A Bushland Reserve","coordinates":[144.513,-36.621]},{"code":"AU-4660","program":"pota","name":"Goornong H102B Bushland Reserve","coordinates":[144.518,-36.6207]},{"code":"AU-5465","program":"pota","name":"Picaninny Creek Streamside Reserve","coordinates":[144.542,-36.5169]},{"code":"AU-5570","program":"pota","name":"Runnymede Bushland Reserve","coordinates":[144.625,-36.5317]},{"code":"AU-5571","program":"pota","name":"Runnymede Streamside Reserve","coordinates":[144.625,-36.5227]},{"code":"AU-5746","program":"pota","name":"Toolleen Bushland Reserve","coordinates":[144.689,-36.7391]},{"code":"AU-11090","program":"pota","name":"Goornong Historic Police Station Reserve","coordinates":[144.511,-36.6149]},{"code":"VK3/VU-014","program":"sota","name":"Mt Camel","coordinates":[144.72275,-36.74912]}]}