{"lat":-36.25,"lon":144.5,"programs":["pota"],"count":10,"references":[{"code":"AU-0471","program":"pota","name":"Cantwell Nature Conservation Reserve","coordinates":[144.643,-36.2203]},{"code":"AU-3957","program":"pota","name":"Baillieu Lagoon Wildlife Reserve","coordinates":[144.57,-36.0284]},{"code":"AU-5026","program":"pota","name":"Little Kotta Nature Conservation Reserve","coordinates":[144.515,-36.1702]},{"code":"AU-5310","program":"pota","name":"Murphy Swamp Wildlife Reserve","coordinates":[144.567,-36.0685]},{"code":"AU-5778","program":"pota","name":"Turrumberry North Bushland Reserve","coordinates":[144.579,-36.0598]},{"code":"AU-5894","program":"pota","name":"Wharparilla Bushland Reserve","coordinates":[144.637,-36.0867]},{"code":"AU-8641","program":"pota","name":"Echuca West Bushland Reserve","coordinates":[144.676,-36.1428]},{"code":"AU-8662","program":"pota","name":"Piper Bushland Reserve","coordinates":[144.661,-36.2033]},{"code":"AU-8663","program":"pota","name":"Pipit Nature Conservation Reserve","coordinates":[144.547,-36.1243]},{"code":"AU-8863","program":"pota","name":"McIntyre Rd Grassland Bushland Reserve","coordinates":[144.521,-36.0615]}]}