{"lat":-36.75,"lon":146,"programs":["pota","sota"],"count":11,"references":[{"code":"AU-4522","program":"pota","name":"Eleven Mile Creek Bushland Reserve","coordinates":[146.152,-36.5038]},{"code":"AU-4843","program":"pota","name":"Kelfeera Bushland Reserve","coordinates":[146.106,-36.6015]},{"code":"AU-5051","program":"pota","name":"Lurg H129 Bushland Reserve","coordinates":[146.114,-36.5749]},{"code":"AU-5052","program":"pota","name":"Lurg I67 Bushland Reserve","coordinates":[146.076,-36.5657]},{"code":"AU-5053","program":"pota","name":"Lurg I68 Bushland Reserve","coordinates":[146.148,-36.5614]},{"code":"AU-5196","program":"pota","name":"Mollyullah Bushland Reserve","coordinates":[146.151,-36.6406]},{"code":"AU-5582","program":"pota","name":"Samaria Bushland Reserve","coordinates":[146.026,-36.6887]},{"code":"AU-5724","program":"pota","name":"Tatong Bushland Reserve","coordinates":[146.101,-36.7354]},{"code":"AU-5929","program":"pota","name":"Winton Bushland Reserve","coordinates":[146.096,-36.506]},{"code":"VK3/VE-270","program":"sota","name":"VK3/VE-270","coordinates":[146.1383,-36.7227]},{"code":"VK3/VE-274","program":"sota","name":"VK3/VE-274","coordinates":[146.1727,-36.5521]}]}