{"lat":-36.25,"lon":149.5,"programs":["pota","sota"],"count":6,"references":[{"code":"AU-2498","program":"pota","name":"Badja Swamps Nature Park","coordinates":[149.542,-36.0313]},{"code":"AU-3185","program":"pota","name":"Dampier Flora Reserve","coordinates":[149.714,-36.109]},{"code":"AU-7750","program":"pota","name":"Badja State Forest","coordinates":[149.5,-36.1719]},{"code":"VK2/SC-004","program":"sota","name":"Jillicambra Mountain","coordinates":[149.6028,-36.1599]},{"code":"VK2/SC-021","program":"sota","name":"Belowra Mountain","coordinates":[149.6778,-36.2267]},{"code":"VK2/SM-059","program":"sota","name":"Big Badja Hill","coordinates":[149.5658,-36.0052]}]}