{"lat":-36,"lon":137.5,"programs":["pota"],"count":7,"references":[{"code":"AU-0981","program":"pota","name":"Beyeria Conservation Park","coordinates":[137.596,-35.7886]},{"code":"AU-9717","program":"pota","name":"Pennington Bay State Beach","coordinates":[137.743,-35.8526]},{"code":"AU-9718","program":"pota","name":"Flour Cask Bay State Beach","coordinates":[137.692,-35.878]},{"code":"AU-9719","program":"pota","name":"D’Estrees Bay State Beach","coordinates":[137.603,-35.9256]},{"code":"AU-9720","program":"pota","name":"Osmanli State Beach","coordinates":[137.618,-35.9764]},{"code":"AU-9721","program":"pota","name":"Wreckers State Beach","coordinates":[137.615,-35.9845]},{"code":"AU-9722","program":"pota","name":"Wheaton’s State Beach","coordinates":[137.608,-35.9966]}]}