{"lat":-36.5,"lon":174.25,"programs":["pota","sota"],"count":6,"references":[{"code":"NZ-0002","program":"pota","name":"Atiu Regional Park","coordinates":[174.381,-36.3353]},{"code":"NZ-0024","program":"pota","name":"Te Rau Puriri Regional Park","coordinates":[174.262,-36.4877]},{"code":"NZ-0624","program":"pota","name":"Atuanui Forest Recreation Site","coordinates":[174.46,-36.4468]},{"code":"ZL1/AK-013","program":"sota","name":"Atuanui / Mount Auckland","coordinates":[174.4556,-36.4452]},{"code":"ZL1/AK-017","program":"sota","name":"Kikitangeo","coordinates":[174.4953,-36.3419]},{"code":"ZL1/NL-111","program":"sota","name":"Hargreaves Run","coordinates":[174.3008,-36.2647]}]}