{"lat":-36.25,"lon":149.25,"programs":["pota","sota"],"count":7,"references":[{"code":"AU-1859","program":"pota","name":"Macanally State Conservation Area","coordinates":[149.315,-36.0889]},{"code":"AU-2016","program":"pota","name":"Coornartha Nature Reserve","coordinates":[149.264,-36.1756]},{"code":"AU-2331","program":"pota","name":"Numeralla Nature Park","coordinates":[149.329,-36.2172]},{"code":"AU-2374","program":"pota","name":"Kybeyan Nature Park","coordinates":[149.402,-36.234]},{"code":"AU-2402","program":"pota","name":"Good Good Nature Park","coordinates":[149.446,-36.0795]},{"code":"AU-2525","program":"pota","name":"Undoo Nature Park","coordinates":[149.355,-36.1758]},{"code":"VK2/SM-067","program":"sota","name":"Numeralla Mountain","coordinates":[149.4024,-36.1969]}]}