{"lat":-36.25,"lon":148,"programs":["sota"],"count":8,"references":[{"code":"VK2/SM-025","program":"sota","name":"The Dargals","coordinates":[148.2219,-36.1033]},{"code":"VK2/SM-030","program":"sota","name":"Inkbottle Hill","coordinates":[148.2481,-36.1392]},{"code":"VK2/SM-076","program":"sota","name":"VK2/SM-076","coordinates":[148.1683,-36.1897]},{"code":"VK2/SM-095","program":"sota","name":"VK2/SM-095","coordinates":[148.1102,-36.0703]},{"code":"VK2/SW-031","program":"sota","name":"Roaring May Mountain","coordinates":[148.1678,-36.04]},{"code":"VK2/SW-059","program":"sota","name":"Mother Wilsons Hill","coordinates":[148.0547,-36.1145]},{"code":"VK2/SW-060","program":"sota","name":"Lighthouse Mountain","coordinates":[148.0459,-36.0835]},{"code":"VK2/SW-069","program":"sota","name":"Point 559 Greg Greg","coordinates":[148.078,-36.0585]}]}