{"lat":-36.5,"lon":142.75,"programs":["pota"],"count":9,"references":[{"code":"AU-4256","program":"pota","name":"Carron I124 Bushland Reserve","coordinates":[142.829,-36.2505]},{"code":"AU-4257","program":"pota","name":"Carron I125 Bushland Reserve","coordinates":[142.817,-36.339]},{"code":"AU-4912","program":"pota","name":"Laen Bushland Reserve","coordinates":[142.798,-36.454]},{"code":"AU-4913","program":"pota","name":"Laen I130 Bushland Reserve","coordinates":[142.791,-36.4357]},{"code":"AU-4914","program":"pota","name":"Laen I131 Bushland Reserve","coordinates":[142.861,-36.4509]},{"code":"AU-4915","program":"pota","name":"Laen North Bushland Reserve","coordinates":[142.821,-36.3826]},{"code":"AU-5505","program":"pota","name":"Purcells Tank Bushland Reserve","coordinates":[142.916,-36.3919]},{"code":"AU-5935","program":"pota","name":"Witchipool I126 Bushland Reserve","coordinates":[142.857,-36.3122]},{"code":"AU-5936","program":"pota","name":"Witchipool I127 Bushland Reserve","coordinates":[142.887,-36.3198]}]}