{"lat":-36.25,"lon":147.75,"programs":["pota","sota"],"count":19,"references":[{"code":"AU-0312","program":"pota","name":"Mount Mitta Mitta (Mittamatite) Regional Park","coordinates":[147.902,-36.1219]},{"code":"AU-2638","program":"pota","name":"Clarke Lagoon Wildlife Reserve","coordinates":[147.912,-36.0241]},{"code":"AU-2686","program":"pota","name":"Jeremal Wildlife Reserve","coordinates":[147.921,-36.0308]},{"code":"AU-2744","program":"pota","name":"Mount Mitta Mitta Flora Reserve","coordinates":[147.867,-36.1498]},{"code":"AU-2801","program":"pota","name":"Tintaldra Wildlife Reserve","coordinates":[147.952,-36.045]},{"code":"AU-4326","program":"pota","name":"Colac Colac Bushland Reserve","coordinates":[147.855,-36.2136]},{"code":"AU-4376","program":"pota","name":"Corryong Creek K33 Streamside Reserve","coordinates":[147.834,-36.2149]},{"code":"AU-4377","program":"pota","name":"Corryong Creek K34 Streamside Reserve","coordinates":[147.905,-36.1612]},{"code":"AU-4378","program":"pota","name":"Corryong Creek K35 Streamside Reserve","coordinates":[147.98,-36.0922]},{"code":"AU-5666","program":"pota","name":"Stony Creek Streamside Reserve","coordinates":[147.816,-36.0963]},{"code":"AU-6905","program":"pota","name":"Towong Bushland Reserve","coordinates":[147.98,-36.1633]},{"code":"VK3/VE-128","program":"sota","name":"Pine Mountain","coordinates":[147.82457,-36.01837]},{"code":"VK3/VE-138","program":"sota","name":"Mt Mitta Mitta","coordinates":[147.86261,-36.14882]},{"code":"VK3/VE-151","program":"sota","name":"Mt Elliot","coordinates":[147.97755,-36.1849]},{"code":"VK3/VE-187","program":"sota","name":"Wermantong Hill","coordinates":[147.87688,-36.03152]},{"code":"VK3/VE-201","program":"sota","name":"VK3/VE-201","coordinates":[147.77336,-36.00248]},{"code":"VK3/VE-213","program":"sota","name":"VK3/VE-213","coordinates":[147.80283,-36.06269]},{"code":"VK3/VE-268","program":"sota","name":"VK3/VE-268","coordinates":[147.751,-36.1779]},{"code":"VK3/VE-272","program":"sota","name":"VK3/VE-272","coordinates":[147.809,-36.182]}]}