{"lat":-36,"lon":147,"programs":["pota","sota"],"count":8,"references":[{"code":"AU-1715","program":"pota","name":"Tabletop Nature Reserve","coordinates":[147.062,-35.8657]},{"code":"AU-1807","program":"pota","name":"Mullengandra State Conservation Area","coordinates":[147.231,-35.9263]},{"code":"AU-2122","program":"pota","name":"Benambra National Park","coordinates":[147.099,-35.7804]},{"code":"AU-2344","program":"pota","name":"Mullengandra Nature Park","coordinates":[147.215,-35.9407]},{"code":"VK2/RI-017","program":"sota","name":"Table Top Mountain","coordinates":[147.0665,-35.8648]},{"code":"VK2/RI-018","program":"sota","name":"Great Yambla Ridge","coordinates":[147.0784,-35.7892]},{"code":"VK2/RI-024","program":"sota","name":"VK2/RI-024","coordinates":[147.2402,-35.999]},{"code":"VK2/RI-027","program":"sota","name":"East Hills","coordinates":[147.124,-35.8789]}]}