{"lat":-36.75,"lon":146.25,"programs":["gma","pota","sota"],"count":9,"references":[{"code":"XVK3/VE-231","program":"gma","name":"Carboor Range","coordinates":[146.48899841,-36.60160065]},{"code":"AU-5328","program":"pota","name":"Myrrhee H2 Bushland Reserve","coordinates":[146.349,-36.723]},{"code":"AU-5329","program":"pota","name":"Myrrhee H3 Bushland Reserve","coordinates":[146.297,-36.6314]},{"code":"AU-5904","program":"pota","name":"Whitfield H1 Bushland Reserve","coordinates":[146.312,-36.7359]},{"code":"AU-8195","program":"pota","name":"Carboor State Forest","coordinates":[146.491,-36.6772]},{"code":"AU-8562","program":"pota","name":"Carboor Upper Education Area State Forest","coordinates":[146.49,-36.6771]},{"code":"VK3/VE-217","program":"sota","name":"Mt Bellevue","coordinates":[146.31262,-36.69988]},{"code":"VK3/VE-225","program":"sota","name":"VK3/VE-225","coordinates":[146.46074,-36.65016]},{"code":"VK3/VE-273","program":"sota","name":"Carboor Range","coordinates":[146.4851,-36.5875]}]}