{"lat":-36.75,"lon":141.5,"programs":["pota"],"count":12,"references":[{"code":"AU-2761","program":"pota","name":"Nurcoung Flora Reserve","coordinates":[141.714,-36.6899]},{"code":"AU-4151","program":"pota","name":"Brooks Swamp Wildlife Reserve","coordinates":[141.5,-36.6692]},{"code":"AU-4664","program":"pota","name":"Goroke I10 Bushland Reserve","coordinates":[141.54,-36.7217]},{"code":"AU-4711","program":"pota","name":"Gymbowen Bushland Reserve","coordinates":[141.677,-36.7336]},{"code":"AU-4712","program":"pota","name":"Gymbowen Swamp Bushland Reserve","coordinates":[141.601,-36.7328]},{"code":"AU-4883","program":"pota","name":"Koonik Bushland Reserve","coordinates":[141.616,-36.6456]},{"code":"AU-4884","program":"pota","name":"Koonik Koonik Wildlife Reserve","coordinates":[141.518,-36.6791]},{"code":"AU-5112","program":"pota","name":"McClure Bushland Reserve","coordinates":[141.735,-36.7288]},{"code":"AU-5405","program":"pota","name":"Nurcoung Bushland Reserve","coordinates":[141.671,-36.6401]},{"code":"AU-5406","program":"pota","name":"Nurcoung Swamp Wildlife Reserve","coordinates":[141.679,-36.7236]},{"code":"AU-5415","program":"pota","name":"Okely Swamp Wildlife Reserve","coordinates":[141.593,-36.7449]},{"code":"AU-5528","program":"pota","name":"Red Gum Swamp, Goroke Wildlife Reserve","coordinates":[141.527,-36.7148]}]}