{"lat":-36.25,"lon":175.25,"programs":["pota","sota"],"count":13,"references":[{"code":"NZ-0006","program":"pota","name":"Glenfern Sanctuary Regional Park","coordinates":[175.358,-36.1632]},{"code":"NZ-0073","program":"pota","name":"Aotea Conservation Park","coordinates":[175.402,-36.1706]},{"code":"NZ-0298","program":"pota","name":"Hirakimata/Kaitoke Swamp Ecological Area","coordinates":[175.427,-36.2018]},{"code":"NZ-0622","program":"pota","name":"Harataonga Recreation Site","coordinates":[175.478,-36.1717]},{"code":"NZ-0626","program":"pota","name":"Kaikoura Island Scenic Reserve","coordinates":[175.325,-36.1765]},{"code":"ZL1/AK-002","program":"sota","name":"Mount Hobson","coordinates":[175.4128,-36.1862]},{"code":"ZL1/AK-003","program":"sota","name":"Tataweka","coordinates":[175.3783,-36.071]},{"code":"ZL1/AK-007","program":"sota","name":"Te Ahumata","coordinates":[175.4265,-36.2412]},{"code":"ZL1/AK-012","program":"sota","name":"Whangaparapara","coordinates":[175.3772,-36.2341]},{"code":"ZL1/AK-021","program":"sota","name":"Rakitu Island (South)","coordinates":[175.4919,-36.1324]},{"code":"ZL1/AK-024","program":"sota","name":"Mitre Peak","coordinates":[175.3258,-36.18]},{"code":"ZL1/AK-029","program":"sota","name":"ZL1/AK-029","coordinates":[175.3273,-36.2124]},{"code":"ZL1/AK-030","program":"sota","name":"Aiguilles Island","coordinates":[175.4116,-36.0313]}]}