{"lat":-36.75,"lon":145,"programs":["pota"],"count":26,"references":[{"code":"AU-0206","program":"pota","name":"Whroo Nature Conservation Reserve","coordinates":[145.027,-36.67]},{"code":"AU-0299","program":"pota","name":"Murchison - Rushworth rail line Nature Conservation Reserve","coordinates":[145.115,-36.5964]},{"code":"AU-4414","program":"pota","name":"Dargalong Streamside Reserve","coordinates":[145.223,-36.6863]},{"code":"AU-4461","program":"pota","name":"Doctors Swamp Wildlife Reserve","coordinates":[145.178,-36.6172]},{"code":"AU-4670","program":"pota","name":"Goulburn River K49 Streamside Reserve","coordinates":[145.232,-36.6217]},{"code":"AU-5296","program":"pota","name":"Murchison Bushland Reserve","coordinates":[145.189,-36.6394]},{"code":"AU-5297","program":"pota","name":"Murchison H117 Bushland Reserve","coordinates":[145.18,-36.5893]},{"code":"AU-5298","program":"pota","name":"Murchison Lagoon Wildlife Reserve","coordinates":[145.223,-36.6098]},{"code":"AU-5299","program":"pota","name":"Murchison North Scenic Reserve","coordinates":[145.167,-36.5392]},{"code":"AU-5540","program":"pota","name":"Reedy Lake, Nagambie Wildlife Reserve","coordinates":[145.103,-36.7175]},{"code":"AU-5575","program":"pota","name":"Rushworth Bushland Reserve","coordinates":[145.018,-36.5792]},{"code":"AU-5808","program":"pota","name":"Wahring Streamside Reserve","coordinates":[145.181,-36.7053]},{"code":"AU-5840","program":"pota","name":"Waranga H115 Bushland Reserve","coordinates":[145.089,-36.6054]},{"code":"AU-5841","program":"pota","name":"Waranga H116 Bushland Reserve","coordinates":[145.122,-36.6162]},{"code":"AU-5842","program":"pota","name":"Waranga I173 Bushland Reserve","coordinates":[145.033,-36.5362]},{"code":"AU-5843","program":"pota","name":"Waranga I174 Bushland Reserve","coordinates":[145.048,-36.5356]},{"code":"AU-5844","program":"pota","name":"Waranga I175 Bushland Reserve","coordinates":[145.077,-36.5227]},{"code":"AU-7651","program":"pota","name":"Waranga (Murchison - Rushworth) Rail State Trail","coordinates":[145.122,-36.5964]},{"code":"AU-8372","program":"pota","name":"Rushworth State Forest","coordinates":[145.1,-36.6553]},{"code":"AU-11053","program":"pota","name":"Bailieston Historic Reserve","coordinates":[145.055,-36.7494]},{"code":"AU-11054","program":"pota","name":"Bailieston Historic  & Cultural Features Reserve","coordinates":[145.033,-36.7259]},{"code":"AU-11083","program":"pota","name":"Days Mill Historic Reserve","coordinates":[145.205,-36.6771]},{"code":"AU-11086","program":"pota","name":"Echuca & Waranga Trust Irrigation Pump & Channel Historic Reserve","coordinates":[145.214,-36.645]},{"code":"AU-11134","program":"pota","name":"Murchison Police Paddocks Historic Reserve","coordinates":[145.224,-36.6184]},{"code":"AU-11135","program":"pota","name":"Murchison Waterworks Trust Historic Reserve","coordinates":[145.214,-36.6432]},{"code":"AU-11181","program":"pota","name":"Whroo Historic Reserve","coordinates":[145.031,-36.6461]}]}