{"lat":-36.75,"lon":144.75,"programs":["pota"],"count":9,"references":[{"code":"AU-0288","program":"pota","name":"One Tree Swamp and Two Tree Swamp Nature Conservation Reserve","coordinates":[144.896,-36.5383]},{"code":"AU-0410","program":"pota","name":"Gobarup Nature Conservation Reserve","coordinates":[144.888,-36.7061]},{"code":"AU-4642","program":"pota","name":"Gobarup H108 Bushland Reserve","coordinates":[144.819,-36.7002]},{"code":"AU-4643","program":"pota","name":"Gobarup H109 Bushland Reserve","coordinates":[144.826,-36.6982]},{"code":"AU-4644","program":"pota","name":"Gobarup H110 Bushland Reserve","coordinates":[144.837,-36.6937]},{"code":"AU-5829","program":"pota","name":"Wanalta Bushland Reserve","coordinates":[144.923,-36.6149]},{"code":"AU-7646","program":"pota","name":"Girgarre Stanhope Rail State Trail","coordinates":[144.985,-36.5099]},{"code":"AU-8365","program":"pota","name":"Redcastle - Greytown State Forest","coordinates":[144.978,-36.6751]},{"code":"AU-8642","program":"pota","name":"Gaynor Swamp Wildlife Reserve","coordinates":[144.828,-36.5265]}]}