{"lat":-36.25,"lon":146,"programs":["pota"],"count":8,"references":[{"code":"AU-4133","program":"pota","name":"Brimin Bushland Reserve","coordinates":[146.237,-36.0556]},{"code":"AU-4474","program":"pota","name":"Dowdle Swamp Wildlife Reserve","coordinates":[146.039,-36.1056]},{"code":"AU-4863","program":"pota","name":"Killawarra H106 Bushland Reserve","coordinates":[146.235,-36.2459]},{"code":"AU-5045","program":"pota","name":"Lower Ovens Wildlife Reserve","coordinates":[146.191,-36.0515]},{"code":"AU-5453","program":"pota","name":"Peechelba H104 Bushland Reserve","coordinates":[146.163,-36.2483]},{"code":"AU-5454","program":"pota","name":"Peechelba H105 Bushland Reserve","coordinates":[146.214,-36.1726]},{"code":"AU-5907","program":"pota","name":"Wilby Bushland Reserve","coordinates":[146.012,-36.16]},{"code":"AU-7676","program":"pota","name":"Ovens River Heritage River Reserve","coordinates":[146.219,-36.1054]}]}