{"lat":-36.25,"lon":147.5,"programs":["pota","sota"],"count":19,"references":[{"code":"AU-0476","program":"pota","name":"Burrowa-Pine Mountain National Park","coordinates":[147.745,-36.0855]},{"code":"AU-2766","program":"pota","name":"Pheasant Creek Flora Reserve","coordinates":[147.604,-36.1242]},{"code":"AU-4027","program":"pota","name":"Beetoomba Creek Streamside Reserve","coordinates":[147.636,-36.1716]},{"code":"AU-4048","program":"pota","name":"Berringama Bushland Reserve","coordinates":[147.5,-36.1824]},{"code":"AU-8338","program":"pota","name":"Mountain Creek Education Area State Forest","coordinates":[147.566,-36.1645]},{"code":"AU-8602","program":"pota","name":"Mount Burrowa Area Remote & Natural Area","coordinates":[147.713,-36.0778]},{"code":"AU-11057","program":"pota","name":"Beetoomba Trestle Bridge Historic Reserve","coordinates":[147.643,-36.2384]},{"code":"AU-11081","program":"pota","name":"Cudgewa Creek Historic Railway Bridge Reserve","coordinates":[147.672,-36.2182]},{"code":"AU-11172","program":"pota","name":"Trestle Bridge, Cudgewa Ck Historic Reserve","coordinates":[147.673,-36.2178]},{"code":"VK3/VE-072","program":"sota","name":"Mt Burrowa","coordinates":[147.68536,-36.09047]},{"code":"VK3/VE-093","program":"sota","name":"Black Mountain","coordinates":[147.71567,-36.12545]},{"code":"VK3/VE-183","program":"sota","name":"VK3/VE-183","coordinates":[147.6249,-36.02949]},{"code":"VK3/VE-200","program":"sota","name":"VK3/VE-200","coordinates":[147.67242,-36.00579]},{"code":"VK3/VE-202","program":"sota","name":"Mt Alfred Range","coordinates":[147.58925,-36.01254]},{"code":"VK3/VE-212","program":"sota","name":"VK3/VE-212","coordinates":[147.71544,-36.22192]},{"code":"VK3/VE-253","program":"sota","name":"VK3/VE-253","coordinates":[147.7097,-36.0361]},{"code":"VK3/VE-259","program":"sota","name":"Ben Lomond","coordinates":[147.6486,-36.1261]},{"code":"VK3/VE-260","program":"sota","name":"VK3/VE-260","coordinates":[147.5783,-36.1183]},{"code":"VK3/VE-262","program":"sota","name":"VK3/VE-262","coordinates":[147.5066,-36.1013]}]}