{"lat":-36.25,"lon":147,"programs":["gma","pota","sota"],"count":18,"references":[{"code":"XVK3/VE-208","program":"gma","name":"Jarvis Creek Plataeu","coordinates":[147.21560669,-36.13909912]},{"code":"AU-0378","program":"pota","name":"Jarvis Creek Plateau Regional Park","coordinates":[147.2,-36.1469]},{"code":"AU-2831","program":"pota","name":"Wises Creek Flora Reserve","coordinates":[147.216,-36.0546]},{"code":"AU-4024","program":"pota","name":"Beethang I100 Bushland Reserve","coordinates":[147.034,-36.2172]},{"code":"AU-4025","program":"pota","name":"Beethang I28 Bushland Reserve","coordinates":[147.017,-36.1972]},{"code":"AU-4026","program":"pota","name":"Beethang I29 Bushland Reserve","coordinates":[147.163,-36.2258]},{"code":"AU-11060","program":"pota","name":"Bethanga Historic Area Reserve","coordinates":[147.098,-36.1023]},{"code":"AU-11061","program":"pota","name":"Bethanga Historic Reserve","coordinates":[147.086,-36.1155]},{"code":"AU-11063","program":"pota","name":"Bonegilla Historic & Cultural Features Reserve","coordinates":[147.013,-36.129]},{"code":"VK2/RI-021","program":"sota","name":"VK2/RI-021","coordinates":[147.2172,-36.0143]},{"code":"VK3/VE-169","program":"sota","name":"VK3/VE-169","coordinates":[147.24998,-36.10659]},{"code":"VK3/VE-215","program":"sota","name":"Mt Talgarno","coordinates":[147.09663,-36.08337]},{"code":"VK3/VE-227","program":"sota","name":"Hill 030","coordinates":[147.03448,-36.21594]},{"code":"VK3/VE-228","program":"sota","name":"VK3/VE-228","coordinates":[147.11353,-36.24203]},{"code":"VK3/VE-232","program":"sota","name":"VK3/VE-232","coordinates":[147.0956,-36.14288]},{"code":"VK3/VE-233","program":"sota","name":"Maher Hill","coordinates":[147.02208,-36.17181]},{"code":"VK3/VE-235","program":"sota","name":"VK3/VE-235","coordinates":[147.0612,-36.24027]},{"code":"VK3/VE-265","program":"sota","name":"Jarvis Creek Plateau","coordinates":[147.2234,-36.1463]}]}