{"lat":-36.75,"lon":143,"programs":["pota"],"count":8,"references":[{"code":"AU-0249","program":"pota","name":"Stoney Creek Nature Conservation Reserve","coordinates":[143.238,-36.7023]},{"code":"AU-0250","program":"pota","name":"St Arnaud Regional Park","coordinates":[143.234,-36.619]},{"code":"AU-0324","program":"pota","name":"Mount Bolangum Nature Conservation Reserve","coordinates":[143.015,-36.7404]},{"code":"AU-0493","program":"pota","name":"Big Tottington Nature Conservation Reserve","coordinates":[143.085,-36.7483]},{"code":"AU-4415","program":"pota","name":"Darkbonee I50 Bushland Reserve","coordinates":[143.188,-36.5952]},{"code":"AU-4684","program":"pota","name":"Gre Gre Bushland Reserve","coordinates":[143.032,-36.5844]},{"code":"AU-5683","program":"pota","name":"Swanwater Bushland Reserve","coordinates":[143.155,-36.5006]},{"code":"AU-5753","program":"pota","name":"Tottington Bushland Reserve","coordinates":[143.15,-36.7252]}]}