{"lat":-36.5,"lon":141.25,"programs":["pota"],"count":13,"references":[{"code":"AU-0375","program":"pota","name":"Jumping Jack Wattle Nature Conservation Reserve","coordinates":[141.453,-36.3198]},{"code":"AU-2731","program":"pota","name":"Mirampiram Flora Reserve","coordinates":[141.315,-36.2685]},{"code":"AU-4055","program":"pota","name":"Bills Gully Wildlife Reserve","coordinates":[141.373,-36.4358]},{"code":"AU-4951","program":"pota","name":"Lake Lawloit Wildlife Reserve","coordinates":[141.458,-36.4192]},{"code":"AU-4993","program":"pota","name":"Lawloit I28 Bushland Reserve","coordinates":[141.391,-36.3956]},{"code":"AU-5080","program":"pota","name":"Mallee Dam Bushland Reserve","coordinates":[141.491,-36.405]},{"code":"AU-5134","program":"pota","name":"Merwyn Swamp Wetland Reserve","coordinates":[141.408,-36.4256]},{"code":"AU-5160","program":"pota","name":"Miram South Bushland Reserve","coordinates":[141.382,-36.4532]},{"code":"AU-5161","program":"pota","name":"Mirampiram I37 Bushland Reserve","coordinates":[141.305,-36.3167]},{"code":"AU-5532","program":"pota","name":"Red Plains Swamp Wildlife Reserve","coordinates":[141.373,-36.3116]},{"code":"AU-6035","program":"pota","name":"Yanipy I25 Bushland Reserve","coordinates":[141.283,-36.432]},{"code":"AU-6036","program":"pota","name":"Yanipy I26 Bushland Reserve","coordinates":[141.361,-36.4705]},{"code":"AU-6875","program":"pota","name":"Mirampiram I38 Bushland Reserve","coordinates":[141.347,-36.3272]}]}