{"lat":-36.25,"lon":145,"programs":["pota"],"count":16,"references":[{"code":"AU-0191","program":"pota","name":"Wyuna Nature Conservation Reserve","coordinates":[145.072,-36.169]},{"code":"AU-4003","program":"pota","name":"Barwo Bushland Reserve","coordinates":[145.206,-36.0957]},{"code":"AU-4004","program":"pota","name":"Barwo H19A Bushland Reserve","coordinates":[145.202,-36.0437]},{"code":"AU-4153","program":"pota","name":"Brooms Bushland Reserve","coordinates":[145.161,-36.0982]},{"code":"AU-4430","program":"pota","name":"Deep Creek Streamside Reserve","coordinates":[145.192,-36.1324]},{"code":"AU-4892","program":"pota","name":"Kotupna Bushland Reserve","coordinates":[145.154,-36.1464]},{"code":"AU-5044","program":"pota","name":"Lower Moira Bushland Reserve","coordinates":[145.03,-36.0688]},{"code":"AU-5119","program":"pota","name":"McLellands Bushland Reserve","coordinates":[145.235,-36.1332]},{"code":"AU-5180","program":"pota","name":"Moira Bushland Reserve","coordinates":[145.01,-36.0173]},{"code":"AU-5181","program":"pota","name":"Moira H14 Bushland Reserve","coordinates":[145.027,-36.073]},{"code":"AU-5347","program":"pota","name":"Narioka Bushland Reserve","coordinates":[145.056,-36.0822]},{"code":"AU-5351","program":"pota","name":"Nathalia Nature Conservation Reserve","coordinates":[145.14,-36.0142]},{"code":"AU-5617","program":"pota","name":"Skeleton Creek Streamside Reserve","coordinates":[145.19,-36.1168]},{"code":"AU-8668","program":"pota","name":"St Germains Bushland Reserve","coordinates":[145.162,-36.186]},{"code":"AU-8670","program":"pota","name":"Undera Bushland Reserve","coordinates":[145.206,-36.1849]},{"code":"AU-10835","program":"pota","name":"Kotupna School Bushland Reserve","coordinates":[145.128,-36.1462]}]}