{"lat":-36,"lon":143.25,"programs":["pota"],"count":8,"references":[{"code":"AU-0226","program":"pota","name":"Towaninny South Nature Conservation Reserve","coordinates":[143.354,-35.9208]},{"code":"AU-0227","program":"pota","name":"Towaninny North Nature Conservation Reserve","coordinates":[143.423,-35.8526]},{"code":"AU-0228","program":"pota","name":"Towaninny Nature Conservation Reserve","coordinates":[143.416,-35.9202]},{"code":"AU-0294","program":"pota","name":"Ninyeunook Township Nature Conservation Reserve","coordinates":[143.41,-35.9751]},{"code":"AU-0472","program":"pota","name":"Cannie Nature Conservation Reserve","coordinates":[143.497,-35.8165]},{"code":"AU-4324","program":"pota","name":"Cokam Bushland Reserve","coordinates":[143.293,-35.755]},{"code":"AU-5374","program":"pota","name":"Ninyeunook - Lalbert Creek Nature Conservation Reserve","coordinates":[143.367,-35.9828]},{"code":"AU-5375","program":"pota","name":"Ninyeunook I198 Bushland Reserve","coordinates":[143.338,-35.9711]}]}