{"lat":-36,"lon":147.25,"programs":["pota","sota"],"count":12,"references":[{"code":"AU-1623","program":"pota","name":"Woomargama State Conservation Area","coordinates":[147.315,-35.9646]},{"code":"AU-1624","program":"pota","name":"Woomargama National Park","coordinates":[147.456,-35.8651]},{"code":"AU-6160","program":"pota","name":"Hume and Hovell State Trail","coordinates":[147.477,-35.8595]},{"code":"VK2/RI-003","program":"sota","name":"Wagra Mountain","coordinates":[147.3144,-35.9888]},{"code":"VK2/RI-004","program":"sota","name":"Mount Jergyle","coordinates":[147.4119,-35.8624]},{"code":"VK2/RI-005","program":"sota","name":"Munderoo","coordinates":[147.305,-35.9502]},{"code":"VK2/RI-007","program":"sota","name":"Mount Pleasant","coordinates":[147.4481,-35.8313]},{"code":"VK2/RI-013","program":"sota","name":"Mount McLaurin","coordinates":[147.4789,-35.813]},{"code":"VK2/RI-034","program":"sota","name":"VK2/RI-034","coordinates":[147.4459,-35.9403]},{"code":"VK2/RI-052","program":"sota","name":"Woomargama","coordinates":[147.2546,-35.8017]},{"code":"VK3/VE-199","program":"sota","name":"VK3/VE-199","coordinates":[147.46703,-35.98423]},{"code":"VK3/VE-226","program":"sota","name":"Mt Porcupine","coordinates":[147.4303,-35.96363]}]}