{"lat":-36.5,"lon":143.75,"programs":["pota","sota"],"count":8,"references":[{"code":"AU-4554","program":"pota","name":"Fiery Flat Bushland Reserve","coordinates":[143.79,-36.3891]},{"code":"AU-4874","program":"pota","name":"Kinypanial Streamside Reserve","coordinates":[143.883,-36.2907]},{"code":"AU-4875","program":"pota","name":"Kinypanial South Bushland Reserve","coordinates":[143.821,-36.3599]},{"code":"AU-5330","program":"pota","name":"Mysia H47 Bushland Reserve","coordinates":[143.791,-36.2503]},{"code":"AU-5331","program":"pota","name":"Mysia I120 Bushland Reserve","coordinates":[143.78,-36.2541]},{"code":"AU-5603","program":"pota","name":"Serpentine Weir Streamside Reserve","coordinates":[143.934,-36.4308]},{"code":"AU-8250","program":"pota","name":"Glenalbyn State Forest","coordinates":[143.753,-36.3546]},{"code":"VK3/VU-012","program":"sota","name":"Mt Korong","coordinates":[143.75125,-36.46736]}]}