{"lat":-36.75,"lon":147.5,"programs":["pota","sota"],"count":10,"references":[{"code":"AU-8579","program":"pota","name":"Mount Tabor Creek Natural Catchment Area Reserve","coordinates":[147.542,-36.5342]},{"code":"VK3/VE-041","program":"sota","name":"Mt Benambra","coordinates":[147.5751,-36.50485]},{"code":"VK3/VE-089","program":"sota","name":"VK3/VE-089","coordinates":[147.58156,-36.62292]},{"code":"VK3/VE-100","program":"sota","name":"Mt Martin","coordinates":[147.51707,-36.67911]},{"code":"VK3/VE-210","program":"sota","name":"Larsen Hill","coordinates":[147.61497,-36.60562]},{"code":"VK3/VE-252","program":"sota","name":"VK3/VE-252","coordinates":[147.645,-36.6567]},{"code":"VK3/VE-258","program":"sota","name":"VK3/VE-258","coordinates":[147.6178,-36.5764]},{"code":"VK3/VG-028","program":"sota","name":"Toke Gibbo Hill","coordinates":[147.70325,-36.72142]},{"code":"VK3/VG-031","program":"sota","name":"Mt Cooper","coordinates":[147.54211,-36.73939]},{"code":"VK3/VG-070","program":"sota","name":"VK3/VG-070","coordinates":[147.62148,-36.71917]}]}