{"lat":-36.75,"lon":175.75,"programs":["gma","sota"],"count":5,"references":[{"code":"XZL1/WK-187","program":"gma","name":"Mohi Mountain","coordinates":[175.8133,-36.6244]},{"code":"ZL1/WK-170","program":"sota","name":"Waitaia","coordinates":[175.7536,-36.7395]},{"code":"ZL1/WK-191","program":"sota","name":"Tahanga","coordinates":[175.8098,-36.7285]},{"code":"ZL1/WK-201","program":"sota","name":"Red Mercury Island (Whakau)","coordinates":[175.9372,-36.618]},{"code":"ZL1/WK-222","program":"sota","name":"Omataonga Point","coordinates":[175.81,-36.6154]}]}