{"lat":-36.75,"lon":141,"programs":["pota"],"count":7,"references":[{"code":"AU-2825","program":"pota","name":"Waurn Swamp Wildlife Reserve","coordinates":[141.214,-36.7031]},{"code":"AU-4458","program":"pota","name":"Ding-a-ding Wildlife Reserve","coordinates":[141.094,-36.6835]},{"code":"AU-5154","program":"pota","name":"Minimay I12 Bushland Reserve","coordinates":[141.172,-36.672]},{"code":"AU-5157","program":"pota","name":"Minimay Swamp Wildlife Reserve","coordinates":[141.17,-36.7165]},{"code":"AU-5366","program":"pota","name":"Neuarpur Bushland Reserve","coordinates":[141.07,-36.7385]},{"code":"AU-6039","program":"pota","name":"Yarrackigarra Swamp Wildlife Reserve","coordinates":[141.238,-36.7174]},{"code":"AU-8599","program":"pota","name":"Little Desert Area Remote & Natural Area","coordinates":[141.06,-36.5523]}]}