{"lat":-37,"lon":149.5,"programs":["pota","sota"],"count":5,"references":[{"code":"AU-8006","program":"pota","name":"Gnupa State Forest","coordinates":[149.736,-36.927]},{"code":"VK2/SC-022","program":"sota","name":"Wolumla Peak","coordinates":[149.728,-36.8643]},{"code":"VK2/SC-034","program":"sota","name":"Little Jingera Peaks","coordinates":[149.6224,-36.9541]},{"code":"VK2/SC-043","program":"sota","name":"Mt Bobendoura","coordinates":[149.6389,-36.819]},{"code":"VK2/SC-047","program":"sota","name":"Mt Harriett","coordinates":[149.6261,-36.7922]}]}