{"lat":-37.5,"lon":175.25,"programs":["gma","pota","sota"],"count":6,"references":[{"code":"XZL1/WK-128","program":"gma","name":"Ngaraparapa","coordinates":[175.3702,-37.4851]},{"code":"NZ-0580","program":"pota","name":"Matahuru Scenic Reserve","coordinates":[175.382,-37.3842]},{"code":"NZ-0847","program":"pota","name":"Hapuakohe Ecological Area","coordinates":[175.372,-37.4765]},{"code":"ZL1/WK-125","program":"sota","name":"Maungakawa","coordinates":[175.396,-37.414]},{"code":"ZL1/WK-180","program":"sota","name":"ZL1/WK-180","coordinates":[175.269,-37.4453]},{"code":"ZL1/WK-211","program":"sota","name":"Te Hoe","coordinates":[175.3653,-37.4861]}]}