{"lat":-37.25,"lon":145.75,"programs":["pota","sota"],"count":13,"references":[{"code":"AU-4519","program":"pota","name":"Eildon Bushland Reserve","coordinates":[145.899,-37.2164]},{"code":"AU-5067","program":"pota","name":"Maintongoon G105 Bushland Reserve","coordinates":[145.777,-37.0981]},{"code":"AU-5068","program":"pota","name":"Maintongoon G106 Bushland Reserve","coordinates":[145.771,-37.149]},{"code":"AU-5069","program":"pota","name":"Maintongoon G107 Bushland Reserve","coordinates":[145.794,-37.1312]},{"code":"AU-5070","program":"pota","name":"Maintongoon G108 Bushland Reserve","coordinates":[145.835,-37.0901]},{"code":"AU-5071","program":"pota","name":"Maintongoon G49 Bushland Reserve","coordinates":[145.83,-37.0587]},{"code":"AU-6893","program":"pota","name":"The Paps Natural Features & Scenic Reserve","coordinates":[145.986,-37.0462]},{"code":"AU-8224","program":"pota","name":"Delatite Arm Forest Reserve","coordinates":[145.988,-37.1592]},{"code":"AU-8306","program":"pota","name":"Maintongoon State Forest","coordinates":[145.759,-37.1027]},{"code":"AU-11184","program":"pota","name":"Woodfield Trestle Bridge Historic Reserve","coordinates":[145.898,-37.0201]},{"code":"VK3/VE-174","program":"sota","name":"Stillman Plateau","coordinates":[145.96799,-37.19583]},{"code":"VK3/VE-204","program":"sota","name":"The Paps","coordinates":[145.98454,-37.04368]},{"code":"VK3/VN-019","program":"sota","name":"Proctor","coordinates":[145.82954,-37.10535]}]}