{"lat":-37.25,"lon":142.25,"programs":["gma","pota","sota"],"count":7,"references":[{"code":"XVK3/VW-011","program":"gma","name":"Dijbalara/Asses Ears","coordinates":[142.32780457,-37.09469986]},{"code":"AU-8440","program":"pota","name":"Wartook State Forest","coordinates":[142.32,-37.0415]},{"code":"AU-8606","program":"pota","name":"Serra Range Remote & Natural Area","coordinates":[142.474,-37.2357]},{"code":"VK3/VS-017","program":"sota","name":"North Victoria Range","coordinates":[142.283,-37.2139]},{"code":"VK3/VW-008","program":"sota","name":"Mount Gar/Difficult","coordinates":[142.441,-37.01043]},{"code":"VK3/VW-010","program":"sota","name":"South Mt Difficult Range","coordinates":[142.42395,-37.06111]},{"code":"VK3/VW-026","program":"sota","name":"VK3/VW-026","coordinates":[142.3349,-37.099]}]}