{"lat":-37.5,"lon":147,"programs":["pota","sota"],"count":9,"references":[{"code":"AU-8168","program":"pota","name":"Boulung - Deera State Forest","coordinates":[147.18,-37.2565]},{"code":"AU-8272","program":"pota","name":"Hibernia State Forest","coordinates":[147.177,-37.4279]},{"code":"AU-10687","program":"pota","name":"Crooked National Wild and Scenic River","coordinates":[147.066,-37.3352]},{"code":"AU-10703","program":"pota","name":"Wonnangatta National Wild and Scenic River","coordinates":[147.138,-37.4697]},{"code":"AU-11094","program":"pota","name":"Grant Historic Area Reserve","coordinates":[147.112,-37.3278]},{"code":"VK3/VT-017","program":"sota","name":"Mt Valentia","coordinates":[147.05429,-37.47888]},{"code":"VK3/VT-018","program":"sota","name":"VK3/VT-018","coordinates":[147.21556,-37.31465]},{"code":"VK3/VT-051","program":"sota","name":"Mt Thomson","coordinates":[147.23982,-37.49488]},{"code":"VK3/VT-086","program":"sota","name":"VK3/VT-086","coordinates":[147.1045,-37.4529]}]}