{"lat":-37.5,"lon":149.5,"programs":["pota"],"count":7,"references":[{"code":"AU-2227","program":"pota","name":"Yambulla Flora Reserve","coordinates":[149.639,-37.3058]},{"code":"AU-2233","program":"pota","name":"Wallagaraugh Flora Reserve","coordinates":[149.719,-37.3915]},{"code":"AU-6975","program":"pota","name":"Yambulla State Forest","coordinates":[149.638,-37.2642]},{"code":"AU-2722","program":"pota","name":"Maramingo Creek Flora Reserve","coordinates":[149.637,-37.4158]},{"code":"AU-5814","program":"pota","name":"Wallagaraugh River Streamside Reserve","coordinates":[149.691,-37.4411]},{"code":"AU-8319","program":"pota","name":"Merreminger State Forest","coordinates":[149.574,-37.3929]},{"code":"AU-10615","program":"pota","name":"Wallagaraugh National Wild and Scenic River","coordinates":[149.685,-37.4769]}]}