{"lat":-37.5,"lon":149.75,"programs":["pota","sota"],"count":9,"references":[{"code":"AU-1785","program":"pota","name":"Nadgee Nature Reserve","coordinates":[149.909,-37.3915]},{"code":"AU-2230","program":"pota","name":"Watergums Creek Flora Reserve","coordinates":[149.849,-37.324]},{"code":"AU-2244","program":"pota","name":"Sidlings Swamp Flora Reserve","coordinates":[149.758,-37.3032]},{"code":"AU-2260","program":"pota","name":"Narrabarba Hill Flora Reserve","coordinates":[149.84,-37.2557]},{"code":"AU-2272","program":"pota","name":"Maxwells Flora Reserve","coordinates":[149.809,-37.4197]},{"code":"AU-6968","program":"pota","name":"Timbillica State Forest","coordinates":[149.772,-37.3205]},{"code":"AU-7927","program":"pota","name":"Bruces Creek State Forest","coordinates":[149.765,-37.3317]},{"code":"AU-8117","program":"pota","name":"Nadgee State Forest","coordinates":[149.779,-37.2912]},{"code":"VK3/VG-146","program":"sota","name":"Mt Carlyle","coordinates":[149.8802,-37.47352]}]}