{"lat":-37.5,"lon":148.25,"programs":["pota","sota"],"count":15,"references":[{"code":"AU-0256","program":"pota","name":"Snowy River National Park","coordinates":[148.453,-37.271]},{"code":"AU-0341","program":"pota","name":"Martins Creek Nature Conservation Reserve","coordinates":[148.482,-37.4793]},{"code":"AU-5620","program":"pota","name":"Slocombes Cave Reserve","coordinates":[148.288,-37.4319]},{"code":"AU-8428","program":"pota","name":"Tullock Ard State Forest","coordinates":[148.278,-37.3553]},{"code":"AU-8581","program":"pota","name":"Musk Creek Natural Catchment Area Reserve","coordinates":[148.361,-37.4447]},{"code":"AU-8584","program":"pota","name":"Rodger River and Mountain Creek Natural Catchment Area Reserve","coordinates":[148.485,-37.2708]},{"code":"AU-8627","program":"pota","name":"Snowy River Wilderness Zone","coordinates":[148.415,-37.305]},{"code":"VK3/VG-075","program":"sota","name":"VK3/VG-075","coordinates":[148.44096,-37.30517]},{"code":"VK3/VG-079","program":"sota","name":"VK3/VG-079","coordinates":[148.32314,-37.3426]},{"code":"VK3/VG-087","program":"sota","name":"VK3/VG-087","coordinates":[148.3791,-37.25453]},{"code":"VK3/VG-117","program":"sota","name":"Paradise Ridge","coordinates":[148.44514,-37.46465]},{"code":"VK3/VG-118","program":"sota","name":"VK3/VG-118","coordinates":[148.41106,-37.39566]},{"code":"VK3/VG-124","program":"sota","name":"VK3/VG-124","coordinates":[148.407,-37.29927]},{"code":"VK3/VG-181","program":"sota","name":"VK3/VG-181","coordinates":[148.3196,-37.4611]},{"code":"VK3/VG-187","program":"sota","name":"VK3/VG-187","coordinates":[148.3801,-37.4457]}]}