{"lat":-37,"lon":175.5,"programs":["pota","sota"],"count":12,"references":[{"code":"NZ-0561","program":"pota","name":"Whangapoua Forest Conservation Area","coordinates":[175.579,-36.8087]},{"code":"NZ-0566","program":"pota","name":"Papakai Ecological Area","coordinates":[175.592,-36.9425]},{"code":"ZL1/WK-048","program":"sota","name":"Maumaupaki (Camels Back)","coordinates":[175.5774,-36.9694]},{"code":"ZL1/WK-075","program":"sota","name":"Kakatarahae","coordinates":[175.5597,-36.8941]},{"code":"ZL1/WK-114","program":"sota","name":"Horomanga","coordinates":[175.5238,-36.8876]},{"code":"ZL1/WK-115","program":"sota","name":"ZL1/WK-115","coordinates":[175.5518,-36.7792]},{"code":"ZL1/WK-119","program":"sota","name":"ZL1/WK-119","coordinates":[175.5645,-36.8216]},{"code":"ZL1/WK-127","program":"sota","name":"Castle Rock","coordinates":[175.5626,-36.8034]},{"code":"ZL1/WK-143","program":"sota","name":"ZL1/WK-143","coordinates":[175.6379,-36.9737]},{"code":"ZL1/WK-172","program":"sota","name":"ZL1/WK-172","coordinates":[175.7008,-36.7774]},{"code":"ZL1/WK-173","program":"sota","name":"Maungatawhiri","coordinates":[175.7379,-36.7832]},{"code":"ZL1/WK-186","program":"sota","name":"Rangitoto","coordinates":[175.7381,-36.8878]}]}