{"lat":-37.25,"lon":144.25,"programs":["pota"],"count":24,"references":[{"code":"AU-0240","program":"pota","name":"Taradale Nature Conservation Reserve","coordinates":[144.379,-37.14]},{"code":"AU-0337","program":"pota","name":"Metcalfe Nature Conservation Reserve","coordinates":[144.451,-37.1237]},{"code":"AU-0416","program":"pota","name":"Fryers Ridge Nature Conservation Reserve","coordinates":[144.308,-37.1638]},{"code":"AU-4242","program":"pota","name":"Carlsruhe Bushland Reserve","coordinates":[144.478,-37.2114]},{"code":"AU-4280","program":"pota","name":"Chewton Bushland Reserve","coordinates":[144.282,-37.0716]},{"code":"AU-4281","program":"pota","name":"Chewton H86 Bushland Reserve","coordinates":[144.277,-37.0861]},{"code":"AU-4282","program":"pota","name":"Chewton H8A Bushland Reserve","coordinates":[144.282,-37.0909]},{"code":"AU-4328","program":"pota","name":"Coliban Falls Geological Reserve","coordinates":[144.461,-37.0371]},{"code":"AU-4493","program":"pota","name":"Drummond I89 Bushland Reserve","coordinates":[144.312,-37.2347]},{"code":"AU-4494","program":"pota","name":"Drummond I90 Bushland Reserve","coordinates":[144.301,-37.223]},{"code":"AU-4495","program":"pota","name":"Drummond I91 Bushland Reserve","coordinates":[144.346,-37.2321]},{"code":"AU-4517","program":"pota","name":"Edgecombe Streamside Reserve","coordinates":[144.436,-37.1968]},{"code":"AU-4527","program":"pota","name":"Emberton Bushland Reserve","coordinates":[144.499,-37.0658]},{"code":"AU-4690","program":"pota","name":"Green Hill Streamside Reserve","coordinates":[144.44,-37.1818]},{"code":"AU-4820","program":"pota","name":"Kangaroo Creek Bushland Reserve","coordinates":[144.341,-37.2378]},{"code":"AU-4903","program":"pota","name":"Kyneton Streamside Reserve","coordinates":[144.42,-37.2358]},{"code":"AU-4982","program":"pota","name":"Langley I12 Bushland Reserve","coordinates":[144.488,-37.1883]},{"code":"AU-4991","program":"pota","name":"Lauriston Bushland Reserve","coordinates":[144.358,-37.2403]},{"code":"AU-5135","program":"pota","name":"Metcalfe I164 Bushland Reserve","coordinates":[144.42,-37.1371]},{"code":"AU-5136","program":"pota","name":"Metcalfe Streamside Reserve","coordinates":[144.421,-37.0975]},{"code":"AU-5260","program":"pota","name":"Mount Lofty Bushland Reserve","coordinates":[144.487,-37.0257]},{"code":"AU-5711","program":"pota","name":"Taradale Streamside Reserve","coordinates":[144.36,-37.141]},{"code":"AU-5775","program":"pota","name":"Turpins Falls Scenic Reserve","coordinates":[144.482,-37.1354]},{"code":"AU-8243","program":"pota","name":"Fyers Range State Forest","coordinates":[144.281,-37.1455]}]}