{"lat":-37.25,"lon":145,"programs":["pota","sota"],"count":17,"references":[{"code":"AU-0310","program":"pota","name":"Mount Piper Nature Conservation Reserve","coordinates":[145.005,-37.2053]},{"code":"AU-2679","program":"pota","name":"Horseshoe Lagoon Flora and Fauna Reserve","coordinates":[145.237,-37.1317]},{"code":"AU-2790","program":"pota","name":"Tallarook Wildflower Sanctuary Flora Reserve","coordinates":[145.096,-37.0952]},{"code":"AU-4138","program":"pota","name":"Broadford G110 Bushland Reserve","coordinates":[145.099,-37.1947]},{"code":"AU-4139","program":"pota","name":"Broadford G111 Bushland Reserve","coordinates":[145.118,-37.2484]},{"code":"AU-4140","program":"pota","name":"Broadford Streamside Reserve","coordinates":[145.025,-37.2347]},{"code":"AU-4407","program":"pota","name":"Dabyminga Creek Bushland Reserve","coordinates":[145.114,-37.1635]},{"code":"AU-4854","program":"pota","name":"Kerrisdale Bushland Reserve","coordinates":[145.174,-37.2466]},{"code":"AU-5046","program":"pota","name":"Lowry Bushland Reserve","coordinates":[145.071,-37.1272]},{"code":"AU-5504","program":"pota","name":"Pulpit Rock Scenic Reserve","coordinates":[145.139,-37.1139]},{"code":"AU-5700","program":"pota","name":"Tallarook Bushland Reserve","coordinates":[145.093,-37.0941]},{"code":"AU-7523","program":"pota","name":"Great Victorian Rail State Trail","coordinates":[145.115,-37.0873]},{"code":"AU-8411","program":"pota","name":"Tallarook State Forest","coordinates":[145.186,-37.1674]},{"code":"AU-10734","program":"pota","name":"Goulburn (VIC) National Wild and Scenic River","coordinates":[145.128,-37.0183]},{"code":"AU-11066","program":"pota","name":"Broadford Old Buildings Historic Reserve","coordinates":[145.05,-37.2034]},{"code":"VK3/VN-015","program":"sota","name":"Mt Hickey","coordinates":[145.1526,-37.17695]},{"code":"VK3/VN-028","program":"sota","name":"Mt Piper","coordinates":[145.0043,-37.20518]}]}