{"lat":-37.5,"lon":143.25,"programs":["pota","sota"],"count":21,"references":[{"code":"AU-2611","program":"pota","name":"Ben Major Flora Reserve","coordinates":[143.401,-37.3075]},{"code":"AU-4019","program":"pota","name":"Beaufort South Bushland Reserve","coordinates":[143.38,-37.4569]},{"code":"AU-4198","program":"pota","name":"Burbank Creek Streamside Reserve","coordinates":[143.482,-37.3058]},{"code":"AU-4678","program":"pota","name":"Granite Hill Scenic Reserve","coordinates":[143.462,-37.3049]},{"code":"AU-5011","program":"pota","name":"Lexton H5 Bushland Reserve","coordinates":[143.49,-37.2863]},{"code":"AU-5066","program":"pota","name":"Main Lead Bushland Reserve","coordinates":[143.369,-37.3861]},{"code":"AU-5516","program":"pota","name":"Raglan Bushland Reserve","coordinates":[143.403,-37.3388]},{"code":"AU-5627","program":"pota","name":"Snowgums Bushland Reserve","coordinates":[143.416,-37.4206]},{"code":"AU-5865","program":"pota","name":"Waterloo Bushland Reserve","coordinates":[143.434,-37.3955]},{"code":"AU-8133","program":"pota","name":"Andrews State Forest","coordinates":[143.38,-37.4654]},{"code":"AU-8152","program":"pota","name":"Ben Major State Forest","coordinates":[143.433,-37.2844]},{"code":"AU-8193","program":"pota","name":"Camp Hill State Forest","coordinates":[143.39,-37.4154]},{"code":"AU-8241","program":"pota","name":"Fortes Bush State Forest","coordinates":[143.372,-37.3115]},{"code":"AU-8332","program":"pota","name":"Mount Lonarch/Berumgower State Forest","coordinates":[143.335,-37.2785]},{"code":"AU-8343","program":"pota","name":"Musical Gully State Forest","coordinates":[143.392,-37.3831]},{"code":"AU-8426","program":"pota","name":"Trawalla State Forest","coordinates":[143.417,-37.4483]},{"code":"AU-8442","program":"pota","name":"Waterloo State Forest","coordinates":[143.446,-37.3469]},{"code":"VK3/VS-008","program":"sota","name":"Mt Cole","coordinates":[143.27232,-37.33718]},{"code":"VK3/VS-013","program":"sota","name":"Mount Lonarch","coordinates":[143.33873,-37.25839]},{"code":"VK3/VS-028","program":"sota","name":"Ben Major","coordinates":[143.43834,-37.27079]},{"code":"VK3/VS-033","program":"sota","name":"Point 585/Waterloo","coordinates":[143.47508,-37.325]}]}