{"lat":-37.25,"lon":-70.25,"programs":["pota","sota"],"count":5,"references":[{"code":"AR-0103","program":"pota","name":"El Tromen Provincial Park","coordinates":[-70.0904,-37.1269]},{"code":"LUY/CM-017","program":"sota","name":"Wayle","coordinates":[-70.1192,-37.0531]},{"code":"LUY/PC-001","program":"sota","name":"Volcan Tromen","coordinates":[-70.0494,-37.1402]},{"code":"LUY/PC-002","program":"sota","name":"Negro Del Tromen","coordinates":[-70.0378,-37.2291]},{"code":"LUY/PC-006","program":"sota","name":"LUY/PC-006","coordinates":[-70.038,-37.0499]}]}