{"lat":-37,"lon":139.75,"programs":["pota"],"count":6,"references":[{"code":"AU-0960","program":"pota","name":"Butcher Gap Conservation Park","coordinates":[139.811,-36.881]},{"code":"AU-9392","program":"pota","name":"Long Beach South State Beach","coordinates":[139.862,-36.7645]},{"code":"AU-9393","program":"pota","name":"Kingston SE State Beach","coordinates":[139.845,-36.8315]},{"code":"AU-9394","program":"pota","name":"Wyomi State Beach","coordinates":[139.824,-36.8584]},{"code":"AU-9395","program":"pota","name":"Pinks Beach State Beach","coordinates":[139.812,-36.8725]},{"code":"AU-9396","program":"pota","name":"Lacapede State Beach","coordinates":[139.763,-36.905]}]}