{"lat":-37.5,"lon":149,"programs":["gma","pota","sota"],"count":14,"references":[{"code":"XVK3/VG-071","program":"gma","name":"Three Sisters","coordinates":[149.08869934,-37.35139847]},{"code":"AU-8183","program":"pota","name":"Buldah State Forest","coordinates":[149.116,-37.3468]},{"code":"AU-8194","program":"pota","name":"Cann Valley State Forest","coordinates":[149.071,-37.4635]},{"code":"AU-11087","program":"pota","name":"Golden Gully Machinery Site Historic Reserve","coordinates":[149.07,-37.325]},{"code":"VK3/VG-069","program":"sota","name":"Mt Kaye","coordinates":[149.24583,-37.39537]},{"code":"VK3/VG-084","program":"sota","name":"Cann Mountain Range","coordinates":[149.12936,-37.43087]},{"code":"VK3/VG-089","program":"sota","name":"VK3/VG-089","coordinates":[149.10864,-37.29605]},{"code":"VK3/VG-096","program":"sota","name":"Waldron Mountain","coordinates":[149.07317,-37.44178]},{"code":"VK3/VG-097","program":"sota","name":"Bill Mile Hill","coordinates":[149.22829,-37.37497]},{"code":"VK3/VG-113","program":"sota","name":"VK3/VG-113","coordinates":[149.0929,-37.4198]},{"code":"VK3/VG-116","program":"sota","name":"Mt Petterson","coordinates":[149.15805,-37.32761]},{"code":"VK3/VG-135","program":"sota","name":"High Peak","coordinates":[149.1382,-37.38384]},{"code":"VK3/VG-184","program":"sota","name":"Three Sisters","coordinates":[149.0946,-37.3596]},{"code":"VK3/VG-186","program":"sota","name":"VK3/VG-186","coordinates":[149.2299,-37.3564]}]}