{"lat":-37.5,"lon":144.75,"programs":["pota","sota"],"count":12,"references":[{"code":"AU-4052","program":"pota","name":"Beveridge Bushland Reserve","coordinates":[144.977,-37.4755]},{"code":"AU-4118","program":"pota","name":"Boyds Creek Streamside Reserve","coordinates":[144.894,-37.3703]},{"code":"AU-4418","program":"pota","name":"Darraweit Streamside Reserve","coordinates":[144.879,-37.4044]},{"code":"AU-4427","program":"pota","name":"Deep Creek K16 Streamside Reserve","coordinates":[144.781,-37.3331]},{"code":"AU-4428","program":"pota","name":"Deep Creek K17 Streamside Reserve","coordinates":[144.772,-37.3142]},{"code":"AU-4429","program":"pota","name":"Deep Creek K18 Streamside Reserve","coordinates":[144.778,-37.2875]},{"code":"AU-4581","program":"pota","name":"Gallaghers Ford Streamside Reserve","coordinates":[144.804,-37.3639]},{"code":"AU-4648","program":"pota","name":"Goldie Bushland Reserve","coordinates":[144.822,-37.2764]},{"code":"AU-5206","program":"pota","name":"Monegeetta Streamside Reserve","coordinates":[144.799,-37.3989]},{"code":"AU-5219","program":"pota","name":"Moranding I22 Bushland Reserve","coordinates":[144.953,-37.26]},{"code":"AU-5816","program":"pota","name":"Wallan Wallan Bushland Reserve","coordinates":[144.927,-37.396]},{"code":"VK3/VC-034","program":"sota","name":"Pretty Sally","coordinates":[144.96465,-37.38115]}]}