{"lat":-37.25,"lon":148.25,"programs":["pota","sota"],"count":12,"references":[{"code":"AU-4649","program":"pota","name":"Goodwin Creek Bushland Reserve","coordinates":[148.274,-37.0462]},{"code":"AU-6006","program":"pota","name":"Wulgulmerang Creek Bushland Reserve","coordinates":[148.267,-37.062]},{"code":"AU-7677","program":"pota","name":"Snowy River Heritage River Reserve","coordinates":[148.334,-37.1926]},{"code":"AU-8578","program":"pota","name":"Mount Gelantipy Creek Natural Catchment Area Reserve","coordinates":[148.392,-37.1731]},{"code":"VK3/VG-040","program":"sota","name":"Mt Deddick","coordinates":[148.47183,-37.15246]},{"code":"VK3/VG-062","program":"sota","name":"Mt Deddick","coordinates":[148.47102,-37.11101]},{"code":"VK3/VG-068","program":"sota","name":"VK3/VG-068","coordinates":[148.43584,-37.03483]},{"code":"VK3/VG-076","program":"sota","name":"Mt Bulla Bulla","coordinates":[148.41833,-37.06118]},{"code":"VK3/VG-082","program":"sota","name":"Mt Wheeler","coordinates":[148.36897,-37.06807]},{"code":"VK3/VG-092","program":"sota","name":"VK3/VG-092","coordinates":[148.31781,-37.102]},{"code":"VK3/VG-168","program":"sota","name":"VK3/VG-168","coordinates":[148.4942,-37.225]},{"code":"VK3/VG-170","program":"sota","name":"VK3/VG-170","coordinates":[148.3995,-37.0001]}]}