{"lat":-37.25,"lon":147,"programs":["pota","sota"],"count":10,"references":[{"code":"AU-8569","program":"pota","name":"Blue Rag Creek Natural Catchment Area Reserve","coordinates":[147.077,-37.1061]},{"code":"AU-8589","program":"pota","name":"Wongungurra River headwaters Natural Catchment Area Reserve","coordinates":[147.073,-37.0382]},{"code":"VK3/VE-015","program":"sota","name":"Blue Rag Range","coordinates":[147.05289,-37.09759]},{"code":"VK3/VE-017","program":"sota","name":"The Twins","coordinates":[147.05734,-37.02277]},{"code":"VK3/VE-021","program":"sota","name":"Mt Blue Rag","coordinates":[147.11815,-37.09124]},{"code":"VK3/VE-023","program":"sota","name":"VK3/VE-023","coordinates":[147.04836,-37.02909]},{"code":"VK3/VE-024","program":"sota","name":"VK3/VE-024","coordinates":[147.1102,-37.03806]},{"code":"VK3/VE-028","program":"sota","name":"Mt TableTop","coordinates":[147.20918,-37.05415]},{"code":"VK3/VE-039","program":"sota","name":"Basalt Knob","coordinates":[147.08896,-37.14805]},{"code":"VK3/VE-060","program":"sota","name":"White Timber","coordinates":[147.15213,-37.20117]}]}