{"lat":-37,"lon":145,"programs":["pota"],"count":11,"references":[{"code":"AU-0343","program":"pota","name":"Mangalore Nature Conservation Reserve","coordinates":[145.148,-36.9385]},{"code":"AU-3955","program":"pota","name":"Baileston Bushland Reserve","coordinates":[145.077,-36.7665]},{"code":"AU-4669","program":"pota","name":"Goulburn River K45 Streamside Reserve","coordinates":[145.079,-36.8305]},{"code":"AU-4765","program":"pota","name":"Hughes Creek Hill Bushland Reserve","coordinates":[145.124,-36.865]},{"code":"AU-5072","program":"pota","name":"Major Creek Streamside Reserve","coordinates":[145.068,-36.8542]},{"code":"AU-5168","program":"pota","name":"Mitchellstown Streamside Reserve","coordinates":[145.1,-36.8458]},{"code":"AU-5381","program":"pota","name":"Northwood Bushland Reserve","coordinates":[145.085,-36.9039]},{"code":"AU-5382","program":"pota","name":"Northwood Hill Bushland Reserve","coordinates":[145.105,-36.9261]},{"code":"AU-5691","program":"pota","name":"Tabilk Bushland Reserve","coordinates":[145.138,-36.8682]},{"code":"AU-5692","program":"pota","name":"Tabilk Lagoon Wildlife Reserve","coordinates":[145.105,-36.8253]},{"code":"AU-6001","program":"pota","name":"Wormangal Creek Bushland Reserve","coordinates":[145.228,-36.8211]}]}