{"lat":-37.5,"lon":147.75,"programs":["pota","sota"],"count":9,"references":[{"code":"AU-8239","program":"pota","name":"Fainting Range State Forest","coordinates":[147.991,-37.4905]},{"code":"AU-8337","program":"pota","name":"Mount Wong State Forest","coordinates":[147.974,-37.3693]},{"code":"VK3/VG-074","program":"sota","name":"Mt Elizabeth No 2","coordinates":[147.93095,-37.48875]},{"code":"VK3/VG-090","program":"sota","name":"VK3/VG-090","coordinates":[147.95578,-37.39571]},{"code":"VK3/VG-114","program":"sota","name":"Fainting Range","coordinates":[147.86723,-37.45678]},{"code":"VK3/VG-162","program":"sota","name":"VK3/VG-162","coordinates":[147.9404,-37.3044]},{"code":"VK3/VG-169","program":"sota","name":"VK3/VG-169","coordinates":[147.7511,-37.4893]},{"code":"VK3/VG-171","program":"sota","name":"VK3/VG-171","coordinates":[147.9806,-37.4139]},{"code":"VK3/VG-175","program":"sota","name":"Big Hill","coordinates":[147.801,-37.3268]}]}