{"lat":-37,"lon":175,"programs":["pota","sota"],"count":11,"references":[{"code":"NZ-0005","program":"pota","name":"Duder Regional Park","coordinates":[175.083,-36.9066]},{"code":"NZ-0014","program":"pota","name":"Omana Regional Park","coordinates":[175.023,-36.8805]},{"code":"NZ-0015","program":"pota","name":"Orere Point Regional Park","coordinates":[175.246,-36.9579]},{"code":"NZ-0021","program":"pota","name":"Tawhitokino Regional Park","coordinates":[175.2,-36.938]},{"code":"NZ-0027","program":"pota","name":"Waitawa Regional Park","coordinates":[175.143,-36.936]},{"code":"NZ-0029","program":"pota","name":"Whakanewha Regional Park","coordinates":[175.071,-36.8133]},{"code":"NZ-0623","program":"pota","name":"Te Matuku Marine Reserve","coordinates":[175.132,-36.8483]},{"code":"ZL1/AK-010","program":"sota","name":"Mataikokako","coordinates":[175.1948,-36.9716]},{"code":"ZL1/AK-018","program":"sota","name":"ZL1/AK-018","coordinates":[175.0297,-36.9711]},{"code":"ZL1/AK-020","program":"sota","name":"Maunganui","coordinates":[175.1188,-36.8126]},{"code":"ZL1/AK-026","program":"sota","name":"Ponui","coordinates":[175.1881,-36.8717]}]}