{"lat":-37,"lon":148.5,"programs":["pota","sota"],"count":10,"references":[{"code":"AU-8132","program":"pota","name":"Amboyne State Forest","coordinates":[148.508,-36.9676]},{"code":"AU-8630","program":"pota","name":"Tingaringy Wilderness Zone","coordinates":[148.54,-36.9486]},{"code":"VK2/SM-066","program":"sota","name":"Byadbo Range","coordinates":[148.5313,-36.8613]},{"code":"VK2/SM-070","program":"sota","name":"Point 1219","coordinates":[148.5403,-36.8153]},{"code":"VK2/SM-071","program":"sota","name":"VK2/SM-071","coordinates":[148.7223,-36.9642]},{"code":"VK2/SM-073","program":"sota","name":"Black Jack Mountain","coordinates":[148.63,-36.7853]},{"code":"VK2/SM-077","program":"sota","name":"VK2/SM-077","coordinates":[148.6718,-36.9063]},{"code":"VK3/VG-021","program":"sota","name":"Mt Tingaringy","coordinates":[148.67673,-36.99742]},{"code":"VK3/VG-047","program":"sota","name":"VK3/VG-047","coordinates":[148.51274,-36.94464]},{"code":"VK3/VG-083","program":"sota","name":"VK3/VG-083","coordinates":[148.58957,-36.96707]}]}