{"lat":-37.25,"lon":149.75,"programs":["pota"],"count":7,"references":[{"code":"AU-2124","program":"pota","name":"Beowa National Park","coordinates":[149.986,-37.1922]},{"code":"AU-2126","program":"pota","name":"Bell Bird Creek Nature Reserve","coordinates":[149.911,-37.024]},{"code":"AU-2256","program":"pota","name":"Nullica Flora Reserve","coordinates":[149.774,-37.1093]},{"code":"AU-2426","program":"pota","name":"Eagles Claw Nature Park","coordinates":[149.915,-37.072]},{"code":"AU-3173","program":"pota","name":"Davidson Whaling Station Historical Reserve","coordinates":[149.915,-37.111]},{"code":"AU-6936","program":"pota","name":"East Boyd State Forest","coordinates":[149.826,-37.216]},{"code":"AU-6957","program":"pota","name":"Nullica State Forest","coordinates":[149.832,-37.0931]}]}