{"lat":-37.5,"lon":142.75,"programs":["pota","sota"],"count":21,"references":[{"code":"AU-2773","program":"pota","name":"Rossbridge Wildlife Reserve","coordinates":[142.865,-37.4849]},{"code":"AU-3921","program":"pota","name":"Ararat (Heath St) Bushland Reserve","coordinates":[142.956,-37.291]},{"code":"AU-3922","program":"pota","name":"Ararat (McLean St) Bushland Reserve","coordinates":[142.928,-37.2744]},{"code":"AU-3923","program":"pota","name":"Ararat Bushland Reserve","coordinates":[142.925,-37.2511]},{"code":"AU-4128","program":"pota","name":"Bridal Hill Bushland Reserve","coordinates":[142.914,-37.2597]},{"code":"AU-4269","program":"pota","name":"Cathcart Bushland Reserve","coordinates":[142.889,-37.3215]},{"code":"AU-4395","program":"pota","name":"Crochan Bushland Reserve","coordinates":[142.847,-37.2945]},{"code":"AU-4920","program":"pota","name":"Lake Buninjon Wildlife Reserve","coordinates":[142.789,-37.4776]},{"code":"AU-5008","program":"pota","name":"Lennox Springs Bushland Reserve","coordinates":[142.762,-37.3265]},{"code":"AU-5098","program":"pota","name":"Maroona Streamside Reserve","coordinates":[142.863,-37.4019]},{"code":"AU-5207","program":"pota","name":"Montara Bushland Reserve","coordinates":[142.93,-37.3085]},{"code":"AU-5281","program":"pota","name":"Moyston Common Natural Features Reserve","coordinates":[142.762,-37.2984]},{"code":"AU-5282","program":"pota","name":"Moyston I77 Bushland Reserve","coordinates":[142.765,-37.3117]},{"code":"AU-5283","program":"pota","name":"Moyston Rifle Range Natural Features Reserve","coordinates":[142.758,-37.3066]},{"code":"AU-5376","program":"pota","name":"Noahs Ark Dam Natural Features Reserve","coordinates":[142.955,-37.2507]},{"code":"AU-5491","program":"pota","name":"Port Curtis Bushland Reserve","coordinates":[142.842,-37.2676]},{"code":"AU-5558","program":"pota","name":"Rocky Point Bushland Reserve","coordinates":[142.833,-37.3265]},{"code":"AU-11026","program":"pota","name":"Green Hill Lake Reserve","coordinates":[142.985,-37.2873]},{"code":"VK3/VS-030","program":"sota","name":"Mt Ararat","coordinates":[142.85889,-37.32368]},{"code":"VK3/VS-036","program":"sota","name":"One Tree Hill","coordinates":[142.8899,-37.2641]},{"code":"VK3/VS-043","program":"sota","name":"Mt Moomambool","coordinates":[142.80739,-37.38846]}]}