{"lat":-37.25,"lon":-73.25,"programs":["pota"],"count":5,"references":[{"code":"CL-0192","program":"pota","name":"ISIDORA COUSIÑO Recreation Park","coordinates":[-73.1652,-37.0902]},{"code":"CL-0250","program":"pota","name":"Urbano Paso Seco Sur Wetland Reserve","coordinates":[-73.1335,-37.0105]},{"code":"CL-0301","program":"pota","name":"Humedal Colcura Wetland Reserve","coordinates":[-73.1508,-37.1171]},{"code":"CL-0331","program":"pota","name":"Fuerte de lota Historic Site","coordinates":[-73.171,-37.0943]},{"code":"CL-0332","program":"pota","name":"FUERTE COLCURA Historic Site","coordinates":[-73.1608,-37.1063]}]}