{"lat":-37,"lon":143.75,"programs":["pota"],"count":19,"references":[{"code":"AU-0220","program":"pota","name":"Waanyarra Nature Conservation Reserve","coordinates":[143.78,-36.7964]},{"code":"AU-0392","program":"pota","name":"Havelock Nature Conservation Reserve","coordinates":[143.797,-36.9677]},{"code":"AU-0499","program":"pota","name":"Bells Swamp Nature Conservation Reserve","coordinates":[143.954,-36.9022]},{"code":"AU-4050","program":"pota","name":"Bet Bet Bushland Reserve","coordinates":[143.761,-36.918]},{"code":"AU-4077","program":"pota","name":"Blue Hills Bushland Reserve","coordinates":[143.997,-36.9175]},{"code":"AU-4214","program":"pota","name":"Cale Donian Bushland Reserve","coordinates":[143.772,-36.8958]},{"code":"AU-4513","program":"pota","name":"Eddington K25 Streamside Reserve","coordinates":[143.861,-36.8805]},{"code":"AU-4514","program":"pota","name":"Eddington K26 Streamside Reserve","coordinates":[143.852,-36.876]},{"code":"AU-4722","program":"pota","name":"Havelock Bushland Reserve","coordinates":[143.771,-36.9658]},{"code":"AU-5715","program":"pota","name":"Tarnagulla I97 Bushland Reserve","coordinates":[143.801,-36.7603]},{"code":"AU-5716","program":"pota","name":"Tarnagulla I98 Bushland Reserve","coordinates":[143.803,-36.7571]},{"code":"AU-5803","program":"pota","name":"Waanyarra Bushland Reserve","coordinates":[143.852,-36.8589]},{"code":"AU-5913","program":"pota","name":"Wild Duck Dam Bushland Reserve","coordinates":[143.802,-36.8728]},{"code":"AU-5968","program":"pota","name":"Woodstock H68 Bushland Reserve","coordinates":[143.987,-36.8406]},{"code":"AU-6859","program":"pota","name":"Bromley Bushland Reserve","coordinates":[143.763,-36.8934]},{"code":"AU-8417","program":"pota","name":"Tarnagulla State Forest","coordinates":[143.802,-36.8172]},{"code":"AU-11102","program":"pota","name":"Janevale Monier Bridge Historic Reserve","coordinates":[143.898,-36.8252]},{"code":"AU-11163","program":"pota","name":"Simson Historic Reserve","coordinates":[143.761,-36.9966]},{"code":"AU-11182","program":"pota","name":"Wild Dog Diggings Historic Reserve","coordinates":[143.773,-36.8764]}]}