{"lat":-37,"lon":149.75,"programs":["pota"],"count":6,"references":[{"code":"AU-1601","program":"pota","name":"Yurammie State Conservation Area","coordinates":[149.802,-36.8464]},{"code":"AU-2087","program":"pota","name":"Bournda Nature Reserve","coordinates":[149.868,-36.8115]},{"code":"AU-2088","program":"pota","name":"Bournda National Park","coordinates":[149.924,-36.8118]},{"code":"AU-2259","program":"pota","name":"Nethercote Falls Flora Reserve","coordinates":[149.824,-36.9894]},{"code":"AU-2278","program":"pota","name":"Jingera Flora Reserve","coordinates":[149.766,-36.9581]},{"code":"AU-6976","program":"pota","name":"Yurammie State Forest","coordinates":[149.773,-36.9032]}]}