{"lat":-37,"lon":143.25,"programs":["pota","sota"],"count":16,"references":[{"code":"AU-0247","program":"pota","name":"Stuart Mill Nature Conservation Reserve","coordinates":[143.286,-36.76]},{"code":"AU-0270","program":"pota","name":"Redbank Nature Conservation Reserve","coordinates":[143.318,-36.9602]},{"code":"AU-0372","program":"pota","name":"Kara Kara National Park","coordinates":[143.263,-36.8672]},{"code":"AU-0440","program":"pota","name":"Dalyenong West Nature Conservation Reserve","coordinates":[143.376,-36.787]},{"code":"AU-0441","program":"pota","name":"Dalyenong Nature Conservation Reserve","coordinates":[143.448,-36.7884]},{"code":"AU-3927","program":"pota","name":"Archdale Streamside Reserve","coordinates":[143.497,-36.8261]},{"code":"AU-4096","program":"pota","name":"Boola Boloke Bushland Reserve","coordinates":[143.307,-36.7847]},{"code":"AU-4409","program":"pota","name":"Dalyenong I59 Bushland Reserve","coordinates":[143.36,-36.8057]},{"code":"AU-4410","program":"pota","name":"Dalyenong I60 Bushland Reserve","coordinates":[143.483,-36.8403]},{"code":"AU-5278","program":"pota","name":"Moyreisk Bushland Reserve","coordinates":[143.377,-36.9463]},{"code":"AU-5279","program":"pota","name":"Moyreisk I69 Bushland Reserve","coordinates":[143.381,-36.8989]},{"code":"AU-5280","program":"pota","name":"Moyreisk I70 Bushland Reserve","coordinates":[143.414,-36.9642]},{"code":"AU-5678","program":"pota","name":"Stuart Mill Bushland Reserve","coordinates":[143.292,-36.8062]},{"code":"AU-5679","program":"pota","name":"Stuart Mill Streamside Reserve","coordinates":[143.29,-36.7987]},{"code":"AU-11115","program":"pota","name":"Lloyds Whip Shaft Historic & Cultural Features Reserve","coordinates":[143.275,-36.7845]},{"code":"VK3/VW-013","program":"sota","name":"West of England Range","coordinates":[143.25858,-36.91387]}]}