{"lat":-37.75,"lon":145.5,"programs":["pota","sota"],"count":24,"references":[{"code":"AU-3888","program":"pota","name":"Acheron River, Granton Streamside Reserve","coordinates":[145.692,-37.5306]},{"code":"AU-3953","program":"pota","name":"Badger Creek Bushland Reserve","coordinates":[145.542,-37.7002]},{"code":"AU-4426","program":"pota","name":"Dee River Streamside Reserve","coordinates":[145.644,-37.7479]},{"code":"AU-4726","program":"pota","name":"Healesville G156 Bushland Reserve","coordinates":[145.515,-37.647]},{"code":"AU-4727","program":"pota","name":"Healesville G157 Bushland Reserve","coordinates":[145.537,-37.6463]},{"code":"AU-4728","program":"pota","name":"Healesville G158 Bushland Reserve","coordinates":[145.531,-37.6807]},{"code":"AU-5081","program":"pota","name":"Mallesons Lookout Bushland Reserve","coordinates":[145.564,-37.697]},{"code":"AU-5106","program":"pota","name":"Marysville Beauty Spot Natural Features Reserve","coordinates":[145.743,-37.5188]},{"code":"AU-5687","program":"pota","name":"Sylvia Falls Scenic Reserve","coordinates":[145.51,-37.5275]},{"code":"AU-5873","program":"pota","name":"Watts River Streamside Reserve","coordinates":[145.519,-37.6507]},{"code":"AU-8420","program":"pota","name":"Mount Toolebewong State Forest","coordinates":[145.545,-37.7169]},{"code":"AU-8636","program":"pota","name":"Coranderrk Nature Conservation Reserve","coordinates":[145.525,-37.6861]},{"code":"AU-10702","program":"pota","name":"Watts National Wild and Scenic River","coordinates":[145.504,-37.653]},{"code":"AU-11099","program":"pota","name":"Healesville Railway Station Complex Historic Reserve","coordinates":[145.508,-37.6551]},{"code":"VK3/VC-002","program":"sota","name":"Mt Donna Buang","coordinates":[145.68062,-37.70677]},{"code":"VK3/VC-005","program":"sota","name":"Mt Vinegar","coordinates":[145.69543,-37.63843]},{"code":"VK3/VC-006","program":"sota","name":"Mt St Leonard","coordinates":[145.52571,-37.56704]},{"code":"VK3/VC-010","program":"sota","name":"Riddell Ridge","coordinates":[145.5882,-37.67505]},{"code":"VK3/VC-033","program":"sota","name":"Mt Toolebewong","coordinates":[145.56825,-37.70996]},{"code":"VK3/VC-036","program":"sota","name":"Box's Hill","coordinates":[145.58475,-37.64878]},{"code":"VK3/VC-038","program":"sota","name":"Archer Lookout","coordinates":[145.5999,-37.5665]},{"code":"VK3/VN-017","program":"sota","name":"Mt Dom Dom","coordinates":[145.65778,-37.59024]},{"code":"VK3/VN-027","program":"sota","name":"Mt Gordon","coordinates":[145.71228,-37.51604]},{"code":"VK3/VN-030","program":"sota","name":"Mt Strickland","coordinates":[145.7346,-37.56743]}]}