{"lat":-37,"lon":146.25,"programs":["pota","sota"],"count":11,"references":[{"code":"AU-5499","program":"pota","name":"Powers Lookout Scenic Reserve","coordinates":[146.37,-36.8392]},{"code":"AU-5804","program":"pota","name":"Wabonga Bushland Reserve","coordinates":[146.461,-36.8207]},{"code":"AU-5905","program":"pota","name":"Whitfield Scenic Reserve","coordinates":[146.356,-36.7599]},{"code":"AU-8565","program":"pota","name":"Toombullup State Forest","coordinates":[146.267,-36.8231]},{"code":"VK3/VE-122","program":"sota","name":"VK3/VE-122","coordinates":[146.31255,-36.9586]},{"code":"VK3/VE-124","program":"sota","name":"Wombat Hill","coordinates":[146.26428,-36.9556]},{"code":"VK3/VE-171","program":"sota","name":"VK3/VE-171","coordinates":[146.4064,-36.87887]},{"code":"VK3/VE-193","program":"sota","name":"VK3/VE-193","coordinates":[146.2694,-36.77174]},{"code":"VK3/VE-251","program":"sota","name":"VK3/VE-251","coordinates":[146.4688,-36.9392]},{"code":"VK3/VE-254","program":"sota","name":"Mount View","coordinates":[146.4485,-36.902]},{"code":"VK3/VE-280","program":"sota","name":"VK3/VE-280","coordinates":[146.3592,-36.9069]}]}