{"lat":-37.75,"lon":142.25,"programs":["pota","sota"],"count":7,"references":[{"code":"AU-0508","program":"pota","name":"Back Creek Nature Conservation Reserve","coordinates":[142.309,-37.6927]},{"code":"AU-4121","program":"pota","name":"Brady Swamp Wildlife Reserve","coordinates":[142.447,-37.5901]},{"code":"AU-4159","program":"pota","name":"Bryan Swamp Wildlife Reserve","coordinates":[142.259,-37.5582]},{"code":"VK3/VS-011","program":"sota","name":"Mt Abrupt","coordinates":[142.35368,-37.59732]},{"code":"VK3/VS-014","program":"sota","name":"Signal Peak","coordinates":[142.362,-37.5779]},{"code":"VK3/VS-022","program":"sota","name":"Point 727/Serra Range","coordinates":[142.37279,-37.5268]},{"code":"VK3/VS-035","program":"sota","name":"Mt Sturgeon","coordinates":[142.32262,-37.63373]}]}