{"lat":-37.25,"lon":147.75,"programs":["pota","sota"],"count":17,"references":[{"code":"AU-0342","program":"pota","name":"Marble Gully - Mount Tambo Nature Conservation Reserve","coordinates":[147.806,-37.0132]},{"code":"AU-4046","program":"pota","name":"Bentley Plain Natural Features & Scenic Reserve","coordinates":[147.934,-37.2286]},{"code":"AU-5404","program":"pota","name":"Nunniong Plain Natural Features & Scenic Reserve","coordinates":[147.953,-37.1542]},{"code":"AU-8351","program":"pota","name":"Nunniong State Forest","coordinates":[147.882,-37.2023]},{"code":"AU-8585","program":"pota","name":"Stony Creek Natural Catchment Area Reserve","coordinates":[147.751,-37.1117]},{"code":"VK3/VG-012","program":"sota","name":"Brumby Hill","coordinates":[147.99377,-37.02043]},{"code":"VK3/VG-017","program":"sota","name":"Mt Bindi","coordinates":[147.88303,-37.16463]},{"code":"VK3/VG-018","program":"sota","name":"Mt Nugong","coordinates":[147.89731,-37.22852]},{"code":"VK3/VG-023","program":"sota","name":"Mt Tambo","coordinates":[147.80927,-37.0056]},{"code":"VK3/VG-043","program":"sota","name":"VK3/VG-043","coordinates":[147.88551,-37.08799]},{"code":"VK3/VG-054","program":"sota","name":"Bowen Mountains","coordinates":[147.76318,-37.00681]},{"code":"VK3/VG-055","program":"sota","name":"Spring Hill","coordinates":[147.75041,-37.079]},{"code":"VK3/VG-067","program":"sota","name":"Mt Hopeless","coordinates":[147.77763,-37.21043]},{"code":"VK3/VG-102","program":"sota","name":"VK3/VG-102","coordinates":[147.81177,-37.13539]},{"code":"VK3/VG-103","program":"sota","name":"Mt Shanahan","coordinates":[147.81552,-37.06595]},{"code":"VK3/VG-109","program":"sota","name":"Mt Walterson","coordinates":[147.81879,-37.16058]},{"code":"VK3/VG-174","program":"sota","name":"VK3/VG-174","coordinates":[147.7993,-37.1666]}]}