{"lat":-37.5,"lon":149.25,"programs":["pota","sota"],"count":19,"references":[{"code":"AU-10732","program":"pota","name":"Genoa National Wild and Scenic River","coordinates":[149.491,-37.3827]},{"code":"AU-0453","program":"pota","name":"Coopracambra National Park","coordinates":[149.327,-37.3422]},{"code":"AU-7669","program":"pota","name":"Genoa River Heritage River Reserve","coordinates":[149.407,-37.3274]},{"code":"AU-8230","program":"pota","name":"Drummer State Forest","coordinates":[149.377,-37.4568]},{"code":"AU-8588","program":"pota","name":"Winnot Creek Natural Catchment Area Reserve","coordinates":[149.274,-37.2698]},{"code":"AU-8603","program":"pota","name":"Mount Kaye Remote & Natural Area","coordinates":[149.265,-37.3951]},{"code":"AU-8619","program":"pota","name":"Genoa Wilderness Zone","coordinates":[149.348,-37.3183]},{"code":"VK2/SC-030","program":"sota","name":"Mt Walimma","coordinates":[149.4944,-37.2833]},{"code":"VK2/SM-097","program":"sota","name":"Yambulla Peak","coordinates":[149.3981,-37.2622]},{"code":"VK3/VG-065","program":"sota","name":"Mt Coopracambra","coordinates":[149.29427,-37.27908]},{"code":"VK3/VG-078","program":"sota","name":"Mt Denmarsh","coordinates":[149.26498,-37.35625]},{"code":"VK3/VG-093","program":"sota","name":"Pint Pot","coordinates":[149.26128,-37.30766]},{"code":"VK3/VG-094","program":"sota","name":"Mt Wakefield","coordinates":[149.41907,-37.30273]},{"code":"VK3/VG-100","program":"sota","name":"Cooaggalah Hill","coordinates":[149.3076,-37.42031]},{"code":"VK3/VG-101","program":"sota","name":"VK3/VG-101","coordinates":[149.3541,-37.35361]},{"code":"VK3/VG-105","program":"sota","name":"Mt Merragunegin","coordinates":[149.45425,-37.30922]},{"code":"VK3/VG-111","program":"sota","name":"VK3/VG-111","coordinates":[149.25182,-37.44392]},{"code":"VK3/VG-112","program":"sota","name":"VK3/VG-112","coordinates":[149.31271,-37.32919]},{"code":"VK3/VG-128","program":"sota","name":"Mt Future Range","coordinates":[149.34836,-37.45916]}]}