{"lat":-37,"lon":147.75,"programs":["pota","sota"],"count":15,"references":[{"code":"AU-2736","program":"pota","name":"Morass Creek Flora and Fauna Reserve","coordinates":[147.758,-36.9486]},{"code":"AU-5060","program":"pota","name":"Macfarlane Lookout Natural Features & Scenic Reserve","coordinates":[147.801,-36.8779]},{"code":"AU-8149","program":"pota","name":"Beloka State Forest","coordinates":[147.812,-36.7917]},{"code":"AU-8153","program":"pota","name":"Benambra State Forest","coordinates":[147.955,-36.8264]},{"code":"AU-8412","program":"pota","name":"Tambo State Forest","coordinates":[147.889,-36.9829]},{"code":"VK3/VG-008","program":"sota","name":"Mt Misery Range","coordinates":[147.9732,-36.81688]},{"code":"VK3/VG-022","program":"sota","name":"Mt Pendergast","coordinates":[147.97733,-36.87634]},{"code":"VK3/VG-024","program":"sota","name":"Mt Leinster","coordinates":[147.90372,-36.91478]},{"code":"VK3/VG-035","program":"sota","name":"VK3/VG-035","coordinates":[147.85811,-36.95208]},{"code":"VK3/VG-042","program":"sota","name":"Pendergast Lookout","coordinates":[147.83006,-36.85132]},{"code":"VK3/VG-053","program":"sota","name":"VK3/VG-053","coordinates":[147.77844,-36.84986]},{"code":"VK3/VG-059","program":"sota","name":"Macfarlane Lookout","coordinates":[147.80457,-36.87944]},{"code":"VK3/VG-072","program":"sota","name":"Mt Bung Bung","coordinates":[147.7875,-36.96699]},{"code":"VK3/VG-155","program":"sota","name":"VK3/VG-155","coordinates":[147.831,-36.9114]},{"code":"VK3/VG-158","program":"sota","name":"VK3/VG-158","coordinates":[147.8789,-36.7593]}]}