{"lat":-37.25,"lon":148,"programs":["pota","sota"],"count":11,"references":[{"code":"AU-0305","program":"pota","name":"Mount Stewart Nature Conservation Reserve","coordinates":[148.172,-37.2455]},{"code":"AU-3962","program":"pota","name":"Bald Hills Road Bushland Reserve","coordinates":[148.248,-37.1479]},{"code":"AU-5269","program":"pota","name":"Mount Stewart Natural Features & Scenic Reserve","coordinates":[148.12,-37.2428]},{"code":"AU-5403","program":"pota","name":"Nunnett Plain Natural Features & Scenic Reserve","coordinates":[148.006,-37.2049]},{"code":"AU-7680","program":"pota","name":"Upper Buchan River Heritage River Reserve","coordinates":[148.145,-37.0096]},{"code":"AU-8244","program":"pota","name":"Gelantipy State Forest","coordinates":[148.199,-37.1991]},{"code":"AU-8350","program":"pota","name":"Nunnett State Forest","coordinates":[148.066,-37.2219]},{"code":"VK3/VG-011","program":"sota","name":"Mt Nunniong","coordinates":[148.02972,-37.10215]},{"code":"VK3/VG-019","program":"sota","name":"Forlorn Hope","coordinates":[148.07903,-37.00706]},{"code":"VK3/VG-029","program":"sota","name":"Mt Seldom Seen","coordinates":[148.19284,-37.09791]},{"code":"VK3/VG-091","program":"sota","name":"Mt Stewart","coordinates":[148.12741,-37.23827]}]}