{"lat":-37,"lon":145.25,"programs":["pota","sota"],"count":15,"references":[{"code":"AU-0332","program":"pota","name":"Monea North Nature Conservation Reserve","coordinates":[145.32,-36.7685]},{"code":"AU-0494","program":"pota","name":"Big Hill Nature Conservation Reserve","coordinates":[145.431,-36.8296]},{"code":"AU-2792","program":"pota","name":"Tenneriffe Flora Reserve","coordinates":[145.386,-36.8462]},{"code":"AU-2814","program":"pota","name":"Wallaby Gully Flora Reserve","coordinates":[145.43,-36.8926]},{"code":"AU-4060","program":"pota","name":"Bishops Mitre Rock Scenic Reserve","coordinates":[145.472,-36.9869]},{"code":"AU-4206","program":"pota","name":"Burnt Creek Bushland Reserve","coordinates":[145.338,-36.8557]},{"code":"AU-5203","program":"pota","name":"Monea North Bushland Reserve","coordinates":[145.265,-36.7804]},{"code":"AU-5204","program":"pota","name":"Monea South I41 Bushland Reserve","coordinates":[145.408,-36.8611]},{"code":"AU-5205","program":"pota","name":"Monea South I42 Bushland Reserve","coordinates":[145.415,-36.8731]},{"code":"AU-5416","program":"pota","name":"Old Longwood Bushland Reserve","coordinates":[145.439,-36.8272]},{"code":"AU-5569","program":"pota","name":"Ruffy Bushland Reserve","coordinates":[145.482,-36.9987]},{"code":"AU-6873","program":"pota","name":"Locksley Bushland Reserve","coordinates":[145.338,-36.833]},{"code":"VK3/VN-025","program":"sota","name":"Razorback Range","coordinates":[145.27518,-36.98772]},{"code":"VK3/VU-005","program":"sota","name":"Callen Range","coordinates":[145.3106,-36.99187]},{"code":"VK3/VU-013","program":"sota","name":"Mt Bernard","coordinates":[145.27443,-36.92101]}]}