{"lat":-37.75,"lon":149.25,"programs":["pota","sota"],"count":9,"references":[{"code":"AU-0202","program":"pota","name":"Wingan River West Nature Conservation Reserve","coordinates":[149.397,-37.5535]},{"code":"AU-0445","program":"pota","name":"Croajingolong National Park","coordinates":[149.483,-37.65]},{"code":"AU-0515","program":"pota","name":"Alfred National Park","coordinates":[149.363,-37.5721]},{"code":"AU-8449","program":"pota","name":"Wingan State Forest","coordinates":[149.471,-37.5984]},{"code":"AU-8605","program":"pota","name":"Rame Head Remote & Natural Area","coordinates":[149.376,-37.734]},{"code":"VK3/VG-137","program":"sota","name":"Granite Peak","coordinates":[149.35602,-37.52299]},{"code":"VK3/VG-148","program":"sota","name":"VK3/VG-148","coordinates":[149.49902,-37.57051]},{"code":"VK3/VG-151","program":"sota","name":"Mt Everard","coordinates":[149.28726,-37.71629]},{"code":"VK3/VG-178","program":"sota","name":"Treacy Lookout","coordinates":[149.3744,-37.516]}]}