{"lat":-37,"lon":-60.5,"programs":["pota"],"count":6,"references":[{"code":"AR-0170","program":"pota","name":"Mitre Park","coordinates":[-60.3261,-36.8906]},{"code":"AR-0171","program":"pota","name":"Parque del Bicentenario Nature Park","coordinates":[-60.3315,-36.894]},{"code":"AR-0176","program":"pota","name":"Parque Helios Eseverri Nature Park","coordinates":[-60.3082,-36.8782]},{"code":"AR-0182","program":"pota","name":"Parque Sur Olavarria Nature Park","coordinates":[-60.3473,-36.9023]},{"code":"AR-0216","program":"pota","name":"Alberdi Park","coordinates":[-60.3317,-36.88]},{"code":"AR-0304","program":"pota","name":"Avellaneda Park","coordinates":[-60.3214,-36.92]}]}