{"lat":-37.75,"lon":175,"programs":["pota","sota"],"count":7,"references":[{"code":"NZ-0574","program":"pota","name":"Hakarimata Scenic Reserve","coordinates":[175.133,-37.6435]},{"code":"NZ-0862","program":"pota","name":"Taupiri Scenic Reserve","coordinates":[175.202,-37.5703]},{"code":"NZ-0872","program":"pota","name":"Lake Waahi Recreation Park","coordinates":[175.123,-37.5584]},{"code":"ZL1/WK-157","program":"sota","name":"Hakarimata","coordinates":[175.125,-37.6619]},{"code":"ZL1/WK-176","program":"sota","name":"Taupiri","coordinates":[175.1863,-37.6032]},{"code":"ZL1/WK-177","program":"sota","name":"Te Herunga","coordinates":[175,-37.5893]},{"code":"ZL1/WK-179","program":"sota","name":"Pukemore","coordinates":[175.222,-37.5301]}]}