{"lat":-37.75,"lon":141.25,"programs":["pota"],"count":10,"references":[{"code":"AU-2734","program":"pota","name":"Mocamboro Flora Reserve","coordinates":[141.373,-37.7283]},{"code":"AU-2829","program":"pota","name":"Wilkin Flora and Fauna Reserve","coordinates":[141.274,-37.7199]},{"code":"AU-3954","program":"pota","name":"Bahgallah Bushland Reserve","coordinates":[141.407,-37.649]},{"code":"AU-4621","program":"pota","name":"Glenelg River (8) Streamside Reserve","coordinates":[141.285,-37.6658]},{"code":"AU-4622","program":"pota","name":"Glenelg River J12 Streamside Reserve","coordinates":[141.356,-37.6731]},{"code":"AU-5177","program":"pota","name":"Mocamboro H29 Bushland Reserve","coordinates":[141.477,-37.7306]},{"code":"AU-5584","program":"pota","name":"Sandford Streamside Reserve","coordinates":[141.422,-37.611]},{"code":"AU-8138","program":"pota","name":"Bahgallah State Forest","coordinates":[141.31,-37.6462]},{"code":"AU-10664","program":"pota","name":"Wannon National Wild and Scenic River","coordinates":[141.445,-37.6051]},{"code":"AU-10665","program":"pota","name":"Wando National Wild and Scenic River","coordinates":[141.402,-37.5127]}]}