{"lat":-37.5,"lon":146.25,"programs":["pota","sota"],"count":14,"references":[{"code":"AU-5266","program":"pota","name":"Mount Skene Natural Features & Scenic Reserve","coordinates":[146.392,-37.442]},{"code":"AU-8142","program":"pota","name":"Barkly River State Forest","coordinates":[146.489,-37.4856]},{"code":"AU-8610","program":"pota","name":"The Governors Remote & Natural Area","coordinates":[146.387,-37.2646]},{"code":"VK3/VE-026","program":"sota","name":"Mt Mcdonald","coordinates":[146.46413,-37.28659]},{"code":"VK3/VE-031","program":"sota","name":"Mt Skene","coordinates":[146.38515,-37.42682]},{"code":"VK3/VE-046","program":"sota","name":"The Governor","coordinates":[146.39667,-37.25922]},{"code":"VK3/VE-050","program":"sota","name":"Mt Sunday","coordinates":[146.42424,-37.33958]},{"code":"VK3/VE-065","program":"sota","name":"Mountain Ash Top","coordinates":[146.49069,-37.36332]},{"code":"VK3/VE-075","program":"sota","name":"VK3/VE-075","coordinates":[146.39967,-37.30611]},{"code":"VK3/VE-091","program":"sota","name":"VK3/VE-091","coordinates":[146.34047,-37.49508]},{"code":"VK3/VE-106","program":"sota","name":"VK3/VE-106","coordinates":[146.34148,-37.25172]},{"code":"VK3/VE-108","program":"sota","name":"VK3/VE-108","coordinates":[146.32556,-37.26515]},{"code":"VK3/VE-116","program":"sota","name":"VK3/VE-116","coordinates":[146.29279,-37.27397]},{"code":"VK3/VE-152","program":"sota","name":"VK3/VE-152","coordinates":[146.25323,-37.28094]}]}