{"lat":-37.25,"lon":143.75,"programs":["pota"],"count":16,"references":[{"code":"AU-4240","program":"pota","name":"Carisbrook Bushland Reserve","coordinates":[143.793,-37.067]},{"code":"AU-4241","program":"pota","name":"Carisbrook Streamside Reserve","coordinates":[143.815,-37.0536]},{"code":"AU-4577","program":"pota","name":"Frogmore Swamp Wildlife Reserve","coordinates":[143.924,-37.0067]},{"code":"AU-5073","program":"pota","name":"Majorca Racecourse Bushland Reserve","coordinates":[143.817,-37.1151]},{"code":"AU-5104","program":"pota","name":"Maryborough H58 Bushland Reserve","coordinates":[143.76,-37.0021]},{"code":"AU-5128","program":"pota","name":"Merin Merin & Middle Swamp Wildlife Reserve","coordinates":[143.793,-37.2246]},{"code":"AU-5257","program":"pota","name":"Mount Glasgow Scenic Reserve","coordinates":[143.751,-37.2087]},{"code":"AU-5764","program":"pota","name":"Tullaroop Creek Streamside Reserve","coordinates":[143.835,-37.2281]},{"code":"AU-8206","program":"pota","name":"Clunes State Forest","coordinates":[143.758,-37.2328]},{"code":"AU-8217","program":"pota","name":"Craigie State Forest","coordinates":[143.771,-37.0713]},{"code":"AU-8233","program":"pota","name":"Eglington State Forest","coordinates":[143.783,-37.1623]},{"code":"AU-8271","program":"pota","name":"Havelock State Forest","coordinates":[143.777,-37.0179]},{"code":"AU-8307","program":"pota","name":"Majorca State Forest","coordinates":[143.824,-37.1272]},{"code":"AU-8312","program":"pota","name":"Maryborough State Forest","coordinates":[143.753,-37.0612]},{"code":"AU-11110","program":"pota","name":"Kong Meng Historic & Cultural Features Reserve","coordinates":[143.808,-37.0997]},{"code":"AU-11118","program":"pota","name":"Majorca Historic & Cultural Features Reserve","coordinates":[143.795,-37.1193]}]}