{"lat":-37.25,"lon":146.25,"programs":["pota","sota"],"count":17,"references":[{"code":"AU-7672","program":"pota","name":"Howqua River Heritage River Reserve","coordinates":[146.319,-37.2129]},{"code":"AU-8225","program":"pota","name":"Delatite Education Area State Forest","coordinates":[146.337,-37.1211]},{"code":"AU-8563","program":"pota","name":"Mansfield State Forest","coordinates":[146.293,-37.1749]},{"code":"AU-8564","program":"pota","name":"Mount Russell Education Area State Forest","coordinates":[146.398,-37.1008]},{"code":"AU-11100","program":"pota","name":"Howqua Hills Historic Area Reserve","coordinates":[146.337,-37.1946]},{"code":"VK3/VE-008","program":"sota","name":"Mt Buller","coordinates":[146.42574,-37.14399]},{"code":"VK3/VE-011","program":"sota","name":"Mt Stirling","coordinates":[146.49791,-37.12629]},{"code":"VK3/VE-013","program":"sota","name":"The Bluff","coordinates":[146.49156,-37.23353]},{"code":"VK3/VE-033","program":"sota","name":"Mt Number 3","coordinates":[146.42526,-37.05655]},{"code":"VK3/VE-036","program":"sota","name":"Mt Winstanley","coordinates":[146.45193,-37.10084]},{"code":"VK3/VE-045","program":"sota","name":"Eagle Peaks","coordinates":[146.4216,-37.24312]},{"code":"VK3/VE-047","program":"sota","name":"Rocky Ridge","coordinates":[146.46568,-37.2253]},{"code":"VK3/VE-073","program":"sota","name":"Mt Timbertop","coordinates":[146.31755,-37.15333]},{"code":"VK3/VE-087","program":"sota","name":"Bald Hill","coordinates":[146.35011,-37.03272]},{"code":"VK3/VE-110","program":"sota","name":"VK3/VE-110","coordinates":[146.38708,-37.04825]},{"code":"VK3/VE-123","program":"sota","name":"VK3/VE-123","coordinates":[146.2826,-37.16964]},{"code":"VK3/VE-278","program":"sota","name":"VK3/VE-278","coordinates":[146.3579,-37.1438]}]}