{"lat":-37,"lon":139.5,"programs":["iota","pota"],"count":6,"references":[{"code":"OC-228","program":"iota","name":"SOUTH AUSTRALIA STATE EAST group","coordinates":[139.73500061,-36.800001145]},{"code":"AU-0652","program":"pota","name":"Upper South East Marine Park","coordinates":[139.717,-36.7899]},{"code":"AU-0982","program":"pota","name":"Bernouilli Conservation Reserve","coordinates":[139.682,-36.969]},{"code":"AU-9397","program":"pota","name":"Kings Camp State Beach","coordinates":[139.708,-36.9355]},{"code":"AU-9398","program":"pota","name":"Cape Jaffa State Beach","coordinates":[139.671,-36.9526]},{"code":"AU-9399","program":"pota","name":"Wright Bay State Beach","coordinates":[139.714,-36.9958]}]}