{"lat":-37.5,"lon":142,"programs":["pota","sota"],"count":8,"references":[{"code":"AU-4587","program":"pota","name":"Geerak Bushland Reserve","coordinates":[142.149,-37.4788]},{"code":"AU-5797","program":"pota","name":"Victoria Lagoon Wildlife Reserve","coordinates":[142.169,-37.3783]},{"code":"AU-8146","program":"pota","name":"Beear State Forest","coordinates":[142.05,-37.3596]},{"code":"AU-8240","program":"pota","name":"Fergusons State Forest","coordinates":[142.099,-37.2867]},{"code":"AU-8368","program":"pota","name":"Rocklands State Forest","coordinates":[142.038,-37.2516]},{"code":"AU-8454","program":"pota","name":"Woohpooer State Forest","coordinates":[142.16,-37.3167]},{"code":"VK3/VS-010","program":"sota","name":"South Victoria Range","coordinates":[142.24815,-37.44977]},{"code":"VK3/VS-023","program":"sota","name":"Point 726/Victoria Range","coordinates":[142.22366,-37.40406]}]}