{"lat":-37.75,"lon":-70.5,"programs":["sota"],"count":12,"references":[{"code":"LUY/QN-024","program":"sota","name":"Loma Del Manzano","coordinates":[-70.4838,-37.5476]},{"code":"LUY/QN-032","program":"sota","name":"Co. De Los Bueyes","coordinates":[-70.4188,-37.7196]},{"code":"LUY/QN-036","program":"sota","name":"Co Del Diablo","coordinates":[-70.4442,-37.6307]},{"code":"LUY/QN-039","program":"sota","name":"LUY/QN-039","coordinates":[-70.4301,-37.6395]},{"code":"LUY/QN-043","program":"sota","name":"LUY/QN-043","coordinates":[-70.4859,-37.642]},{"code":"LUY/QN-053","program":"sota","name":"LUY/QN-053","coordinates":[-70.3439,-37.6945]},{"code":"LUY/QN-054","program":"sota","name":"LUY/QN-054","coordinates":[-70.3797,-37.6242]},{"code":"LUY/QN-057","program":"sota","name":"Co. Pichi Trolon","coordinates":[-70.4045,-37.743]},{"code":"LUY/QN-058","program":"sota","name":"Loma La Argentina","coordinates":[-70.3754,-37.542]},{"code":"LUY/QN-061","program":"sota","name":"Loma Del Aguila","coordinates":[-70.3603,-37.5789]},{"code":"LUY/QN-066","program":"sota","name":"Pitren","coordinates":[-70.2986,-37.5078]},{"code":"LUY/QN-071","program":"sota","name":"LUY/QN-071","coordinates":[-70.3191,-37.6331]}]}