{"lat":-37.5,"lon":140.25,"programs":["pota"],"count":6,"references":[{"code":"AU-0887","program":"pota","name":"Furner Conservation Park","coordinates":[140.265,-37.374]},{"code":"AU-6655","program":"pota","name":"Gillap North Forest Reserve","coordinates":[140.271,-37.3916]},{"code":"AU-6656","program":"pota","name":"Gillap South Forest Reserve","coordinates":[140.3,-37.4174]},{"code":"AU-6666","program":"pota","name":"Kennion Forest Reserve","coordinates":[140.314,-37.4222]},{"code":"AU-6682","program":"pota","name":"Rocky Reserve Forest Reserve","coordinates":[140.316,-37.4419]},{"code":"AU-6693","program":"pota","name":"White Waterhole Forest Reserve","coordinates":[140.319,-37.4552]}]}