{"lat":-38.5,"lon":176.75,"programs":["gma","sota"],"count":14,"references":[{"code":"XZL1/BP-108","program":"gma","name":"Kanohinui","coordinates":[176.886,-38.4608]},{"code":"ZL1/BP-048","program":"sota","name":"ZL1/BP-048","coordinates":[176.8216,-38.4671]},{"code":"ZL1/BP-051","program":"sota","name":"ZL1/BP-051","coordinates":[176.8207,-38.4917]},{"code":"ZL1/BP-070","program":"sota","name":"ZL1/BP-070","coordinates":[176.8869,-38.3895]},{"code":"ZL1/BP-083","program":"sota","name":"Mataarakutia","coordinates":[176.8594,-38.3838]},{"code":"ZL1/BP-098","program":"sota","name":"ZL1/BP-098","coordinates":[176.877,-38.4126]},{"code":"ZL1/BP-103","program":"sota","name":"Terangaaruanuku","coordinates":[176.988,-38.4591]},{"code":"ZL1/BP-106","program":"sota","name":"ZL1/BP-106","coordinates":[176.8649,-38.4433]},{"code":"ZL1/BP-139","program":"sota","name":"ZL1/BP-139","coordinates":[176.8935,-38.3029]},{"code":"ZL1/BP-151","program":"sota","name":"Te Whakaumu","coordinates":[176.9327,-38.2521]},{"code":"ZL1/BP-171","program":"sota","name":"Totoroieke","coordinates":[176.9781,-38.2827]},{"code":"ZL1/BP-246","program":"sota","name":"Hikurangi","coordinates":[176.8572,-38.3501]},{"code":"ZL1/BP-252","program":"sota","name":"Rakautapu","coordinates":[176.9361,-38.3595]},{"code":"ZL1/BP-259","program":"sota","name":"ZL1/BP-259","coordinates":[176.962,-38.474]}]}