{"lat":-38.75,"lon":174.75,"programs":["pota","sota"],"count":8,"references":[{"code":"NZ-0165","program":"pota","name":"Mohakatino Conservation Area","coordinates":[174.818,-38.7471]},{"code":"NZ-0564","program":"pota","name":"Panirau Conservation Area","coordinates":[174.936,-38.6967]},{"code":"NZ-0568","program":"pota","name":"Mokau River Scenic Reserve","coordinates":[174.819,-38.7071]},{"code":"NZ-0582","program":"pota","name":"Mahoenui Conservation Area","coordinates":[174.804,-38.6266]},{"code":"NZ-0870","program":"pota","name":"Mokau Scenic Reserve","coordinates":[174.785,-38.6813]},{"code":"ZL1/WK-132","program":"sota","name":"ZL1/WK-132","coordinates":[174.8508,-38.654]},{"code":"ZL1/WK-167","program":"sota","name":"Pukekiekie","coordinates":[174.9899,-38.6029]},{"code":"ZL1/WK-205","program":"sota","name":"Herangi Range","coordinates":[174.7654,-38.5114]}]}