{"lat":-38.5,"lon":176.25,"programs":["pota","sota"],"count":8,"references":[{"code":"NZ-0630","program":"pota","name":"Waimangu Scenic Reserve","coordinates":[176.419,-38.2849]},{"code":"NZ-0569","program":"pota","name":"Te Kopia Scenic Reserve","coordinates":[176.257,-38.3894]},{"code":"ZL1/BP-129","program":"sota","name":"Maungaongaonga","coordinates":[176.3438,-38.3271]},{"code":"ZL1/BP-153","program":"sota","name":"Tumunui Hill","coordinates":[176.3051,-38.2778]},{"code":"ZL1/BP-159","program":"sota","name":"Maungakakaramea","coordinates":[176.3882,-38.3193]},{"code":"ZL1/WK-030","program":"sota","name":"Paeroa","coordinates":[176.2584,-38.3803]},{"code":"ZL1/WK-089","program":"sota","name":"ZL1/WK-089","coordinates":[176.3251,-38.3537]},{"code":"ZL1/WK-107","program":"sota","name":"ZL1/WK-107","coordinates":[176.2549,-38.4545]}]}