{"lat":-38,"lon":143.75,"programs":["pota"],"count":6,"references":[{"code":"AU-0313","program":"pota","name":"Mount Mercer Nature Conservation Reserve","coordinates":[143.919,-37.8787]},{"code":"AU-2823","program":"pota","name":"Warrambine Flora Reserve","coordinates":[143.859,-37.943]},{"code":"AU-4237","program":"pota","name":"Cargerie I42 Bushland Reserve","coordinates":[143.932,-37.8547]},{"code":"AU-4238","program":"pota","name":"Cargerie I43 Bushland Reserve","coordinates":[143.939,-37.8348]},{"code":"AU-4444","program":"pota","name":"Dereel H28 Bushland Reserve","coordinates":[143.761,-37.8333]},{"code":"AU-4834","program":"pota","name":"Karuc-a-ruc Creek Streamside Reserve","coordinates":[143.801,-37.8416]}]}