{"lat":-38,"lon":148.75,"programs":["pota"],"count":8,"references":[{"code":"AU-0470","program":"pota","name":"Cape Conran Coastal Park","coordinates":[148.854,-37.7684]},{"code":"AU-7667","program":"pota","name":"Bemm, Goolengook, Arte and Errinundra Rivers Heritage Rivers Reserve","coordinates":[148.977,-37.7633]},{"code":"AU-10157","program":"pota","name":"Binn Beach State Beach","coordinates":[148.923,-37.7814]},{"code":"AU-10166","program":"pota","name":"Cabins Beach State Beach","coordinates":[148.755,-37.7952]},{"code":"AU-10354","program":"pota","name":"Swampy Creek Beach State Beach","coordinates":[148.762,-37.7932]},{"code":"AU-10395","program":"pota","name":"Yeerung River Beach State Beach","coordinates":[148.774,-37.7909]},{"code":"AU-10624","program":"pota","name":"Bemm National Wild and Scenic River","coordinates":[148.956,-37.7539]},{"code":"AU-10625","program":"pota","name":"Yeeyung National Wild and Scenic River","coordinates":[148.775,-37.7899]}]}