{"lat":-38,"lon":175.75,"programs":["pota","sota"],"count":5,"references":[{"code":"NZ-0301","program":"pota","name":"Opuiaki Ecological Area","coordinates":[175.952,-37.9489]},{"code":"NZ-0571","program":"pota","name":"Gordon Park Scenic Reserve","coordinates":[175.904,-37.766]},{"code":"ZL1/WK-061","program":"sota","name":"Te Weraiti","coordinates":[175.9058,-37.8285]},{"code":"ZL1/WK-081","program":"sota","name":"Hiwiroa","coordinates":[175.9672,-37.983]},{"code":"ZL1/WK-098","program":"sota","name":"Takaurunga","coordinates":[175.9364,-37.8807]}]}