{"lat":-38.25,"lon":144.5,"programs":["pota"],"count":20,"references":[{"code":"AU-2767","program":"pota","name":"Portarlington Flora and Fauna Reserve","coordinates":[144.631,-38.117]},{"code":"AU-2776","program":"pota","name":"Salt Lagoon, St Leonards Wildlife Reserve","coordinates":[144.71,-38.1588]},{"code":"AU-2788","program":"pota","name":"Swan Bay - Edwards Point Wildlife Reserve","coordinates":[144.705,-38.2046]},{"code":"AU-2796","program":"pota","name":"The Spit Wildlife Reserve","coordinates":[144.524,-38.0469]},{"code":"AU-4032","program":"pota","name":"Bellarine I109 Bushland Reserve","coordinates":[144.55,-38.2315]},{"code":"AU-4033","program":"pota","name":"Bellarine I110 Bushland Reserve","coordinates":[144.561,-38.1919]},{"code":"AU-4475","program":"pota","name":"Drakes Bushland Reserve","coordinates":[144.589,-38.1671]},{"code":"AU-7640","program":"pota","name":"Bellarine Rail State Trail","coordinates":[144.551,-38.1786]},{"code":"AU-8961","program":"pota","name":"Clifton Springs Beach State Beach","coordinates":[144.55,-38.1554]},{"code":"AU-8976","program":"pota","name":"First Avenue Beach St Leonards State Beach","coordinates":[144.718,-38.1696]},{"code":"AU-8987","program":"pota","name":"Indented Head Beach State Beach","coordinates":[144.715,-38.1433]},{"code":"AU-8993","program":"pota","name":"Milly's Beach St Leonards State Beach","coordinates":[144.711,-38.1958]},{"code":"AU-9002","program":"pota","name":"Northern Beach St Leonards State Beach","coordinates":[144.716,-38.164]},{"code":"AU-9003","program":"pota","name":"Point Richards Beach State Beach","coordinates":[144.628,-38.1103]},{"code":"AU-9005","program":"pota","name":"Portarlington Beach State Beach","coordinates":[144.64,-38.1095]},{"code":"AU-9012","program":"pota","name":"Salt Lagoons North Beach State Beach","coordinates":[144.716,-38.1577]},{"code":"AU-9013","program":"pota","name":"Salt Lagoons South Beach State Beach","coordinates":[144.716,-38.1607]},{"code":"AU-9023","program":"pota","name":"St Leonards Beach State Beach","coordinates":[144.712,-38.1891]},{"code":"AU-9026","program":"pota","name":"The Dell Clifton Springs Beach State Beach","coordinates":[144.563,-38.1524]},{"code":"AU-10640","program":"pota","name":"Little National Wild and Scenic River","coordinates":[144.589,-38.0041]}]}