{"lat":-38.5,"lon":142,"programs":["pota"],"count":18,"references":[{"code":"AU-0189","program":"pota","name":"Yambuk Wetlands Nature Conservation Reserve","coordinates":[142.013,-38.2983]},{"code":"AU-2700","program":"pota","name":"Lake Aringa Wildlife Reserve","coordinates":[142.173,-38.3385]},{"code":"AU-2838","program":"pota","name":"Yambuk Flora and Fauna Reserve","coordinates":[142.086,-38.3568]},{"code":"AU-4661","program":"pota","name":"Goose Lagoon Wildlife Reserve","coordinates":[142.167,-38.3755]},{"code":"AU-9965","program":"pota","name":"Eumeralla State Beach","coordinates":[142.018,-38.3197]},{"code":"AU-9966","program":"pota","name":"Yambuk State Beach","coordinates":[142.051,-38.3418]},{"code":"AU-9967","program":"pota","name":"The Craigs State Beach","coordinates":[142.11,-38.3714]},{"code":"AU-9968","program":"pota","name":"Taylors State Beach","coordinates":[142.174,-38.39]},{"code":"AU-9969","program":"pota","name":"Little River State Beach","coordinates":[142.185,-38.3917]},{"code":"AU-9970","program":"pota","name":"Pea Soup State Beach","coordinates":[142.226,-38.3919]},{"code":"AU-9971","program":"pota","name":"Southcombe State Beach","coordinates":[142.231,-38.3923]},{"code":"AU-9972","program":"pota","name":"Griffiths Island State Beach","coordinates":[142.247,-38.395]},{"code":"AU-10001","program":"pota","name":"East State Beach","coordinates":[142.245,-38.3774]},{"code":"AU-10264","program":"pota","name":"Little River Beach State Beach","coordinates":[142.185,-38.3917]},{"code":"AU-10302","program":"pota","name":"Pea Soup Beach State Beach","coordinates":[142.226,-38.3919]},{"code":"AU-10660","program":"pota","name":"Moyne National Wild and Scenic River","coordinates":[142.245,-38.3901]},{"code":"AU-10668","program":"pota","name":"Shaw National Wild and Scenic River","coordinates":[142.063,-38.3141]},{"code":"AU-10669","program":"pota","name":"Eumeralla National Wild and Scenic River","coordinates":[142.02,-38.304]}]}