{"lat":-38.75,"lon":145.25,"programs":["pota"],"count":22,"references":[{"code":"AU-10141","program":"pota","name":"Sandy Waterhole Beach State Beach","coordinates":[145.447,-38.5446]},{"code":"AU-10143","program":"pota","name":"Anzacs Beach State Beach","coordinates":[145.333,-38.5379]},{"code":"AU-10160","program":"pota","name":"Bore Beach State Beach","coordinates":[145.386,-38.5537]},{"code":"AU-10171","program":"pota","name":"Cape Woolamai Beach State Beach","coordinates":[145.341,-38.5331]},{"code":"AU-10178","program":"pota","name":"Childrens Beach State Beach","coordinates":[145.364,-38.5238]},{"code":"AU-10181","program":"pota","name":"Churchhill Beach State Beach","coordinates":[145.331,-38.5058]},{"code":"AU-10188","program":"pota","name":"Cowrie Patch Beach State Beach","coordinates":[145.346,-38.5569]},{"code":"AU-10224","program":"pota","name":"Forest Caves Beach State Beach","coordinates":[145.306,-38.5178]},{"code":"AU-10237","program":"pota","name":"Half Moon Bay Beach State Beach","coordinates":[145.43,-38.5382]},{"code":"AU-10251","program":"pota","name":"Kilcunda Beach State Beach","coordinates":[145.477,-38.5527]},{"code":"AU-10252","program":"pota","name":"Kilcunda Surf Beach State Beach","coordinates":[145.486,-38.5579]},{"code":"AU-10290","program":"pota","name":"Newhaven Cove Beach State Beach","coordinates":[145.356,-38.5087]},{"code":"AU-10321","program":"pota","name":"San Remo Back Beach State Beach","coordinates":[145.37,-38.5269]},{"code":"AU-10322","program":"pota","name":"Punchbowl Rocks Beach State Beach","coordinates":[145.409,-38.5372]},{"code":"AU-10328","program":"pota","name":"Shelley Beach (Kilcunda) State Beach","coordinates":[145.47,-38.5503]},{"code":"AU-10342","program":"pota","name":"Smiths Beach State Beach","coordinates":[145.255,-38.5039]},{"code":"AU-10352","program":"pota","name":"Surf Beach State Beach","coordinates":[145.285,-38.5098]},{"code":"AU-10362","program":"pota","name":"Throne Rock Beach State Beach","coordinates":[145.437,-38.5402]},{"code":"AU-10389","program":"pota","name":"Woolamai Public Beach State Beach","coordinates":[145.342,-38.5266]},{"code":"AU-10390","program":"pota","name":"Woolami Surf Beach State Beach","coordinates":[145.341,-38.5463]},{"code":"AU-10394","program":"pota","name":"YCW Beach State Beach","coordinates":[145.25,-38.5042]},{"code":"AU-11107","program":"pota","name":"Kilcunda Coal-Mine Historic &Cultural Features Reserve","coordinates":[145.463,-38.5433]}]}