{"lat":-38.75,"lon":-72.75,"programs":["pota"],"count":6,"references":[{"code":"CL-0057","program":"pota","name":"Cerro nielol Natural Monument","coordinates":[-72.5885,-38.7261]},{"code":"CL-0237","program":"pota","name":"Parque Urbano Isla Cautín Recreation Park","coordinates":[-72.5996,-38.7486]},{"code":"CL-0238","program":"pota","name":"Humedal Urbano Rio Cautin-Sector Antumalén Wetland Reserve","coordinates":[-72.5409,-38.7125]},{"code":"CL-0280","program":"pota","name":"German Becker Recreation Park","coordinates":[-72.6219,-38.7419]},{"code":"CL-0281","program":"pota","name":"Parque Ecológico y Cultural Rucamanque Ecological Park","coordinates":[-72.6059,-38.6594]},{"code":"CL-0283","program":"pota","name":"Humedal Urbano Vegas de Chivilcán Wetland Reserve","coordinates":[-72.6055,-38.7091]}]}