{"lat":-38.5,"lon":147,"programs":["pota"],"count":11,"references":[{"code":"AU-0295","program":"pota","name":"Ninety Mile Beach Marine National Park","coordinates":[147.182,-38.4188]},{"code":"AU-2666","program":"pota","name":"Giffard Flora Reserve","coordinates":[147.039,-38.3283]},{"code":"AU-4419","program":"pota","name":"Darriman H29 Bushland Reserve","coordinates":[147.085,-38.4181]},{"code":"AU-4606","program":"pota","name":"Giffard H30 Bushland Reserve","coordinates":[147.111,-38.3402]},{"code":"AU-4607","program":"pota","name":"Giffard H31 Bushland Reserve","coordinates":[147.123,-38.3568]},{"code":"AU-4784","program":"pota","name":"Jack Smith Lake Wildlife Reserve","coordinates":[147.04,-38.4805]},{"code":"AU-4932","program":"pota","name":"Lake Denison Wildlife Reserve","coordinates":[147.148,-38.3993]},{"code":"AU-10229","program":"pota","name":"Glomar Beach State Beach","coordinates":[147.245,-38.336]},{"code":"AU-10277","program":"pota","name":"McGauran Beach State Beach","coordinates":[147.104,-38.4462]},{"code":"AU-10324","program":"pota","name":"Seaspray Beach State Beach","coordinates":[147.188,-38.3799]},{"code":"AU-10357","program":"pota","name":"The Honeysuckles State Beach","coordinates":[147.221,-38.3545]}]}