{"lat":-38,"lon":140.25,"programs":["pota"],"count":12,"references":[{"code":"AU-0811","program":"pota","name":"Lower South East Marine Park","coordinates":[140.473,-37.8436]},{"code":"AU-0944","program":"pota","name":"Carpenter Rocks Conservation Park","coordinates":[140.415,-37.9185]},{"code":"AU-0965","program":"pota","name":"Bucks Lake Game Reserve","coordinates":[140.401,-37.9065]},{"code":"AU-9453","program":"pota","name":"Number One Rock State Beach","coordinates":[140.322,-37.7966]},{"code":"AU-9454","program":"pota","name":"Number Two Rocks State Beach","coordinates":[140.33,-37.8162]},{"code":"AU-9455","program":"pota","name":"Admella State Beach","coordinates":[140.342,-37.8339]},{"code":"AU-9456","program":"pota","name":"Cape Banks State Beach","coordinates":[140.391,-37.9066]},{"code":"AU-9457","program":"pota","name":"Bucks Bay State Beach","coordinates":[140.397,-37.9137]},{"code":"AU-9458","program":"pota","name":"Rapids State Beach","coordinates":[140.405,-37.9171]},{"code":"AU-9459","program":"pota","name":"Bungalow Bay State Beach","coordinates":[140.421,-37.926]},{"code":"AU-9460","program":"pota","name":"Pelican Point State Beach","coordinates":[140.45,-37.9353]},{"code":"AU-9461","program":"pota","name":"Blackfellows State Beach","coordinates":[140.471,-37.9515]}]}