{"lat":-38,"lon":147,"programs":["pota"],"count":15,"references":[{"code":"AU-0246","program":"pota","name":"Swallow Lagoon Nature Conservation Reserve","coordinates":[147.163,-37.9061]},{"code":"AU-2745","program":"pota","name":"Mount Moornapa Flora Reserve","coordinates":[147.148,-37.7519]},{"code":"AU-4111","program":"pota","name":"Bow-Worrung Bushland Reserve","coordinates":[147.115,-37.8516]},{"code":"AU-4127","program":"pota","name":"Briagolong Bushland Reserve","coordinates":[147.024,-37.8073]},{"code":"AU-4572","program":"pota","name":"Freestone Creek Streamside Reserve","coordinates":[147.038,-37.8499]},{"code":"AU-4598","program":"pota","name":"George Creek Streamside Reserve","coordinates":[147.086,-37.8055]},{"code":"AU-5668","program":"pota","name":"Stratford I12 Bushland Reserve","coordinates":[147.129,-37.879]},{"code":"AU-5669","program":"pota","name":"Stratford I13 Bushland Reserve","coordinates":[147.125,-37.9004]},{"code":"AU-5970","program":"pota","name":"Woolenook I10 Bushland Reserve","coordinates":[147.044,-37.7773]},{"code":"AU-5971","program":"pota","name":"Woolenook I9 Bushland Reserve","coordinates":[147.05,-37.785]},{"code":"AU-6059","program":"pota","name":"Yeerung Bushland Reserve","coordinates":[147.203,-37.9568]},{"code":"AU-8169","program":"pota","name":"Bow - Worrung State Forest","coordinates":[147.152,-37.8325]},{"code":"AU-8175","program":"pota","name":"Briagolong State Forest","coordinates":[147.075,-37.8555]},{"code":"AU-8388","program":"pota","name":"Stockdale State Forest","coordinates":[147.223,-37.7568]},{"code":"AU-10616","program":"pota","name":"Avon National Wild and Scenic River","coordinates":[147.008,-37.8723]}]}