{"lat":-38.5,"lon":176,"programs":["sota"],"count":18,"references":[{"code":"ZL1/WK-032","program":"sota","name":"ZL1/WK-032","coordinates":[176.2366,-38.3955]},{"code":"ZL1/WK-045","program":"sota","name":"ZL1/WK-045","coordinates":[176.1277,-38.2511]},{"code":"ZL1/WK-047","program":"sota","name":"ZL1/WK-047","coordinates":[176.083,-38.4795]},{"code":"ZL1/WK-049","program":"sota","name":"ZL1/WK-049","coordinates":[176.1208,-38.4665]},{"code":"ZL1/WK-051","program":"sota","name":"ZL1/WK-051","coordinates":[176.0125,-38.49]},{"code":"ZL1/WK-058","program":"sota","name":"ZL1/WK-058","coordinates":[176.0238,-38.4318]},{"code":"ZL1/WK-090","program":"sota","name":"ZL1/WK-090","coordinates":[176.0988,-38.4425]},{"code":"ZL1/WK-094","program":"sota","name":"Tuahu","coordinates":[176.0625,-38.4485]},{"code":"ZL1/WK-095","program":"sota","name":"Puaiti","coordinates":[176.1633,-38.4106]},{"code":"ZL1/WK-101","program":"sota","name":"Pukemoremore","coordinates":[176.2495,-38.448]},{"code":"ZL1/WK-102","program":"sota","name":"Ngautuku","coordinates":[176.016,-38.372]},{"code":"ZL1/WK-103","program":"sota","name":"Te Weta","coordinates":[176.2211,-38.3693]},{"code":"ZL1/WK-105","program":"sota","name":"ZL1/WK-105","coordinates":[176.0963,-38.2917]},{"code":"ZL1/WK-108","program":"sota","name":"Pukepapataringa","coordinates":[176.2353,-38.4811]},{"code":"ZL1/WK-111","program":"sota","name":"Ngapoipoiatore","coordinates":[176.1109,-38.3652]},{"code":"ZL1/WK-118","program":"sota","name":"Ongahoro","coordinates":[176.2322,-38.2566]},{"code":"ZL1/WK-121","program":"sota","name":"ZL1/WK-121","coordinates":[176.1951,-38.372]},{"code":"ZL1/WK-123","program":"sota","name":"Pohaturoa","coordinates":[176.0091,-38.4015]}]}