{"lat":-38.25,"lon":174.75,"programs":["pota"],"count":5,"references":[{"code":"NZ-0585","program":"pota","name":"Te Kauri Park Scenic Reserve","coordinates":[174.98,-38.077]},{"code":"NZ-0846","program":"pota","name":"Taumatatotara East Conservation Area","coordinates":[174.976,-38.2337]},{"code":"NZ-0855","program":"pota","name":"Hauturu Conservation Area","coordinates":[174.994,-38.167]},{"code":"NZ-0859","program":"pota","name":"Awaroa Scenic Reserve","coordinates":[174.955,-38.1504]},{"code":"NZ-0867","program":"pota","name":"Taumatatotara West Conservation Area","coordinates":[174.891,-38.2344]}]}