{"lat":-38.25,"lon":-62.25,"programs":["sota"],"count":6,"references":[{"code":"LUD/VE-002","program":"sota","name":"Cerro de la Ventana","coordinates":[-62.0197,-38.0491]},{"code":"LUD/VE-007","program":"sota","name":"LUD/VE-007","coordinates":[-62.0411,-38.0008]},{"code":"LUD/VE-018","program":"sota","name":"Cerro Sombra del Toro","coordinates":[-62.0207,-38.235]},{"code":"LUD/VE-020","program":"sota","name":"LUD/VE-020","coordinates":[-62.0843,-38.0293]},{"code":"LUD/VE-023","program":"sota","name":"Recreo","coordinates":[-62.1398,-38.0882]},{"code":"LUD/VE-025","program":"sota","name":"Cerro Tornquist","coordinates":[-62.1776,-38.0769]}]}