{"lat":-38.25,"lon":143.5,"programs":["pota"],"count":7,"references":[{"code":"AU-0429","program":"pota","name":"Dreeite Nature Conservation Reserve","coordinates":[143.539,-38.1668]},{"code":"AU-2646","program":"pota","name":"Cressy Flora Reserve","coordinates":[143.633,-38.0246]},{"code":"AU-2702","program":"pota","name":"Lake Beeac Wildlife Reserve","coordinates":[143.62,-38.206]},{"code":"AU-2704","program":"pota","name":"Lake Cundare Wildlife Reserve","coordinates":[143.614,-38.1614]},{"code":"AU-2707","program":"pota","name":"Lake Rosine Wildlife Reserve","coordinates":[143.571,-38.0338]},{"code":"AU-5534","program":"pota","name":"Red Rock Scenic Reserve","coordinates":[143.508,-38.2473]},{"code":"AU-10671","program":"pota","name":"Woady Yaloak National Wild and Scenic River","coordinates":[143.629,-38.0243]}]}