{"lat":-38.25,"lon":144,"programs":["pota"],"count":7,"references":[{"code":"AU-0238","program":"pota","name":"Teesdale Sheoak Nature Conservation Reserve","coordinates":[144.041,-38.0196]},{"code":"AU-2681","program":"pota","name":"Inverleigh Flora Reserve","coordinates":[144.044,-38.0705]},{"code":"AU-3979","program":"pota","name":"Bannockburn Bushland Reserve","coordinates":[144.166,-38.0456]},{"code":"AU-4006","program":"pota","name":"Barwon River Streamside Reserve","coordinates":[144.189,-38.1423]},{"code":"AU-4933","program":"pota","name":"Lake Dubban Wildlife Reserve","coordinates":[144.068,-38.2244]},{"code":"AU-10673","program":"pota","name":"Leigh National Wild and Scenic River","coordinates":[144.056,-38.0978]},{"code":"AU-11055","program":"pota","name":"Bannockburn Lock-Up Historic Reserve","coordinates":[144.169,-38.0434]}]}