{"lat":-38.75,"lon":142.75,"programs":["pota"],"count":12,"references":[{"code":"AU-0442","program":"pota","name":"Curdie Vale Nature Conservation Reserve","coordinates":[142.847,-38.5235]},{"code":"AU-10022","program":"pota","name":"Bay of Islands State Beach","coordinates":[142.828,-38.5808]},{"code":"AU-10023","program":"pota","name":"Crofts Bay State Beach","coordinates":[142.841,-38.5876]},{"code":"AU-10024","program":"pota","name":"Massacre Bay State Beach","coordinates":[142.853,-38.5921]},{"code":"AU-10025","program":"pota","name":"Bay of Martyrs State Beach","coordinates":[142.859,-38.5986]},{"code":"AU-10026","program":"pota","name":"Worm Bay State Beach","coordinates":[142.859,-38.6013]},{"code":"AU-10027","program":"pota","name":"Wild Dog Cove State Beach","coordinates":[142.869,-38.6036]},{"code":"AU-10028","program":"pota","name":"Peterborough State Beach","coordinates":[142.88,-38.6086]},{"code":"AU-10029","program":"pota","name":"Newfield Bay State Beach","coordinates":[142.891,-38.6093]},{"code":"AU-10030","program":"pota","name":"Port Cambell State Beach","coordinates":[142.992,-38.6194]},{"code":"AU-10190","program":"pota","name":"Crays Beach State Beach","coordinates":[142.859,-38.6037]},{"code":"AU-10330","program":"pota","name":"Shelly Beach (Port Campbell) State Beach","coordinates":[142.964,-38.6228]}]}