{"lat":-38.75,"lon":-71,"programs":["pota","sota"],"count":11,"references":[{"code":"CL-0053","program":"pota","name":"Alto Bio Bio National Reserve","coordinates":[-70.95,-38.6167]},{"code":"LUY/AL-025","program":"sota","name":"LUY/AL-025","coordinates":[-70.8907,-38.7213]},{"code":"LUY/PN-003","program":"sota","name":"Pino Solo","coordinates":[-70.8643,-38.5181]},{"code":"LUY/PN-009","program":"sota","name":"Cajon De La Leña","coordinates":[-70.7983,-38.5181]},{"code":"LUY/PN-010","program":"sota","name":"Tralihue","coordinates":[-70.8988,-38.5095]},{"code":"LUY/PN-014","program":"sota","name":"Manzano","coordinates":[-70.7794,-38.7237]},{"code":"LUY/PN-019","program":"sota","name":"Litran","coordinates":[-70.8312,-38.7377]},{"code":"LUY/PN-025","program":"sota","name":"LUY/PN-025","coordinates":[-70.7673,-38.5186]},{"code":"LUY/PN-026","program":"sota","name":"Las Tres Hermanas","coordinates":[-70.8136,-38.679]},{"code":"LUY/PN-027","program":"sota","name":"Chucán","coordinates":[-70.8851,-38.6973]},{"code":"LUY/PN-028","program":"sota","name":"LUY/PN-028","coordinates":[-70.7506,-38.6553]}]}