{"lat":-38.25,"lon":147,"programs":["pota"],"count":16,"references":[{"code":"AU-2674","program":"pota","name":"Herb Guyatt Flora Reserve","coordinates":[147.047,-38.1112]},{"code":"AU-2775","program":"pota","name":"Sale Common Nature Park","coordinates":[147.084,-38.1354]},{"code":"AU-3913","program":"pota","name":"Andrew Bay - Grebe Bay Gippsland Lakes Reserve","coordinates":[147.218,-38.1106]},{"code":"AU-3941","program":"pota","name":"Avon River Streamside Reserve","coordinates":[147.249,-38.0324]},{"code":"AU-4311","program":"pota","name":"Clydebank Morass Wildlife Reserve","coordinates":[147.198,-38.0305]},{"code":"AU-4473","program":"pota","name":"Dowd Morass Wildlife Reserve","coordinates":[147.208,-38.1423]},{"code":"AU-4731","program":"pota","name":"Heart Morass Wildlife Reserve","coordinates":[147.211,-38.1231]},{"code":"AU-4924","program":"pota","name":"Lake Coleman West Wildlife Reserve","coordinates":[147.241,-38.1615]},{"code":"AU-4943","program":"pota","name":"Lake Kakydra Gippsland Lakes Reserve","coordinates":[147.201,-38.0703]},{"code":"AU-4955","program":"pota","name":"Lake Melanydra Gippsland Lakes Reserve","coordinates":[147.18,-38.075]},{"code":"AU-5040","program":"pota","name":"Longford Natural Features Reserve","coordinates":[147.011,-38.1717]},{"code":"AU-5535","program":"pota","name":"Redbank Streamside Reserve","coordinates":[147.128,-38.0091]},{"code":"AU-5578","program":"pota","name":"Sale Camping Gippsland Lakes Reserve","coordinates":[147.18,-38.1317]},{"code":"AU-6891","program":"pota","name":"The Dardenelles Gippsland Lakes Reserve","coordinates":[147.238,-38.129]},{"code":"AU-6895","program":"pota","name":"The Waterhole Gippsland Lakes Reserve","coordinates":[147.114,-38.1352]},{"code":"AU-10926","program":"pota","name":"Swing Bridge State Historic Site","coordinates":[147.087,-38.1465]}]}