{"lat":-38,"lon":145.75,"programs":["gma","pota","sota"],"count":24,"references":[{"code":"XVK3/VC-008","program":"gma","name":"Hyde Hill","coordinates":[145.79100037,-37.82239914]},{"code":"AU-2598","program":"pota","name":"Ada Tall Trees Nature Park","coordinates":[145.863,-37.8171]},{"code":"AU-5354","program":"pota","name":"Nayook Bushland Reserve","coordinates":[145.941,-37.928]},{"code":"AU-5357","program":"pota","name":"Neerim G206 Bushland Reserve","coordinates":[145.951,-37.9574]},{"code":"AU-5497","program":"pota","name":"Powelltown Bushland Reserve","coordinates":[145.755,-37.8647]},{"code":"AU-5604","program":"pota","name":"Seven Acre Rock Scenic Reserve","coordinates":[145.751,-37.9129]},{"code":"AU-7652","program":"pota","name":"Noojee Trestle Bridge Rail State Trail","coordinates":[145.992,-37.8961]},{"code":"AU-7655","program":"pota","name":"Powelltown Tramways State Trail","coordinates":[145.841,-37.8319]},{"code":"AU-8290","program":"pota","name":"Labertouche State Forest","coordinates":[145.862,-37.9738]},{"code":"AU-8293","program":"pota","name":"Latrobe State Forest","coordinates":[145.897,-37.8449]},{"code":"AU-8416","program":"pota","name":"Tarago River Forest Reserve","coordinates":[145.93,-37.9558]},{"code":"AU-8459","program":"pota","name":"Yarra State Forest","coordinates":[145.755,-37.7934]},{"code":"AU-8460","program":"pota","name":"Yarra Tributaries Forest Reserve","coordinates":[145.878,-37.7993]},{"code":"AU-10416","program":"pota","name":"Bennie Creek Reference Area Reserve","coordinates":[145.906,-37.8246]},{"code":"AU-10920","program":"pota","name":"Noojee Trestle Bridge State Heritage Area","coordinates":[145.984,-37.9006]},{"code":"AU-11044","program":"pota","name":"Ada River Sawmills Historic Reserve","coordinates":[145.806,-37.8719]},{"code":"AU-11045","program":"pota","name":"Ada River Sawmills Historic & Cultural Features Reserve","coordinates":[145.852,-37.8767]},{"code":"AU-11125","program":"pota","name":"Mississippi No. 1 mill Historic Area Reserve","coordinates":[145.824,-37.7942]},{"code":"AU-11142","program":"pota","name":"Noojee Trestle Bridge Historic Reserve","coordinates":[145.997,-37.8938]},{"code":"VK3/VT-039","program":"sota","name":"Mccarthy Spur","coordinates":[145.93198,-37.82017]},{"code":"VK3/VT-040","program":"sota","name":"Spion Kopje","coordinates":[145.84525,-37.91669]},{"code":"VK3/VT-050","program":"sota","name":"North Hells Gate","coordinates":[145.8616,-37.96281]},{"code":"VK3/VT-059","program":"sota","name":"South Hells Gate","coordinates":[145.85796,-37.9781]},{"code":"VK3/VT-078","program":"sota","name":"Gentle Annie","coordinates":[145.80147,-37.9505]}]}