{"lat":-38.5,"lon":144.75,"programs":["pota","sota"],"count":33,"references":[{"code":"AU-0329","program":"pota","name":"Mornington Peninsula National Park","coordinates":[144.858,-38.4446]},{"code":"AU-0344","program":"pota","name":"Main Ridge Nature Conservation Reserve","coordinates":[144.995,-38.4137]},{"code":"AU-0511","program":"pota","name":"Arthurs Seat State Park","coordinates":[144.949,-38.3598]},{"code":"AU-4479","program":"pota","name":"Dromana Bushland Reserve","coordinates":[144.951,-38.339]},{"code":"AU-4555","program":"pota","name":"Fingal Bushland Reserve","coordinates":[144.904,-38.4611]},{"code":"AU-4558","program":"pota","name":"Flinders G234 Bushland Reserve","coordinates":[144.973,-38.4541]},{"code":"AU-5560","program":"pota","name":"Rosebud Bushland Reserve","coordinates":[144.921,-38.3711]},{"code":"AU-8953","program":"pota","name":"Blairgowrie Beach State Beach","coordinates":[144.794,-38.3638]},{"code":"AU-8956","program":"pota","name":"Camerons Bight State Beach","coordinates":[144.765,-38.3551]},{"code":"AU-8959","program":"pota","name":"Capel Sound Beach State Beach","coordinates":[144.88,-38.3612]},{"code":"AU-8969","program":"pota","name":"Dromana Beach State Beach","coordinates":[144.957,-38.3359]},{"code":"AU-8988","program":"pota","name":"McRae Beach State Beach","coordinates":[144.923,-38.3492]},{"code":"AU-9009","program":"pota","name":"Rosebud Beach State Beach","coordinates":[144.914,-38.3518]},{"code":"AU-9011","program":"pota","name":"Safety Beach State Beach","coordinates":[144.989,-38.3158]},{"code":"AU-9019","program":"pota","name":"Sorrento Front Beach State Beach","coordinates":[144.75,-38.3423]},{"code":"AU-9024","program":"pota","name":"Sullivan Bay Beach State Beach","coordinates":[144.761,-38.3475]},{"code":"AU-9028","program":"pota","name":"Tootgarook Beach State Beach","coordinates":[144.843,-38.3696]},{"code":"AU-10165","program":"pota","name":"Bushrangers Bay State Beach","coordinates":[144.915,-38.4899]},{"code":"AU-10167","program":"pota","name":"Cairns Bay State Beach","coordinates":[144.971,-38.4871]},{"code":"AU-10200","program":"pota","name":"Dimmicks Beach State Beach","coordinates":[144.777,-38.3829]},{"code":"AU-10215","program":"pota","name":"Fingal Beach State Beach","coordinates":[144.88,-38.4704]},{"code":"AU-10226","program":"pota","name":"Fowlers Beach State Beach","coordinates":[144.764,-38.3729]},{"code":"AU-10234","program":"pota","name":"Gunnamatta Beach State Beach","coordinates":[144.873,-38.4613]},{"code":"AU-10235","program":"pota","name":"Gunnamatta Surf Beach State Beach","coordinates":[144.864,-38.4521]},{"code":"AU-10255","program":"pota","name":"Koonya Beach State Beach","coordinates":[144.751,-38.3629]},{"code":"AU-10276","program":"pota","name":"Rye Ocean Beach State Beach","coordinates":[144.818,-38.4151]},{"code":"AU-10283","program":"pota","name":"Montforts Beach State Beach","coordinates":[144.758,-38.3691]},{"code":"AU-10294","program":"pota","name":"Number 16 Beach State Beach","coordinates":[144.793,-38.395]},{"code":"AU-10303","program":"pota","name":"Pearses Beach State Beach","coordinates":[144.774,-38.3803]},{"code":"AU-10305","program":"pota","name":"Saint Andrews Beach State Beach","coordinates":[144.841,-38.4325]},{"code":"AU-10339","program":"pota","name":"Simmons Bay State Beach","coordinates":[144.942,-38.4903]},{"code":"AU-11076","program":"pota","name":"Collins Settlement Site Historic Reserve","coordinates":[144.763,-38.3495]},{"code":"VK3/VC-031","program":"sota","name":"Arthurs Seat","coordinates":[144.95029,-38.35417]}]}