{"lat":-39.5,"lon":-70.5,"programs":["sota"],"count":8,"references":[{"code":"LUY/CL-021","program":"sota","name":"Colorado","coordinates":[-70.4121,-39.3454]},{"code":"LUY/CL-022","program":"sota","name":"Trapial Mahuida","coordinates":[-70.3792,-39.2948]},{"code":"LUY/CL-024","program":"sota","name":"Charahuilla","coordinates":[-70.4479,-39.4239]},{"code":"LUY/CL-028","program":"sota","name":"LUY/CL-028","coordinates":[-70.3345,-39.3371]},{"code":"LUY/CL-029","program":"sota","name":"Media Luna","coordinates":[-70.4593,-39.4664]},{"code":"LUY/CL-031","program":"sota","name":"Caichigüe","coordinates":[-70.3342,-39.4465]},{"code":"LUY/CL-037","program":"sota","name":"Del Viento","coordinates":[-70.3364,-39.4651]},{"code":"LUY/CL-040","program":"sota","name":"LUY/CL-040","coordinates":[-70.2596,-39.419]}]}