{"lat":-39.5,"lon":175,"programs":["pota","sota"],"count":8,"references":[{"code":"NZ-0174","program":"pota","name":"Murumuru Conservation Area","coordinates":[175.094,-39.3157]},{"code":"ZL1/MW-100","program":"sota","name":"Pipipi","coordinates":[175.2306,-39.3847]},{"code":"ZL1/MW-110","program":"sota","name":"Waipuna","coordinates":[175.1977,-39.4602]},{"code":"ZL1/MW-128","program":"sota","name":"Whakapaenoa","coordinates":[175.1491,-39.4673]},{"code":"ZL1/MW-130","program":"sota","name":"Whirinaki","coordinates":[175.0271,-39.255]},{"code":"ZL1/MW-138","program":"sota","name":"Ranganui","coordinates":[175.0502,-39.3854]},{"code":"ZL1/MW-143","program":"sota","name":"Rakautangi","coordinates":[175.0977,-39.3627]},{"code":"ZL1/MW-149","program":"sota","name":"Ngapuke Whakatara","coordinates":[175.049,-39.3304]}]}