{"lat":-39.75,"lon":176,"programs":["pota","sota"],"count":14,"references":[{"code":"NZ-0373","program":"pota","name":"Awarua Conservation Area","coordinates":[176.203,-39.6094]},{"code":"ZL1/HB-005","program":"sota","name":"Maropea","coordinates":[176.1762,-39.7447]},{"code":"ZL1/HB-010","program":"sota","name":"Ikawetea","coordinates":[176.2484,-39.588303]},{"code":"ZL1/HB-169","program":"sota","name":"ZL1/HB-169","coordinates":[176.2231,-39.5544]},{"code":"ZL1/MW-019","program":"sota","name":"Te Atua Mahuru","coordinates":[176.1797,-39.7112]},{"code":"ZL1/MW-022","program":"sota","name":"Rangiwhakamataku","coordinates":[176.1723,-39.6789]},{"code":"ZL1/MW-030","program":"sota","name":"Otupae Range","coordinates":[176.1865,-39.5201]},{"code":"ZL1/MW-037","program":"sota","name":"Titapu","coordinates":[176.1052,-39.6511]},{"code":"ZL1/MW-041","program":"sota","name":"Te Rakaunuiakura","coordinates":[176.152,-39.6233]},{"code":"ZL1/MW-042","program":"sota","name":"Potae","coordinates":[176.1651,-39.6485]},{"code":"ZL1/MW-051","program":"sota","name":"Aorangi","coordinates":[176.0819,-39.6156]},{"code":"ZL1/MW-062","program":"sota","name":"ZL1/MW-062","coordinates":[176.0783,-39.6809]},{"code":"ZL1/MW-078","program":"sota","name":"Pukeokahu","coordinates":[176.0153,-39.6393]},{"code":"ZL1/MW-081","program":"sota","name":"ZL1/MW-081","coordinates":[176.1165,-39.6756]}]}