{"lat":-39.75,"lon":-71,"programs":["sota"],"count":6,"references":[{"code":"LUY/CL-011","program":"sota","name":"Rancahue","coordinates":[-70.8341,-39.5225]},{"code":"LUY/CL-016","program":"sota","name":"Botas Largas","coordinates":[-70.8217,-39.5637]},{"code":"LUY/CL-018","program":"sota","name":"De La Bolsa","coordinates":[-70.8322,-39.578]},{"code":"LUY/CL-023","program":"sota","name":"LUY/CL-023","coordinates":[-70.8853,-39.567]},{"code":"LUY/CL-030","program":"sota","name":"Yeguadas","coordinates":[-70.8376,-39.7157]},{"code":"LUY/HL-081","program":"sota","name":"LUY/HL-081","coordinates":[-70.9255,-39.7246]}]}