{"lat":-39.25,"lon":176.75,"programs":["pota","sota"],"count":9,"references":[{"code":"NZ-0377","program":"pota","name":"Waitere Kiwi Reserve Conservation Area","coordinates":[176.763,-39.0706]},{"code":"NZ-0378","program":"pota","name":"Te Heru o Tureia Historical Reserve","coordinates":[176.868,-39.0511]},{"code":"NZ-0689","program":"pota","name":"Boundary Stream Scenic Reserve","coordinates":[176.82,-39.1044]},{"code":"ZL1/HB-080","program":"sota","name":"Heruotureia","coordinates":[176.8726,-39.0553]},{"code":"ZL1/HB-089","program":"sota","name":"Te Kooti's Lookout","coordinates":[176.8044,-39.0089]},{"code":"ZL1/HB-112","program":"sota","name":"Rocky Range","coordinates":[176.9576,-39.1972]},{"code":"ZL1/HB-114","program":"sota","name":"Table Mountain","coordinates":[176.9229,-39.2172]},{"code":"ZL1/HB-119","program":"sota","name":"ZL1/HB-119","coordinates":[176.9194,-39.1381]},{"code":"ZL1/HB-142","program":"sota","name":"ZL1/HB-142","coordinates":[176.8747,-39.2275]}]}