{"lat":-4,"lon":-39,"programs":["sota"],"count":11,"references":[{"code":"PT7/FO-004","program":"sota","name":"Pedra do Taquaril","coordinates":[-38.7729,-3.7841]},{"code":"PT7/FO-008","program":"sota","name":"Morro dos Pratis","coordinates":[-38.7509,-3.9287]},{"code":"PT7/FO-009","program":"sota","name":"Serra dos Cavalos","coordinates":[-38.7828,-3.9599]},{"code":"PT7/FO-011","program":"sota","name":"PT7/FO-011","coordinates":[-38.9411,-3.8895]},{"code":"PT7/FO-012","program":"sota","name":"PT7/FO-012","coordinates":[-38.8759,-3.8241]},{"code":"PT7/FO-013","program":"sota","name":"Serra de Ibipeba","coordinates":[-38.928,-3.8711]},{"code":"PT7/FO-014","program":"sota","name":"Pedra do Itacolomi","coordinates":[-38.8585,-3.7909]},{"code":"PT7/FO-021","program":"sota","name":"Morro do Valério","coordinates":[-38.8691,-3.8064]},{"code":"PT7/FO-022","program":"sota","name":"PT7/FO-022","coordinates":[-38.8204,-3.7502]},{"code":"PT7/FO-023","program":"sota","name":"Serra do Mosqueira","coordinates":[-38.8732,-3.7704]},{"code":"PT7/NC-176","program":"sota","name":"PT7/NC-176","coordinates":[-38.9702,-3.9339]}]}