{"lat":-4,"lon":-38.5,"programs":["pota"],"count":8,"references":[{"code":"BR-0584","program":"pota","name":"Das Iguanas Park","coordinates":[-38.493,-3.78929]},{"code":"BR-0585","program":"pota","name":"Linear Adahil Barreto Park","coordinates":[-38.4993,-3.7533]},{"code":"BR-0592","program":"pota","name":"Urbano do Sitio Tunga Park","coordinates":[-38.4927,-3.7808]},{"code":"BR-0598","program":"pota","name":"Urbano da Lagoa da Sapiranga Park","coordinates":[-38.4758,-3.79058]},{"code":"BR-0604","program":"pota","name":"Urbano da Lagoa Redonda Park","coordinates":[-38.4661,-3.82915]},{"code":"BR-0605","program":"pota","name":"Urbano do Lago Jacarey Park","coordinates":[-38.4895,-3.8012]},{"code":"BR-0606","program":"pota","name":"Urbano Jornalista Demócrito Dummar (Lagoa de Messejana) Park","coordinates":[-38.4947,-3.8315]},{"code":"BR-0754","program":"pota","name":"Rio Pacoti Protected Landscape Area","coordinates":[-38.4075,-3.85809]}]}