{"lat":-4.25,"lon":-39,"programs":["sota"],"count":20,"references":[{"code":"PT7/FO-006","program":"sota","name":"Maria Comprida","coordinates":[-38.8821,-4.0481]},{"code":"PT7/FO-010","program":"sota","name":"Pedra da Tesoura","coordinates":[-38.8387,-4.0642]},{"code":"PT7/FO-018","program":"sota","name":"Ilha da Gipóia","coordinates":[-38.806,-4.0781]},{"code":"PT7/FO-020","program":"sota","name":"PT7/FO-020","coordinates":[-38.7805,-4.0279]},{"code":"PT7/NC-019","program":"sota","name":"PT7/NC-019","coordinates":[-38.8011,-4.2305]},{"code":"PT7/NC-024","program":"sota","name":"Morro do Pilão","coordinates":[-38.849,-4.2304]},{"code":"PT7/NC-027","program":"sota","name":"PT7/NC-027","coordinates":[-38.8744,-4.1248]},{"code":"PT7/NC-039","program":"sota","name":"Pedra do Retiro","coordinates":[-38.8173,-4.1439]},{"code":"PT7/NC-042","program":"sota","name":"PT7/NC-042","coordinates":[-38.7718,-4.2348]},{"code":"PT7/NC-046","program":"sota","name":"Serra da Alvarenga","coordinates":[-38.7763,-4.1631]},{"code":"PT7/NC-048","program":"sota","name":"PT7/NC-048","coordinates":[-38.7869,-4.2274]},{"code":"PT7/NC-052","program":"sota","name":"Morro do Engenho","coordinates":[-38.856,-4.1359]},{"code":"PT7/NC-061","program":"sota","name":"PT7/NC-061","coordinates":[-38.8386,-4.1317]},{"code":"PT7/NC-064","program":"sota","name":"PT7/NC-064","coordinates":[-38.8317,-4.2032]},{"code":"PT7/NC-068","program":"sota","name":"PT7/NC-068","coordinates":[-38.783,-4.1549]},{"code":"PT7/NC-071","program":"sota","name":"PT7/NC-071","coordinates":[-38.855,-4.2067]},{"code":"PT7/NC-076","program":"sota","name":"Serra do Bálsamo","coordinates":[-38.8047,-4.159]},{"code":"PT7/NC-088","program":"sota","name":"Serra da Ressaca","coordinates":[-38.8673,-4.1621]},{"code":"PT7/NC-148","program":"sota","name":"Pedra da Sapucaia","coordinates":[-38.7948,-4.1863]},{"code":"PT7/NC-168","program":"sota","name":"PT7/NC-168","coordinates":[-38.9784,-4.0726]}]}