{"lat":-4.5,"lon":-39,"programs":["pota","sota"],"count":13,"references":[{"code":"BR-0753","program":"pota","name":"Serra de Baturité Protected Landscape Area","coordinates":[-38.9809,-4.29711]},{"code":"PT7/NC-003","program":"sota","name":"PT7/NC-003","coordinates":[-38.9751,-4.2744]},{"code":"PT7/NC-033","program":"sota","name":"Serra Seca","coordinates":[-38.759,-4.2959]},{"code":"PT7/NC-058","program":"sota","name":"PT7/NC-058","coordinates":[-38.9444,-4.4901]},{"code":"PT7/NC-102","program":"sota","name":"Mesa do Imperador","coordinates":[-38.9132,-4.3714]},{"code":"PT7/NC-116","program":"sota","name":"PT7/NC-116","coordinates":[-38.8609,-4.2767]},{"code":"PT7/NC-133","program":"sota","name":"Alto do Albuquerque","coordinates":[-38.9235,-4.4886]},{"code":"PT7/NC-134","program":"sota","name":"Serra do Timbó","coordinates":[-38.8401,-4.315]},{"code":"PT7/NC-139","program":"sota","name":"Pedra Redonda","coordinates":[-38.8759,-4.2834]},{"code":"PT7/NC-162","program":"sota","name":"PT7/NC-162","coordinates":[-38.9975,-4.4452]},{"code":"PT7/NC-173","program":"sota","name":"Monte do Café","coordinates":[-38.8795,-4.4679]},{"code":"PT7/NC-175","program":"sota","name":"PT7/NC-175","coordinates":[-38.7837,-4.4572]},{"code":"PT7/NC-178","program":"sota","name":"Alto da Caledônia","coordinates":[-38.8772,-4.3472]}]}