{"lat":-40.75,"lon":-71.25,"programs":["sota"],"count":17,"references":[{"code":"LUY/LC-059","program":"sota","name":"LUY/LC-059","coordinates":[-71.2243,-40.5865]},{"code":"LUY/LC-075","program":"sota","name":"LUY/LC-075","coordinates":[-71.1969,-40.5811]},{"code":"LUY/LC-082","program":"sota","name":"LUY/LC-082","coordinates":[-71.2008,-40.5501]},{"code":"LUY/LC-094","program":"sota","name":"Córdoba","coordinates":[-71.1658,-40.5953]},{"code":"LUY/LG-066","program":"sota","name":"LUY/LG-066","coordinates":[-71.0956,-40.5993]},{"code":"LUY/LG-072","program":"sota","name":"Golondrinas","coordinates":[-71.2444,-40.7381]},{"code":"LUY/LG-083","program":"sota","name":"Co. Mallin Grande","coordinates":[-71.2111,-40.622]},{"code":"LUY/LG-094","program":"sota","name":"Recado Chileno","coordinates":[-71.094,-40.6656]},{"code":"LUY/LG-115","program":"sota","name":"Farallones","coordinates":[-71.189,-40.6372]},{"code":"LUY/LG-116","program":"sota","name":"LUY/LG-116","coordinates":[-71.0713,-40.686]},{"code":"LUY/LG-123","program":"sota","name":"LUY/LG-123","coordinates":[-71.1937,-40.65]},{"code":"LUY/LG-130","program":"sota","name":"Del Guanaco","coordinates":[-71.1854,-40.7102]},{"code":"LUY/LG-136","program":"sota","name":"LUY/LG-136","coordinates":[-71.2122,-40.6499]},{"code":"LUY/LG-138","program":"sota","name":"LUY/LG-138","coordinates":[-71.0749,-40.7056]},{"code":"LUY/LG-141","program":"sota","name":"De las Chivas","coordinates":[-71.117,-40.7273]},{"code":"LUY/LG-142","program":"sota","name":"LUY/LG-142","coordinates":[-71.153,-40.7104]},{"code":"LUY/LG-157","program":"sota","name":"LUY/LG-157","coordinates":[-71.1621,-40.6608]}]}