{"lat":-40.25,"lon":148,"programs":["pota","sota"],"count":20,"references":[{"code":"AU-0539","program":"pota","name":"Strzelecki National Park","coordinates":[148.079,-40.2174]},{"code":"AU-3059","program":"pota","name":"Shag Lagoon Conservation Area","coordinates":[148.195,-40.1506]},{"code":"AU-3065","program":"pota","name":"The Dutchman Conservation Area","coordinates":[148.165,-40.1205]},{"code":"AU-6110","program":"pota","name":"Brougham Sugarloaf Conservation Area","coordinates":[148.008,-40.0413]},{"code":"AU-6151","program":"pota","name":"Darling Range Conservation Area","coordinates":[148.084,-40.0696]},{"code":"AU-6193","program":"pota","name":"Fotheringate Bay Conservation Area","coordinates":[148.029,-40.1831]},{"code":"AU-6214","program":"pota","name":"Holts Point Conservation Area","coordinates":[148.06,-40.2493]},{"code":"AU-6224","program":"pota","name":"Lackrana Conservation Area","coordinates":[148.222,-40.106]},{"code":"AU-6238","program":"pota","name":"Little Green Island Conservation Area","coordinates":[148.247,-40.2265]},{"code":"AU-6373","program":"pota","name":"South Pats River Conservation Area","coordinates":[148.049,-40.0861]},{"code":"AU-6386","program":"pota","name":"Summer Camp Conservation Area","coordinates":[148.107,-40.0014]},{"code":"AU-6405","program":"pota","name":"Trousers Point Beach Conservation Area","coordinates":[148.042,-40.2322]},{"code":"AU-6436","program":"pota","name":"Youngs Creek Conservation Area","coordinates":[148.029,-40.0699]},{"code":"AU-6853","program":"pota","name":"Sellars Lagoon Game Reserve","coordinates":[148.238,-40.0489]},{"code":"VK7/NE-024","program":"sota","name":"Strzelecki Peak","coordinates":[148.0774,-40.2032]},{"code":"VK7/NE-044","program":"sota","name":"Mount Leventhorpe","coordinates":[148.0969,-40.0727]},{"code":"VK7/NE-046","program":"sota","name":"Counsels Peak","coordinates":[148.1038,-40.1063]},{"code":"VK7/NE-058","program":"sota","name":"Big Silver","coordinates":[148.1299,-40.1133]},{"code":"VK7/NE-070","program":"sota","name":"The Dutchman","coordinates":[148.166,-40.1233]},{"code":"VK7/NE-071","program":"sota","name":"South Patriach ridge","coordinates":[148.2049,-40.0034]}]}