{"lat":-40.25,"lon":143.75,"programs":["pota"],"count":7,"references":[{"code":"AU-0549","program":"pota","name":"Seal Rocks State Reserve","coordinates":[143.882,-40.0984]},{"code":"AU-6142","program":"pota","name":"Colliers Swamp Conservation Area","coordinates":[143.953,-40.0952]},{"code":"AU-6153","program":"pota","name":"Deep Lagoons Conservation Area","coordinates":[143.928,-40.0168]},{"code":"AU-6223","program":"pota","name":"Kentford Forest Conservation Area","coordinates":[143.971,-40.0289]},{"code":"AU-6354","program":"pota","name":"Seal Rocks Conservation Area","coordinates":[143.898,-40.0805]},{"code":"AU-6380","program":"pota","name":"Stokes Point Conservation Area","coordinates":[143.909,-40.1266]},{"code":"AU-6479","program":"pota","name":"Kentford Forest Nature Reserve","coordinates":[143.973,-40.0141]}]}