{"lat":-40.75,"lon":-73.25,"programs":["pota"],"count":5,"references":[{"code":"CL-0140","program":"pota","name":"Pleistoceno, Chuyaca Park","coordinates":[-73.1042,-40.5739]},{"code":"CL-0141","program":"pota","name":"Cuarto Centenario Park","coordinates":[-73.1388,-40.5686]},{"code":"CL-0208","program":"pota","name":"Parque Bella vista Recreation Park","coordinates":[-73.1472,-40.5803]},{"code":"CL-0372","program":"pota","name":"Humedal Urbano Sistema de Humedales Ovejería Wetland Reserve","coordinates":[-73.1354,-40.5976]},{"code":"CL-0373","program":"pota","name":"Humedal urbano Las Quemas Wetland Reserve","coordinates":[-73.1131,-40.6024]}]}