{"lat":-40,"lon":176,"programs":["pota","sota"],"count":17,"references":[{"code":"NZ-0066","program":"pota","name":"Ruahine Forest Park","coordinates":[176.147,-39.9561]},{"code":"ZL1/HB-003","program":"sota","name":"ZL1/HB-003","coordinates":[176.1668,-39.7777]},{"code":"ZL1/HB-007","program":"sota","name":"ZL1/HB-007","coordinates":[176.1709,-39.76]},{"code":"ZL1/HB-064","program":"sota","name":"ZL1/HB-064","coordinates":[176.1455,-39.9785]},{"code":"ZL1/HB-083","program":"sota","name":"ZL1/HB-083","coordinates":[176.1547,-39.9942]},{"code":"ZL1/HB-084","program":"sota","name":"Pukenui","coordinates":[176.198,-39.9199]},{"code":"ZL1/HB-090","program":"sota","name":"Folgers Hill","coordinates":[176.2287,-39.8604]},{"code":"ZL1/HB-091","program":"sota","name":"Pebbly Hill","coordinates":[176.249,-39.81]},{"code":"ZL1/MW-004","program":"sota","name":"Mangaweka","coordinates":[176.0854,-39.8178]},{"code":"ZL1/MW-006","program":"sota","name":"ZL1/MW-006","coordinates":[176.1397,-39.8333]},{"code":"ZL1/MW-007","program":"sota","name":"Te Hekenga","coordinates":[176.1032,-39.8827]},{"code":"ZL1/MW-008","program":"sota","name":"Te Atuaoparapara","coordinates":[176.1445,-39.7967]},{"code":"ZL1/MW-009","program":"sota","name":"Ohuinga","coordinates":[176.1278,-39.8617]},{"code":"ZL1/MW-010","program":"sota","name":"Paemutu","coordinates":[176.1287,-39.8427]},{"code":"ZL1/MW-013","program":"sota","name":"Maungamahue","coordinates":[176.064,-39.8779]},{"code":"ZL1/MW-017","program":"sota","name":"Rongotea","coordinates":[176.1128,-39.7638]},{"code":"ZL1/MW-018","program":"sota","name":"Tunupō","coordinates":[176.0716,-39.9671]}]}