{"lat":-40,"lon":143.75,"programs":["pota"],"count":6,"references":[{"code":"AU-6127","program":"pota","name":"Cataraqui Point Conservation Area","coordinates":[143.866,-39.9542]},{"code":"AU-6319","program":"pota","name":"Porky Beach Conservation Area","coordinates":[143.851,-39.7684]},{"code":"AU-6396","program":"pota","name":"Tathams Lagoon Conservation Area","coordinates":[143.9,-39.7862]},{"code":"AU-6441","program":"pota","name":"Badger Box Creek Nature Reserve","coordinates":[143.892,-39.9609]},{"code":"AU-6481","program":"pota","name":"Lily Lagoon Nature Reserve","coordinates":[143.926,-39.9725]},{"code":"AU-6815","program":"pota","name":"Currie Lightkeepers Residence Historic Site","coordinates":[143.844,-39.9301]}]}