{"lat":-40.75,"lon":172.5,"programs":["pota","sota"],"count":11,"references":[{"code":"NZ-0484","program":"pota","name":"Westhaven (Whanganui Inlet) Wildlife Management Reserve","coordinates":[172.584,-40.5849]},{"code":"NZ-0491","program":"pota","name":"Puponga Farm Park","coordinates":[172.725,-40.5098]},{"code":"NZ-0798","program":"pota","name":"Westhaven (Te Tai Tapu) Marine Reserve","coordinates":[172.521,-40.6179]},{"code":"ZL3/TM-241","program":"sota","name":"ZL3/TM-241","coordinates":[172.6129,-40.6593]},{"code":"ZL3/TM-247","program":"sota","name":"Mount Burnett","coordinates":[172.64,-40.6391]},{"code":"ZL3/TM-249","program":"sota","name":"Mount Haidinger","coordinates":[172.573,-40.6924]},{"code":"ZL3/TM-265","program":"sota","name":"Knuckle Hill","coordinates":[172.5637,-40.6357]},{"code":"ZL3/TM-274","program":"sota","name":"ZL3/TM-274","coordinates":[172.6645,-40.542]},{"code":"ZL3/TM-280","program":"sota","name":"Mount Lunar","coordinates":[172.6193,-40.5317]},{"code":"ZL3/TM-281","program":"sota","name":"ZL3/TM-281","coordinates":[172.5929,-40.7422]},{"code":"ZL3/TM-282","program":"sota","name":"Meroiti","coordinates":[172.5579,-40.5808]}]}