{"lat":-40.25,"lon":-71.25,"programs":["sota"],"count":6,"references":[{"code":"LUY/HL-079","program":"sota","name":"De los Pinos","coordinates":[-71.0324,-40.0569]},{"code":"LUY/HL-085","program":"sota","name":"LUY/HL-085","coordinates":[-71.1326,-40.0154]},{"code":"LUY/LC-001","program":"sota","name":"Cerro Azul","coordinates":[-71.2074,-40.2452]},{"code":"LUY/LC-006","program":"sota","name":"Cordon del Chapelco Norte","coordinates":[-71.248,-40.2443]},{"code":"LUY/LC-100","program":"sota","name":"LUY/LC-100","coordinates":[-71.093,-40.1215]},{"code":"LUY/LC-113","program":"sota","name":"LUY/LC-113","coordinates":[-71.1988,-40.1141]}]}