{"lat":-40.25,"lon":147.75,"programs":["pota","sota"],"count":11,"references":[{"code":"AU-6128","program":"pota","name":"Chalky Island Conservation Area","coordinates":[147.889,-40.0998]},{"code":"AU-6237","program":"pota","name":"Little Chalky Island Conservation Area","coordinates":[147.893,-40.1376]},{"code":"AU-6267","program":"pota","name":"Mile Island Conservation Area","coordinates":[147.916,-40.1234]},{"code":"AU-6290","program":"pota","name":"Mulligans Hill Conservation Area","coordinates":[147.955,-40.0104]},{"code":"AU-6322","program":"pota","name":"Prime Seal Island Conservation Area","coordinates":[147.756,-40.0751]},{"code":"AU-6357","program":"pota","name":"Settlement Point Conservation Area","coordinates":[147.865,-40.0153]},{"code":"AU-6431","program":"pota","name":"Wybalenna Island Conservation Area","coordinates":[147.846,-40.0277]},{"code":"AU-6465","program":"pota","name":"East Kangaroo Island Nature Reserve","coordinates":[147.913,-40.1857]},{"code":"AU-6476","program":"pota","name":"Isabella Island Nature Reserve","coordinates":[147.943,-40.1295]},{"code":"AU-6795","program":"pota","name":"Emita Nature Recreation Area","coordinates":[147.889,-40.0031]},{"code":"VK7/NE-049","program":"sota","name":"Brougham Sugarloaf","coordinates":[147.9955,-40.0359]}]}