{"lat":-40,"lon":176.75,"programs":["sota"],"count":11,"references":[{"code":"ZL1/HB-097","program":"sota","name":"Kahuranaki","coordinates":[176.873,-39.7952]},{"code":"ZL1/HB-098","program":"sota","name":"ZL1/HB-098","coordinates":[176.8939,-39.8723]},{"code":"ZL1/HB-117","program":"sota","name":"Te Atua","coordinates":[176.809,-39.9915]},{"code":"ZL1/HB-123","program":"sota","name":"ZL1/HB-123","coordinates":[176.7845,-39.8483]},{"code":"ZL1/HB-129","program":"sota","name":"Silver Range (South)","coordinates":[176.8142,-39.8644]},{"code":"ZL1/HB-130","program":"sota","name":"Mount Threeve","coordinates":[176.783,-39.7513]},{"code":"ZL1/HB-137","program":"sota","name":"ZL1/HB-137","coordinates":[176.8632,-39.9426]},{"code":"ZL1/HB-141","program":"sota","name":"Silver Range (North)","coordinates":[176.8195,-39.8483]},{"code":"ZL1/HB-148","program":"sota","name":"ZL1/HB-148","coordinates":[176.7855,-39.9189]},{"code":"ZL1/HB-150","program":"sota","name":"Whaitirinui Range","coordinates":[176.9559,-39.8722]},{"code":"ZL1/HB-156","program":"sota","name":"ZL1/HB-156","coordinates":[176.805,-39.886]}]}