{"lat":-41.25,"lon":-71.25,"programs":["sota"],"count":8,"references":[{"code":"LUV/BA-178","program":"sota","name":"LUV/BA-178","coordinates":[-71.1854,-41.2164]},{"code":"LUV/PI-025","program":"sota","name":"Cerro Villegas","coordinates":[-71.0984,-41.0374]},{"code":"LUV/PI-037","program":"sota","name":"LUV/PI-037","coordinates":[-71.0683,-41.0922]},{"code":"LUV/PI-044","program":"sota","name":"LUV/PI-044","coordinates":[-71.0588,-41.2457]},{"code":"LUV/PI-049","program":"sota","name":"LUV/PI-049","coordinates":[-71.0128,-41.0429]},{"code":"LUV/PI-063","program":"sota","name":"LUV/PI-063","coordinates":[-71.0883,-41.1342]},{"code":"LUV/PI-064","program":"sota","name":"Cerro Leones","coordinates":[-71.1407,-41.0821]},{"code":"LUY/LG-173","program":"sota","name":"LUY/LG-173","coordinates":[-71.1694,-41.0188]}]}