{"lat":-41.25,"lon":-72,"programs":["pota","sota"],"count":11,"references":[{"code":"AR-0106","program":"pota","name":"Nahuel Huapi National Park","coordinates":[-71.7703,-41.0412]},{"code":"LUV/BA-108","program":"sota","name":"Cerro Constitución","coordinates":[-71.775,-41.1476]},{"code":"LUV/BA-122","program":"sota","name":"Cerro Cota 1700","coordinates":[-71.7809,-41.1272]},{"code":"LUV/BA-127","program":"sota","name":"Cerro Mar de Piedra","coordinates":[-71.7625,-41.1723]},{"code":"LUV/BA-132","program":"sota","name":"Cerro Frías","coordinates":[-71.7808,-41.0434]},{"code":"LUV/BA-138","program":"sota","name":"Cerro Vichadero","coordinates":[-71.849,-41.0922]},{"code":"LUV/BA-146","program":"sota","name":"LUV/BA-146","coordinates":[-71.7632,-41.0801]},{"code":"LUV/BA-147","program":"sota","name":"Cerro Frías Sur","coordinates":[-71.7805,-41.0839]},{"code":"LUV/BA-162","program":"sota","name":"LUV/BA-162","coordinates":[-71.7566,-41.1022]},{"code":"LUV/BA-163","program":"sota","name":"LUV/BA-163","coordinates":[-71.8451,-41.0323]},{"code":"LUV/BA-166","program":"sota","name":"LUV/BA-166","coordinates":[-71.8069,-41.0529]}]}