{"lat":-41,"lon":175,"programs":["gma","pota","sota"],"count":10,"references":[{"code":"XZL1/WL-013","program":"gma","name":"Quoin","coordinates":[175.2419,-40.999]},{"code":"NZ-0743","program":"pota","name":"Kaitawa Scenic Reserve","coordinates":[175.133,-40.8672]},{"code":"ZL1/WL-016","program":"sota","name":"Kapakapanui","coordinates":[175.162,-40.9325]},{"code":"ZL1/WL-027","program":"sota","name":"ZL1/WL-027","coordinates":[175.1605,-40.9556]},{"code":"ZL1/WL-040","program":"sota","name":"Kakanui","coordinates":[175.1359,-40.9647]},{"code":"ZL1/WL-058","program":"sota","name":"Maunganui","coordinates":[175.0487,-40.9695]},{"code":"ZL1/WL-074","program":"sota","name":"Field","coordinates":[175.1103,-40.8566]},{"code":"ZL1/WL-080","program":"sota","name":"Tent","coordinates":[175.1961,-40.8623]},{"code":"ZL1/WL-114","program":"sota","name":"ZL1/WL-114","coordinates":[175.0231,-40.9427]},{"code":"ZL1/WL-143","program":"sota","name":"Papakirae","coordinates":[175.053,-40.9069]}]}