{"lat":-41,"lon":174.75,"programs":["pota","sota"],"count":5,"references":[{"code":"NZ-0050","program":"pota","name":"Queen Elizabeth Regional Park","coordinates":[174.969,-40.9649]},{"code":"NZ-0587","program":"pota","name":"Kapiti Island Nature Reserve","coordinates":[174.907,-40.8593]},{"code":"NZ-0589","program":"pota","name":"Kapiti Marine Reserve","coordinates":[174.95,-40.8565]},{"code":"NZ-0744","program":"pota","name":"Queen Elizabeth Park Recreation Park","coordinates":[174.977,-40.9582]},{"code":"ZL1/WL-093","program":"sota","name":"Tuteremoana","coordinates":[174.9155,-40.8481]}]}