{"lat":-41.25,"lon":147.5,"programs":["pota","sota"],"count":9,"references":[{"code":"AU-6302","program":"pota","name":"North-East Park Conservation Area","coordinates":[147.522,-41.1669]},{"code":"AU-6596","program":"pota","name":"Mount Horror Regional Reserve","coordinates":[147.739,-41.0823]},{"code":"AU-6601","program":"pota","name":"Mount Stronach Regional Reserve","coordinates":[147.57,-41.1626]},{"code":"AU-6605","program":"pota","name":"North Scottsdale Regional Reserve","coordinates":[147.576,-41.0759]},{"code":"AU-6608","program":"pota","name":"Oxberry Plains Regional Reserve","coordinates":[147.663,-41.0161]},{"code":"VK7/NE-029","program":"sota","name":"Cuckoo Hill","coordinates":[147.6372,-41.2371]},{"code":"VK7/NE-034","program":"sota","name":"Mount Horror","coordinates":[147.7339,-41.0668]},{"code":"VK7/NE-041","program":"sota","name":"Johnstones Hill","coordinates":[147.6128,-41.2248]},{"code":"VK7/NE-045","program":"sota","name":"Mount Stronach","coordinates":[147.5654,-41.174]}]}