{"lat":-41.5,"lon":174,"programs":["pota","sota"],"count":12,"references":[{"code":"NZ-0384","program":"pota","name":"Robertson Range Scenic Reserve","coordinates":[174.047,-41.332]},{"code":"NZ-0708","program":"pota","name":"Whites Bay Recreation Park","coordinates":[174.044,-41.382]},{"code":"ZL3/MB-190","program":"sota","name":"Tokomaru/Mount Robertson","coordinates":[174.0222,-41.348]},{"code":"ZL3/MB-205","program":"sota","name":"Piripiri","coordinates":[174.0534,-41.3123]},{"code":"ZL3/MB-274","program":"sota","name":"Kahikatea","coordinates":[174.1133,-41.2622]},{"code":"ZL3/MB-278","program":"sota","name":"Rahotia","coordinates":[174.1662,-41.2738]},{"code":"ZL3/MB-284","program":"sota","name":"Taraukawa","coordinates":[174.2292,-41.2629]},{"code":"ZL3/MB-286","program":"sota","name":"ZL3/MB-286","coordinates":[174.1029,-41.284]},{"code":"ZL3/MB-298","program":"sota","name":"ZL3/MB-298","coordinates":[174.214,-41.2991]},{"code":"ZL3/MB-327","program":"sota","name":"ZL3/MB-327","coordinates":[174.1954,-41.2554]},{"code":"ZL3/MB-378","program":"sota","name":"ZL3/MB-378","coordinates":[174.03,-41.2667]},{"code":"ZL3/MB-380","program":"sota","name":"ZL3/MB-380","coordinates":[174.0053,-41.2756]}]}