{"lat":-41.25,"lon":175,"programs":["gma","pota","sota"],"count":22,"references":[{"code":"XZL1/WL-054","program":"gma","name":"Rimutaka","coordinates":[175.2301,-41.119]},{"code":"NZ-0049","program":"pota","name":"Kaitoke Regional Park","coordinates":[175.199,-41.069]},{"code":"NZ-0151","program":"pota","name":"Lake Wairarapa Wetland Conservation Area","coordinates":[175.23,-41.2359]},{"code":"NZ-0242","program":"pota","name":"Akatarawa Forest Regional Park","coordinates":[175.045,-41.0256]},{"code":"NZ-0243","program":"pota","name":"Pākuratahi Forest Regional Park","coordinates":[175.17,-41.1377]},{"code":"NZ-0740","program":"pota","name":"Hutt River Regional Park","coordinates":[175.219,-41.0089]},{"code":"ZL1/WL-033","program":"sota","name":"Climie","coordinates":[175.1434,-41.1503]},{"code":"ZL1/WL-037","program":"sota","name":"Maymorn","coordinates":[175.1963,-41.0228]},{"code":"ZL1/WL-041","program":"sota","name":"ZL1/WL-041","coordinates":[175.0757,-41.247]},{"code":"ZL1/WL-043","program":"sota","name":"Bawbaw","coordinates":[175.1297,-41.2163]},{"code":"ZL1/WL-056","program":"sota","name":"High Misty","coordinates":[175.078,-41.2054]},{"code":"ZL1/WL-060","program":"sota","name":"ZL1/WL-060","coordinates":[175.1804,-41.1597]},{"code":"ZL1/WL-061","program":"sota","name":"Deraa","coordinates":[175.2061,-41.1493]},{"code":"ZL1/WL-065","program":"sota","name":"Kaumatua Ridge","coordinates":[175.1967,-41.1132]},{"code":"ZL1/WL-067","program":"sota","name":"Devine","coordinates":[175.0379,-41.2195]},{"code":"ZL1/WL-069","program":"sota","name":"Mount Barton","coordinates":[175.1021,-41.0385]},{"code":"ZL1/WL-077","program":"sota","name":"ZL1/WL-077","coordinates":[175.1791,-41.192]},{"code":"ZL1/WL-102","program":"sota","name":"ZL1/WL-102","coordinates":[175.0499,-41.0782]},{"code":"ZL1/WL-103","program":"sota","name":"ZL1/WL-103","coordinates":[175.1796,-41.0639]},{"code":"ZL1/WL-115","program":"sota","name":"ZL1/WL-115","coordinates":[175.0226,-41.0998]},{"code":"ZL1/WL-158","program":"sota","name":"Rimutaka","coordinates":[175.2175,-41.131]},{"code":"ZL1/WL-162","program":"sota","name":"ZL1/WL-162","coordinates":[175.0542,-41.1778]}]}