{"lat":-41.5,"lon":173.25,"programs":["sota"],"count":23,"references":[{"code":"ZL3/MB-080","program":"sota","name":"Mount Richmond","coordinates":[173.3958,-41.4741]},{"code":"ZL3/MB-098","program":"sota","name":"Mount Fishtail","coordinates":[173.4951,-41.4461]},{"code":"ZL3/MB-104","program":"sota","name":"Mount Fell","coordinates":[173.4095,-41.4476]},{"code":"ZL3/MB-126","program":"sota","name":"Grass Knob","coordinates":[173.3636,-41.4744]},{"code":"ZL3/MB-149","program":"sota","name":"ZL3/MB-149","coordinates":[173.4447,-41.4571]},{"code":"ZL3/MB-171","program":"sota","name":"ZL3/MB-171","coordinates":[173.482,-41.4823]},{"code":"ZL3/MB-198","program":"sota","name":"ZL3/MB-198","coordinates":[173.4251,-41.3356]},{"code":"ZL3/MB-243","program":"sota","name":"ZL3/MB-243","coordinates":[173.4978,-41.3589]},{"code":"ZL3/MB-261","program":"sota","name":"ZL3/MB-261","coordinates":[173.4809,-41.3422]},{"code":"ZL3/MB-272","program":"sota","name":"ZL3/MB-272","coordinates":[173.4816,-41.2966]},{"code":"ZL3/TM-073","program":"sota","name":"Slaty Peak","coordinates":[173.2745,-41.4889]},{"code":"ZL3/TM-099","program":"sota","name":"Hacket Peaks","coordinates":[173.2637,-41.4515]},{"code":"ZL3/TM-139","program":"sota","name":"Saddle Hill","coordinates":[173.4299,-41.277]},{"code":"ZL3/TM-147","program":"sota","name":"ZL3/TM-147","coordinates":[173.416,-41.2889]},{"code":"ZL3/TM-155","program":"sota","name":"Little Twin","coordinates":[173.3938,-41.336]},{"code":"ZL3/TM-165","program":"sota","name":"Wooded Peak","coordinates":[173.3484,-41.3356]},{"code":"ZL3/TM-187","program":"sota","name":"ZL3/TM-187","coordinates":[173.3084,-41.3908]},{"code":"ZL3/TM-198","program":"sota","name":"Mount Malita","coordinates":[173.2734,-41.3785]},{"code":"ZL3/TM-219","program":"sota","name":"ZL3/TM-219","coordinates":[173.2915,-41.3367]},{"code":"ZL3/TM-252","program":"sota","name":"ZL3/TM-252","coordinates":[173.3567,-41.2521]},{"code":"ZL3/TM-261","program":"sota","name":"ZL3/TM-261","coordinates":[173.3762,-41.27]},{"code":"ZL3/TM-270","program":"sota","name":"Grampians","coordinates":[173.2799,-41.2979]},{"code":"ZL3/TM-272","program":"sota","name":"Sharland Hill","coordinates":[173.3071,-41.2869]}]}