{"lat":-41,"lon":147.75,"programs":["pota","sota"],"count":5,"references":[{"code":"AU-6098","program":"pota","name":"Boobyalla Conservation Area","coordinates":[147.855,-40.8841]},{"code":"AU-6236","program":"pota","name":"Little Boobyalla River Conservation Area","coordinates":[147.881,-40.9587]},{"code":"AU-6444","program":"pota","name":"Baynes Island Nature Reserve","coordinates":[147.938,-40.7699]},{"code":"AU-6531","program":"pota","name":"Cameron Regional Reserve","coordinates":[147.906,-40.9783]},{"code":"VK7/NE-038","program":"sota","name":"Mount Cameron","coordinates":[147.9425,-40.9818]}]}