{"lat":-41,"lon":145.25,"programs":["pota","sota"],"count":15,"references":[{"code":"AU-0533","program":"pota","name":"The Nut State Reserve","coordinates":[145.303,-40.7631]},{"code":"AU-0573","program":"pota","name":"Little Peggs Beach State Reserve","coordinates":[145.359,-40.8564]},{"code":"AU-3057","program":"pota","name":"Peggs Beach Conservation Area","coordinates":[145.319,-40.8434]},{"code":"AU-3061","program":"pota","name":"Stanley Conservation Area","coordinates":[145.289,-40.766]},{"code":"AU-3063","program":"pota","name":"Tatlows Beach Conservation Area","coordinates":[145.281,-40.779]},{"code":"AU-6089","program":"pota","name":"Black River Conservation Area","coordinates":[145.301,-40.8755]},{"code":"AU-6090","program":"pota","name":"Black River Bridge Conservation Area","coordinates":[145.303,-40.8461]},{"code":"AU-6091","program":"pota","name":"Black River South Conservation Area","coordinates":[145.386,-40.9898]},{"code":"AU-6171","program":"pota","name":"Edgcumbe Beach Conservation Area","coordinates":[145.422,-40.8651]},{"code":"AU-6190","program":"pota","name":"Forwards Beach Conservation Area","coordinates":[145.487,-40.8668]},{"code":"AU-6536","program":"pota","name":"Crayfish Creek Regional Reserve","coordinates":[145.378,-40.8729]},{"code":"AU-6543","program":"pota","name":"Dip Range Regional Reserve","coordinates":[145.489,-40.9954]},{"code":"AU-6626","program":"pota","name":"Shakespeare Hills Regional Reserve","coordinates":[145.446,-40.9444]},{"code":"AU-6825","program":"pota","name":"Lyons Cottage Historic Site","coordinates":[145.299,-40.7656]},{"code":"VK7/NW-046","program":"sota","name":"Tinkers Lookout","coordinates":[145.4963,-40.8789]}]}