{"lat":-41.5,"lon":147,"programs":["pota","sota"],"count":13,"references":[{"code":"AU-0528","program":"pota","name":"Trevallyn Nature Recreation Area","coordinates":[147.101,-41.4513]},{"code":"AU-0536","program":"pota","name":"Tamar Conservation Area","coordinates":[147.023,-41.3278]},{"code":"AU-0580","program":"pota","name":"Kate Reed Nature Recreation Area","coordinates":[147.144,-41.4825]},{"code":"AU-6101","program":"pota","name":"Bouchers Creek Conservation Area","coordinates":[147.156,-41.3674]},{"code":"AU-6124","program":"pota","name":"Carr Villa Conservation Area","coordinates":[147.171,-41.4685]},{"code":"AU-6159","program":"pota","name":"Dismal Range Conservation Area","coordinates":[147.069,-41.2724]},{"code":"AU-6325","program":"pota","name":"Punchbowl Conservation Area","coordinates":[147.168,-41.4564]},{"code":"AU-6570","program":"pota","name":"Lady Nelson Regional Reserve","coordinates":[147.151,-41.2985]},{"code":"AU-6615","program":"pota","name":"Prossers Regional Reserve","coordinates":[147.231,-41.387]},{"code":"AU-7634","program":"pota","name":"Pipers River Regional Reserve","coordinates":[147.231,-41.3246]},{"code":"VK7/NC-022","program":"sota","name":"Grassy Hut Tier","coordinates":[147.0384,-41.4542]},{"code":"VK7/NE-039","program":"sota","name":"Browns Hill","coordinates":[147.2003,-41.2724]},{"code":"VK7/NE-040","program":"sota","name":"Dismal Range","coordinates":[147.1091,-41.2565]}]}