{"lat":-41.25,"lon":144.75,"programs":["pota"],"count":7,"references":[{"code":"AU-6080","program":"pota","name":"Arthur River Conservation Area","coordinates":[144.961,-41.0988]},{"code":"AU-6332","program":"pota","name":"Rebecca Creek Conservation Area","coordinates":[144.762,-41.1971]},{"code":"AU-6518","program":"pota","name":"Balfour Track Regional Reserve","coordinates":[144.95,-41.148]},{"code":"AU-6578","program":"pota","name":"Lovells Creek Regional Reserve","coordinates":[144.853,-41.0634]},{"code":"AU-6589","program":"pota","name":"Montagu River Regional Reserve","coordinates":[144.965,-41.0569]},{"code":"AU-6590","program":"pota","name":"Montagu Swamp Regional Reserve","coordinates":[144.915,-41.0117]},{"code":"AU-6634","program":"pota","name":"Sumac Regional Reserve","coordinates":[144.981,-41.1909]}]}