{"lat":-41.5,"lon":146.5,"programs":["pota","sota"],"count":11,"references":[{"code":"AU-6112","program":"pota","name":"Brushy Rivulet Conservation Area","coordinates":[146.741,-41.4446]},{"code":"AU-6133","program":"pota","name":"Christmas Hills Conservation Area","coordinates":[146.613,-41.4669]},{"code":"AU-6195","program":"pota","name":"Franklin Rivulet Conservation Area","coordinates":[146.615,-41.257]},{"code":"AU-6245","program":"pota","name":"Long Hill Conservation Area","coordinates":[146.505,-41.3838]},{"code":"AU-6336","program":"pota","name":"Reedy Marsh Conservation Area","coordinates":[146.717,-41.4053]},{"code":"AU-6414","program":"pota","name":"Virginstow Conservation Area","coordinates":[146.645,-41.327]},{"code":"AU-6535","program":"pota","name":"Coppermine Creek Regional Reserve","coordinates":[146.741,-41.2804]},{"code":"AU-6620","program":"pota","name":"Roaring Magg Hill Regional Reserve","coordinates":[146.668,-41.263]},{"code":"VK7/NC-014","program":"sota","name":"Stephens Hill","coordinates":[146.6659,-41.4368]},{"code":"VK7/NC-015","program":"sota","name":"Christmas Hills","coordinates":[146.6044,-41.4526]},{"code":"VK7/NC-027","program":"sota","name":"Drys Sugarloaf","coordinates":[146.6372,-41.261]}]}