{"lat":-41.25,"lon":146.75,"programs":["pota","sota"],"count":16,"references":[{"code":"AU-3054","program":"pota","name":"Low Head Conservation Area","coordinates":[146.796,-41.0641]},{"code":"AU-6150","program":"pota","name":"Dans Hill Conservation Area","coordinates":[146.769,-41.1983]},{"code":"AU-6183","program":"pota","name":"Five Mile Bluff Conservation Area","coordinates":[146.973,-41.034]},{"code":"AU-6248","program":"pota","name":"Long Reach Conservation Area","coordinates":[146.934,-41.1576]},{"code":"AU-6265","program":"pota","name":"Middle Arm Conservation Area","coordinates":[146.842,-41.1857]},{"code":"AU-6266","program":"pota","name":"Middle Island Conservation Area","coordinates":[146.865,-41.1623]},{"code":"AU-6335","program":"pota","name":"Redbill Point Conservation Area","coordinates":[146.807,-41.1403]},{"code":"AU-6364","program":"pota","name":"Sidmouth Conservation Area","coordinates":[146.899,-41.2195]},{"code":"AU-6402","program":"pota","name":"Tippogoree Hills Conservation Area","coordinates":[146.95,-41.1359]},{"code":"AU-6424","program":"pota","name":"West Arm Conservation Area","coordinates":[146.775,-41.1575]},{"code":"AU-6511","program":"pota","name":"Andersons Creek Regional Reserve","coordinates":[146.753,-41.1835]},{"code":"AU-6612","program":"pota","name":"Peaked Hill Regional Reserve","coordinates":[146.801,-41.2409]},{"code":"AU-6824","program":"pota","name":"Low Head Historic Site","coordinates":[146.789,-41.0563]},{"code":"AU-6837","program":"pota","name":"Yorktown Historic Site","coordinates":[146.761,-41.1519]},{"code":"VK7/NC-026","program":"sota","name":"Peaked Hill","coordinates":[146.805,-41.2445]},{"code":"VK7/NE-051","program":"sota","name":"Tippogoree","coordinates":[146.9573,-41.1329]}]}