{"lat":-41.5,"lon":148.25,"programs":["pota"],"count":10,"references":[{"code":"AU-0543","program":"pota","name":"St Helens Conservation Area","coordinates":[148.319,-41.3181]},{"code":"AU-0550","program":"pota","name":"Scamander Conservation Area","coordinates":[148.281,-41.4112]},{"code":"AU-0584","program":"pota","name":"Humbug Point Nature Recreation Area","coordinates":[148.309,-41.2742]},{"code":"AU-6096","program":"pota","name":"Boggy Creek Conservation Area","coordinates":[148.256,-41.3461]},{"code":"AU-6259","program":"pota","name":"McDonalds Point Conservation Area","coordinates":[148.279,-41.3178]},{"code":"AU-6307","program":"pota","name":"Parnella Conservation Area","coordinates":[148.285,-41.3293]},{"code":"AU-6490","program":"pota","name":"Paddys Island Nature Reserve","coordinates":[148.303,-41.3977]},{"code":"AU-8845","program":"pota","name":"Beaumaris Beach - State Beach","coordinates":[148.283,-41.408]},{"code":"AU-8856","program":"pota","name":"Dianas Beach - State Beach","coordinates":[148.291,-41.381]},{"code":"AU-8857","program":"pota","name":"Maurouard Beach - State Beach","coordinates":[148.324,-41.3139]}]}