{"lat":-41.75,"lon":172.5,"programs":["pota","sota"],"count":15,"references":[{"code":"NZ-0224","program":"pota","name":"Tutaki North Conservation Area","coordinates":[172.513,-41.7496]},{"code":"NZ-0483","program":"pota","name":"Glenhope Scenic Reserve","coordinates":[172.625,-41.7278]},{"code":"ZL3/TM-034","program":"sota","name":"Mount Owen","coordinates":[172.5412,-41.552]},{"code":"ZL3/TM-036","program":"sota","name":"Mount Bell","coordinates":[172.5567,-41.5422]},{"code":"ZL3/TM-041","program":"sota","name":"Culliford Hill","coordinates":[172.5438,-41.5087]},{"code":"ZL3/TM-052","program":"sota","name":"Lookout Range (North)","coordinates":[172.5949,-41.5356]},{"code":"ZL3/TM-053","program":"sota","name":"Billies Knob","coordinates":[172.571,-41.5149]},{"code":"ZL3/TM-064","program":"sota","name":"Lookout Range (South)","coordinates":[172.5954,-41.5835]},{"code":"ZL3/TM-110","program":"sota","name":"ZL3/TM-110","coordinates":[172.5177,-41.588]},{"code":"ZL3/TM-127","program":"sota","name":"Mount Hope (High Point)","coordinates":[172.5826,-41.6539]},{"code":"ZL3/TM-157","program":"sota","name":"ZL3/TM-157","coordinates":[172.6203,-41.7293]},{"code":"ZL3/TM-216","program":"sota","name":"ZL3/TM-216","coordinates":[172.5918,-41.7225]},{"code":"ZL3/TM-234","program":"sota","name":"ZL3/TM-234","coordinates":[172.6275,-41.6878]},{"code":"ZL3/TM-254","program":"sota","name":"ZL3/TM-254","coordinates":[172.7384,-41.5281]},{"code":"ZL3/TM-290","program":"sota","name":"ZL3/TM-290","coordinates":[172.5855,-41.6368]}]}