{"lat":-41.5,"lon":144.75,"programs":["pota","sota"],"count":7,"references":[{"code":"AU-0615","program":"pota","name":"Arthur-Pieman Conservation Area","coordinates":[144.89,-41.3885]},{"code":"VK7/NW-024","program":"sota","name":"Mt Norfolk","coordinates":[144.9612,-41.4463]},{"code":"VK7/NW-032","program":"sota","name":"Mt Hazelton","coordinates":[144.9296,-41.3628]},{"code":"VK7/NW-034","program":"sota","name":"Mt Holloway","coordinates":[144.9809,-41.423]},{"code":"VK7/NW-043","program":"sota","name":"Mt Frankland","coordinates":[144.9306,-41.288]},{"code":"VK7/NW-045","program":"sota","name":"Mt Balfour","coordinates":[144.881,-41.2871]},{"code":"VK7/NW-055","program":"sota","name":"Mount Mabel","coordinates":[144.949,-41.4226]}]}