{"lat":-41.5,"lon":147.25,"programs":["pota","sota"],"count":11,"references":[{"code":"AU-0564","program":"pota","name":"Mount Barrow State Reserve","coordinates":[147.412,-41.3834]},{"code":"AU-0565","program":"pota","name":"Mount Barrow Falls State Reserve","coordinates":[147.393,-41.353]},{"code":"AU-2175","program":"pota","name":"Skemps Myrtle Bank Forest Reserve","coordinates":[147.363,-41.299]},{"code":"AU-6591","program":"pota","name":"Mount Arthur Regional Reserve","coordinates":[147.287,-41.2813]},{"code":"AU-6606","program":"pota","name":"Nunamara Regional Reserve","coordinates":[147.311,-41.398]},{"code":"AU-6644","program":"pota","name":"Weavers Creek Regional Reserve","coordinates":[147.373,-41.4631]},{"code":"VK7/NE-003","program":"sota","name":"Mount Barrow","coordinates":[147.4187,-41.3766]},{"code":"VK7/NE-008","program":"sota","name":"Mount Arthur","coordinates":[147.2897,-41.2776]},{"code":"VK7/NE-026","program":"sota","name":"Knockup","coordinates":[147.4038,-41.2723]},{"code":"VK7/NE-037","program":"sota","name":"Bonners Hill","coordinates":[147.4879,-41.2623]},{"code":"VK7/NE-082","program":"sota","name":"VK7/NE-082","coordinates":[147.3013,-41.4679]}]}