{"lat":-41.5,"lon":-71.75,"programs":["pota","sota"],"count":23,"references":[{"code":"AR-0192","program":"pota","name":"Parque Municipal Llao Llao Natural Area","coordinates":[-71.6243,-41.2819]},{"code":"LUV/BA-024","program":"sota","name":"Cerro Granítico","coordinates":[-71.6596,-41.382]},{"code":"LUV/BA-041","program":"sota","name":"LUV/BA-041","coordinates":[-71.6184,-41.4596]},{"code":"LUV/BA-044","program":"sota","name":"Cerro Padre Laguna","coordinates":[-71.5305,-41.4002]},{"code":"LUV/BA-053","program":"sota","name":"Cerro Anfiteatro","coordinates":[-71.5397,-41.4329]},{"code":"LUV/BA-062","program":"sota","name":"LUV/BA-062","coordinates":[-71.6271,-41.3933]},{"code":"LUV/BA-063","program":"sota","name":"Cerro Roca Castillo Roio","coordinates":[-71.5768,-41.2516]},{"code":"LUV/BA-081","program":"sota","name":"LUV/BA-081","coordinates":[-71.6821,-41.3657]},{"code":"LUV/BA-083","program":"sota","name":"Cerro Fuerte","coordinates":[-71.6164,-41.4818]},{"code":"LUV/BA-095","program":"sota","name":"LUV/BA-095","coordinates":[-71.6095,-41.4009]},{"code":"LUV/BA-099","program":"sota","name":"Cerro Cretón","coordinates":[-71.7078,-41.2899]},{"code":"LUV/BA-111","program":"sota","name":"LUV/BA-111","coordinates":[-71.6556,-41.4223]},{"code":"LUV/BA-112","program":"sota","name":"LUV/BA-112","coordinates":[-71.6989,-41.4308]},{"code":"LUV/BA-128","program":"sota","name":"Cerro Los Moscos","coordinates":[-71.6364,-41.3206]},{"code":"LUV/BA-130","program":"sota","name":"Cerro Capitán Diego de León","coordinates":[-71.6368,-41.2917]},{"code":"LUV/BA-137","program":"sota","name":"Cerro Martín","coordinates":[-71.6718,-41.4732]},{"code":"LUV/BA-141","program":"sota","name":"LUV/BA-141","coordinates":[-71.6101,-41.3668]},{"code":"LUV/BA-148","program":"sota","name":"LUV/BA-148","coordinates":[-71.7026,-41.3251]},{"code":"LUV/BA-154","program":"sota","name":"Cerro Mora","coordinates":[-71.5469,-41.3194]},{"code":"LUV/BA-161","program":"sota","name":"LUV/BA-161","coordinates":[-71.6798,-41.3197]},{"code":"LUV/BA-180","program":"sota","name":"LUV/BA-180","coordinates":[-71.5911,-41.3359]},{"code":"LUV/BA-181","program":"sota","name":"LUV/BA-181","coordinates":[-71.7472,-41.4152]},{"code":"LUV/BA-185","program":"sota","name":"LUV/BA-185","coordinates":[-71.5804,-41.4275]}]}