{"lat":-41.25,"lon":173.5,"programs":["pota","sota"],"count":21,"references":[{"code":"NZ-0707","program":"pota","name":"Odlins Exchange Scenic Reserve","coordinates":[173.743,-41.0662]},{"code":"NZ-0713","program":"pota","name":"Kiwi Bay & Moncrieff Scenic Reserve","coordinates":[173.642,-41.0979]},{"code":"ZL3/MB-188","program":"sota","name":"ZL3/MB-188","coordinates":[173.6897,-41.1349]},{"code":"ZL3/MB-195","program":"sota","name":"Mount Rutland","coordinates":[173.7039,-41.2359]},{"code":"ZL3/MB-212","program":"sota","name":"Opouri Peak","coordinates":[173.7453,-41.187]},{"code":"ZL3/MB-215","program":"sota","name":"Lookout Peak","coordinates":[173.7424,-41.151]},{"code":"ZL3/MB-222","program":"sota","name":"ZL3/MB-222","coordinates":[173.6536,-41.2323]},{"code":"ZL3/MB-226","program":"sota","name":"Bull Range (North)","coordinates":[173.6864,-41.1542]},{"code":"ZL3/MB-228","program":"sota","name":"Bull Range (Mid)","coordinates":[173.6718,-41.1645]},{"code":"ZL3/MB-236","program":"sota","name":"ZL3/MB-236","coordinates":[173.6304,-41.1684]},{"code":"ZL3/MB-239","program":"sota","name":"Mount Ronga","coordinates":[173.6263,-41.1471]},{"code":"ZL3/MB-249","program":"sota","name":"Gibraltar Hill","coordinates":[173.728,-41.1753]},{"code":"ZL3/MB-255","program":"sota","name":"Mount McLaren","coordinates":[173.7292,-41.0821]},{"code":"ZL3/MB-270","program":"sota","name":"Tennyson","coordinates":[173.7493,-41.0851]},{"code":"ZL3/MB-299","program":"sota","name":"Askews Hill","coordinates":[173.7077,-41.0272]},{"code":"ZL3/MB-370","program":"sota","name":"ZL3/MB-370","coordinates":[173.653,-41.1288]},{"code":"ZL3/TM-206","program":"sota","name":"ZL3/TM-206","coordinates":[173.5173,-41.1993]},{"code":"ZL3/TM-218","program":"sota","name":"North Castor Peak","coordinates":[173.5787,-41.136]},{"code":"ZL3/TM-238","program":"sota","name":"Croisilles Hill","coordinates":[173.588,-41.1004]},{"code":"ZL3/TM-256","program":"sota","name":"Maunganui","coordinates":[173.5177,-41.1441]},{"code":"ZL3/TM-263","program":"sota","name":"ZL3/TM-263","coordinates":[173.5747,-41.1839]}]}