{"lat":-41.5,"lon":172,"programs":["gma","pota","sota"],"count":16,"references":[{"code":"XZL3/WC-489","program":"gma","name":"Mount Webb","coordinates":[172.216,-41.4699]},{"code":"NZ-0502","program":"pota","name":"Karamea Bluff Ecological Area","coordinates":[172.007,-41.4928]},{"code":"NZ-0519","program":"pota","name":"Glasseye Creek Ecological Area","coordinates":[172.058,-41.4479]},{"code":"NZ-0803","program":"pota","name":"Boulder Creek Conservation Area","coordinates":[172.025,-41.4327]},{"code":"NZ-0804","program":"pota","name":"O'Connor Creek Conservation Area","coordinates":[172.081,-41.407]},{"code":"NZ-0841","program":"pota","name":"Kongahu Conservation Area","coordinates":[172.092,-41.2839]},{"code":"ZL3/WC-479","program":"sota","name":"Mount Fugel","coordinates":[172.2391,-41.4059]},{"code":"ZL3/WC-490","program":"sota","name":"ZL3/WC-490","coordinates":[172.2247,-41.4168]},{"code":"ZL3/WC-522","program":"sota","name":"Mount O'Connor","coordinates":[172.1453,-41.4703]},{"code":"ZL3/WC-566","program":"sota","name":"Stormy","coordinates":[172.2315,-41.2833]},{"code":"ZL3/WC-601","program":"sota","name":"Radiant Range (Mid)","coordinates":[172.0764,-41.4905]},{"code":"ZL3/WC-670","program":"sota","name":"ZL3/WC-670","coordinates":[172.0301,-41.4614]},{"code":"ZL3/WC-674","program":"sota","name":"ZL3/WC-674","coordinates":[172.0008,-41.4812]},{"code":"ZL3/WC-703","program":"sota","name":"ZL3/WC-703","coordinates":[172.0515,-41.409]},{"code":"ZL3/WC-727","program":"sota","name":"ZL3/WC-727","coordinates":[172.0765,-41.4091]},{"code":"ZL3/WC-773","program":"sota","name":"ZL3/WC-773","coordinates":[172.2227,-41.4598]}]}