{"lat":-41.25,"lon":174,"programs":["pota","sota"],"count":29,"references":[{"code":"NZ-0385","program":"pota","name":"Mount Stokes Scenic Reserve","coordinates":[174.089,-41.0999]},{"code":"NZ-0395","program":"pota","name":"Tahuakai Scenic Reserve","coordinates":[174.145,-41.0907]},{"code":"NZ-0397","program":"pota","name":"Ship Cove Historical Reserve","coordinates":[174.228,-41.0989]},{"code":"NZ-0704","program":"pota","name":"Titirangi Farm Park","coordinates":[174.142,-41.0258]},{"code":"NZ-0712","program":"pota","name":"Tawa Bay Scenic Reserve","coordinates":[174.198,-41.1211]},{"code":"NZ-0717","program":"pota","name":"Big Bay Scenic Reserve","coordinates":[174.145,-41.1074]},{"code":"NZ-0718","program":"pota","name":"Ngaruru Scenic Reserve","coordinates":[174.209,-41.22]},{"code":"NZ-0719","program":"pota","name":"Bay of Many Coves Scenic Reserve","coordinates":[174.156,-41.1741]},{"code":"ZL3/MB-169","program":"sota","name":"Mount Stokes","coordinates":[174.1021,-41.0903]},{"code":"ZL3/MB-170","program":"sota","name":"ZL3/MB-170","coordinates":[174.1048,-41.1139]},{"code":"ZL3/MB-220","program":"sota","name":"ZL3/MB-220","coordinates":[174.0698,-41.0434]},{"code":"ZL3/MB-225","program":"sota","name":"Grants Lookout","coordinates":[174.1521,-41.0819]},{"code":"ZL3/MB-227","program":"sota","name":"Tahuakai","coordinates":[174.1284,-41.0385]},{"code":"ZL3/MB-234","program":"sota","name":"Mount Furneaux","coordinates":[174.2114,-41.0852]},{"code":"ZL3/MB-244","program":"sota","name":"ZL3/MB-244","coordinates":[174.1466,-41.0336]},{"code":"ZL3/MB-251","program":"sota","name":"ZL3/MB-251","coordinates":[174.1662,-41.0249]},{"code":"ZL3/MB-264","program":"sota","name":"Oterawhanga","coordinates":[174.2488,-41.0598]},{"code":"ZL3/MB-276","program":"sota","name":"ZL3/MB-276","coordinates":[174.0154,-41.1144]},{"code":"ZL3/MB-280","program":"sota","name":"ZL3/MB-280","coordinates":[174.0057,-41.1528]},{"code":"ZL3/MB-302","program":"sota","name":"ZL3/MB-302","coordinates":[174.1351,-41.1802]},{"code":"ZL3/MB-309","program":"sota","name":"Eatwells Lookout","coordinates":[174.1615,-41.1605]},{"code":"ZL3/MB-314","program":"sota","name":"ZL3/MB-314","coordinates":[174.0442,-41.2028]},{"code":"ZL3/MB-321","program":"sota","name":"ZL3/MB-321","coordinates":[174.0111,-41.2129]},{"code":"ZL3/MB-322","program":"sota","name":"ZL3/MB-322","coordinates":[174.2346,-41.1112]},{"code":"ZL3/MB-326","program":"sota","name":"Kaitapeha","coordinates":[174.1899,-41.2279]},{"code":"ZL3/MB-342","program":"sota","name":"Blumine Island (Oruawairua)","coordinates":[174.2407,-41.1741]},{"code":"ZL3/MB-347","program":"sota","name":"ZL3/MB-347","coordinates":[174.184,-41.1891]},{"code":"ZL3/MB-354","program":"sota","name":"Kaiaho Point","coordinates":[174.0273,-41.1872]},{"code":"ZL3/MB-369","program":"sota","name":"ZL3/MB-369","coordinates":[174.0588,-41.0743]}]}