{"lat":-41.5,"lon":146.75,"programs":["pota","sota"],"count":12,"references":[{"code":"AU-0558","program":"pota","name":"Notley Gorge State Reserve","coordinates":[146.915,-41.3556]},{"code":"AU-0585","program":"pota","name":"Holwell Gorge State Reserve","coordinates":[146.763,-41.2548]},{"code":"AU-0612","program":"pota","name":"Bradys Lookout State Reserve","coordinates":[146.991,-41.3276]},{"code":"AU-3071","program":"pota","name":"Native Point Nature Park","coordinates":[146.982,-41.3052]},{"code":"AU-6106","program":"pota","name":"Bridgenorth Conservation Area","coordinates":[146.931,-41.3825]},{"code":"AU-6592","program":"pota","name":"Mount Careless Regional Reserve","coordinates":[146.806,-41.3403]},{"code":"VK7/NC-012","program":"sota","name":"Kellys Lookout","coordinates":[146.7756,-41.3035]},{"code":"VK7/NC-016","program":"sota","name":"Black Sugarloaf","coordinates":[146.8015,-41.3896]},{"code":"VK7/NC-018","program":"sota","name":"The Tump","coordinates":[146.8771,-41.3717]},{"code":"VK7/NC-025","program":"sota","name":"Notley Hills","coordinates":[146.9287,-41.3601]},{"code":"VK7/NC-029","program":"sota","name":"VK7/NC-029","coordinates":[146.7662,-41.3498]},{"code":"VK7/NC-030","program":"sota","name":"Mount Careless","coordinates":[146.7868,-41.3236]}]}