{"lat":-41,"lon":172.25,"programs":["sota"],"count":12,"references":[{"code":"ZL3/TM-080","program":"sota","name":"Mount Inaccessible","coordinates":[172.4,-40.9474]},{"code":"ZL3/TM-096","program":"sota","name":"Gouland Range (South)","coordinates":[172.3308,-40.9899]},{"code":"ZL3/TM-121","program":"sota","name":"Gouland Range (North)","coordinates":[172.3765,-40.9156]},{"code":"ZL3/TM-135","program":"sota","name":"Mount Perry","coordinates":[172.3968,-40.8915]},{"code":"ZL3/TM-140","program":"sota","name":"Mount Stevens","coordinates":[172.4514,-40.794]},{"code":"ZL3/TM-148","program":"sota","name":"Percy Peak","coordinates":[172.3733,-40.8477]},{"code":"ZL3/TM-150","program":"sota","name":"ZL3/TM-150","coordinates":[172.4052,-40.8271]},{"code":"ZL3/TM-164","program":"sota","name":"ZL3/TM-164","coordinates":[172.4972,-40.7725]},{"code":"ZL3/TM-196","program":"sota","name":"ZL3/TM-196","coordinates":[172.4118,-40.772]},{"code":"ZL3/TM-209","program":"sota","name":"Slate Range","coordinates":[172.3089,-40.8805]},{"code":"ZL3/TM-220","program":"sota","name":"Mount Teddy","coordinates":[172.2805,-40.8728]},{"code":"ZL3/WC-646","program":"sota","name":"ZL3/WC-646","coordinates":[172.2944,-40.9525]}]}