{"lat":-41.75,"lon":147.5,"programs":["pota","sota"],"count":15,"references":[{"code":"AU-0613","program":"pota","name":"Ben Lomond National Park","coordinates":[147.662,-41.5657]},{"code":"AU-6182","program":"pota","name":"Fisher Tier Conservation Area","coordinates":[147.544,-41.6133]},{"code":"AU-6264","program":"pota","name":"Midday Hill Conservation Area","coordinates":[147.58,-41.6435]},{"code":"AU-6272","program":"pota","name":"Moss Gully Conservation Area","coordinates":[147.598,-41.6875]},{"code":"AU-6339","program":"pota","name":"River Hill Conservation Area","coordinates":[147.505,-41.5893]},{"code":"AU-6533","program":"pota","name":"Castle Cary Regional Reserve","coordinates":[147.731,-41.7014]},{"code":"VK7/NE-001","program":"sota","name":"Legges Tor","coordinates":[147.6584,-41.5329]},{"code":"VK7/NE-002","program":"sota","name":"Stacks Bluff","coordinates":[147.6886,-41.6261]},{"code":"VK7/NE-004","program":"sota","name":"Ragged Jack","coordinates":[147.5853,-41.5554]},{"code":"VK7/NE-013","program":"sota","name":"Midday Hill","coordinates":[147.5779,-41.6286]},{"code":"VK7/NE-019","program":"sota","name":"Rigney Hills","coordinates":[147.6203,-41.6686]},{"code":"VK7/NE-021","program":"sota","name":"Dalrymple Hill","coordinates":[147.7468,-41.6866]},{"code":"VK7/NE-035","program":"sota","name":"Mount Christie","coordinates":[147.6708,-41.7412]},{"code":"VK7/NE-079","program":"sota","name":"VK7/NE-079","coordinates":[147.6426,-41.5832]},{"code":"VK7/NE-080","program":"sota","name":"VK7/NE-080","coordinates":[147.5933,-41.6104]}]}