{"lat":-41,"lon":175.5,"programs":["sota"],"count":9,"references":[{"code":"ZL1/WL-015","program":"sota","name":"Te Mara","coordinates":[175.5128,-40.8021]},{"code":"ZL1/WL-049","program":"sota","name":"Dagg","coordinates":[175.5178,-40.8541]},{"code":"ZL1/WL-053","program":"sota","name":"Whakapapa","coordinates":[175.5497,-40.8199]},{"code":"ZL1/WL-071","program":"sota","name":"Popes Hill","coordinates":[175.5068,-40.9209]},{"code":"ZL1/WL-073","program":"sota","name":"Rangitumau","coordinates":[175.7361,-40.8512]},{"code":"ZL1/WL-082","program":"sota","name":"Snowden","coordinates":[175.725,-40.7943]},{"code":"ZL1/WL-091","program":"sota","name":"ZL1/WL-091","coordinates":[175.7244,-40.7787]},{"code":"ZL1/WL-095","program":"sota","name":"ZL1/WL-095","coordinates":[175.7483,-40.7524]},{"code":"ZL1/WL-111","program":"sota","name":"ZL1/WL-111","coordinates":[175.578,-40.8493]}]}