{"lat":-41.75,"lon":148,"programs":["pota","sota"],"count":18,"references":[{"code":"AU-0541","program":"pota","name":"St Patricks Head State Reserve","coordinates":[148.246,-41.5663]},{"code":"AU-0542","program":"pota","name":"St Marys Pass State Reserve","coordinates":[148.214,-41.5406]},{"code":"AU-3088","program":"pota","name":"German Town Regional Reserve","coordinates":[148.196,-41.5079]},{"code":"AU-6132","program":"pota","name":"Cheeseberry Hill Conservation Area","coordinates":[148.191,-41.5444]},{"code":"AU-6181","program":"pota","name":"Fingal Rivulet Conservation Area","coordinates":[148,-41.6525]},{"code":"AU-6528","program":"pota","name":"Break O'Day Regional Reserve","coordinates":[148.173,-41.6463]},{"code":"AU-6563","program":"pota","name":"Huntsmans Cap Regional Reserve","coordinates":[148.102,-41.5176]},{"code":"AU-6600","program":"pota","name":"Mount Puzzler Regional Reserve","coordinates":[148.085,-41.7425]},{"code":"AU-6603","program":"pota","name":"Nicholas Range Regional Reserve","coordinates":[148.115,-41.5413]},{"code":"VK7/EC-005","program":"sota","name":"Fingal Tier 872","coordinates":[148.0739,-41.6571]},{"code":"VK7/EC-011","program":"sota","name":"Mount Punter","coordinates":[148.119,-41.7498]},{"code":"VK7/EC-013","program":"sota","name":"Mt Elephant","coordinates":[148.2475,-41.6175]},{"code":"VK7/EC-019","program":"sota","name":"St Patricks Head","coordinates":[148.2358,-41.5725]},{"code":"VK7/EC-023","program":"sota","name":"Lookout Hill","coordinates":[148.2143,-41.7466]},{"code":"VK7/NE-017","program":"sota","name":"Mount Nicholas","coordinates":[148.1049,-41.542]},{"code":"VK7/NE-020","program":"sota","name":"South Sister","coordinates":[148.1724,-41.5346]},{"code":"VK7/NE-027","program":"sota","name":"Mount Durham","coordinates":[148.0641,-41.5454]},{"code":"VK7/NE-081","program":"sota","name":"Huntsmans Cap","coordinates":[148.105,-41.5228]}]}