{"lat":-41.5,"lon":147.75,"programs":["pota","sota"],"count":14,"references":[{"code":"AU-0544","program":"pota","name":"St Columba Falls State Reserve","coordinates":[147.947,-41.3021]},{"code":"AU-6298","program":"pota","name":"North George River Conservation Area","coordinates":[147.942,-41.2574]},{"code":"AU-6340","program":"pota","name":"River Tyne Conservation Area","coordinates":[147.807,-41.4953]},{"code":"AU-6552","program":"pota","name":"Evercreech Regional Reserve","coordinates":[147.976,-41.4039]},{"code":"AU-6568","program":"pota","name":"Kohls Falls Regional Reserve","coordinates":[147.982,-41.3272]},{"code":"AU-6586","program":"pota","name":"Mathinna Falls Regional Reserve","coordinates":[147.896,-41.403]},{"code":"AU-6602","program":"pota","name":"Mount Victoria Regional Reserve","coordinates":[147.852,-41.3062]},{"code":"AU-6636","program":"pota","name":"Teds Flat Regional Reserve","coordinates":[147.945,-41.4497]},{"code":"VK7/NE-006","program":"sota","name":"Mount Saddleback","coordinates":[147.7594,-41.398]},{"code":"VK7/NE-007","program":"sota","name":"Mount Victoria","coordinates":[147.8406,-41.333]},{"code":"VK7/NE-011","program":"sota","name":"Mount Albert","coordinates":[147.8718,-41.3489]},{"code":"VK7/NE-015","program":"sota","name":"Mount Young","coordinates":[147.9572,-41.3602]},{"code":"VK7/NE-016","program":"sota","name":"Mount Blackboy","coordinates":[147.8783,-41.402]},{"code":"VK7/NE-023","program":"sota","name":"Bendover Hill","coordinates":[147.9267,-41.2921]}]}