{"lat":-42.75,"lon":147.25,"programs":["pota","sota"],"count":17,"references":[{"code":"AU-6074","program":"pota","name":"Alpha Pinnacle Conservation Area","coordinates":[147.316,-42.5783]},{"code":"AU-6131","program":"pota","name":"Chauncy Vale Conservation Area","coordinates":[147.286,-42.6099]},{"code":"AU-6158","program":"pota","name":"Devils Den Conservation Area","coordinates":[147.266,-42.5795]},{"code":"AU-6200","program":"pota","name":"Gravelly Ridge Conservation Area","coordinates":[147.475,-42.5471]},{"code":"AU-6240","program":"pota","name":"Little Quoin Conservation Area","coordinates":[147.297,-42.5498]},{"code":"AU-6249","program":"pota","name":"Long Tom Conservation Area","coordinates":[147.278,-42.5723]},{"code":"AU-6427","program":"pota","name":"White Kangaroo Conservation Area","coordinates":[147.474,-42.5763]},{"code":"AU-6434","program":"pota","name":"Yarlington Conservation Area","coordinates":[147.313,-42.5232]},{"code":"AU-6478","program":"pota","name":"Jordan Nature Reserve","coordinates":[147.267,-42.6931]},{"code":"AU-6830","program":"pota","name":"Richmond Gaol Historic Site","coordinates":[147.439,-42.7362]},{"code":"VK7/EC-004","program":"sota","name":"Quoin Mountain","coordinates":[147.2798,-42.5462]},{"code":"VK7/EC-021","program":"sota","name":"Butlers Hill","coordinates":[147.3049,-42.6212]},{"code":"VK7/EC-033","program":"sota","name":"Coal River Sugarloaf","coordinates":[147.4122,-42.6361]},{"code":"VK7/EC-040","program":"sota","name":"Brains Hill","coordinates":[147.3921,-42.694]},{"code":"VK7/EC-041","program":"sota","name":"Gunns Sugarloaf","coordinates":[147.3547,-42.7227]},{"code":"VK7/EC-049","program":"sota","name":"Devils Backbone","coordinates":[147.2762,-42.5857]},{"code":"VK7/SC-080","program":"sota","name":"Watts Sugarloaf","coordinates":[147.4959,-42.7125]}]}