{"lat":-42.5,"lon":171.25,"programs":["pota","sota"],"count":18,"references":[{"code":"NZ-0108","program":"pota","name":"Paparoa Range South Conservation Area","coordinates":[171.405,-42.2655]},{"code":"NZ-0511","program":"pota","name":"Roaring Meg Ecological Area","coordinates":[171.4,-42.3119]},{"code":"NZ-0536","program":"pota","name":"Brunner Forest Conservation Area","coordinates":[171.377,-42.3872]},{"code":"NZ-0539","program":"pota","name":"Ongionui Creek Conservation Area","coordinates":[171.434,-42.459]},{"code":"NZ-0807","program":"pota","name":"McLeans Creek Conservation Area","coordinates":[171.286,-42.4205]},{"code":"NZ-0822","program":"pota","name":"Eleven Mile Creek Conservation Area","coordinates":[171.284,-42.3273]},{"code":"NZ-0836","program":"pota","name":"Sewell Peak Conservation Area","coordinates":[171.336,-42.4159]},{"code":"NZ-0840","program":"pota","name":"Grey Riverbed Conservation Area","coordinates":[171.47,-42.359]},{"code":"ZL3/WC-535","program":"sota","name":"Mount Ryall","coordinates":[171.3668,-42.2686]},{"code":"ZL3/WC-575","program":"sota","name":"Mt Davy","coordinates":[171.3409,-42.3711]},{"code":"ZL3/WC-615","program":"sota","name":"ZL3/WC-615","coordinates":[171.4074,-42.3008]},{"code":"ZL3/WC-702","program":"sota","name":"Kinsella Peak","coordinates":[171.3945,-42.3769]},{"code":"ZL3/WC-714","program":"sota","name":"ZL3/WC-714","coordinates":[171.2779,-42.3929]},{"code":"ZL3/WC-715","program":"sota","name":"Mount Buckley","coordinates":[171.3294,-42.4448]},{"code":"ZL3/WC-720","program":"sota","name":"ZL3/WC-720","coordinates":[171.4772,-42.2938]},{"code":"ZL3/WC-732","program":"sota","name":"ZL3/WC-732","coordinates":[171.3359,-42.4605]},{"code":"ZL3/WC-779","program":"sota","name":"Croesus Knob","coordinates":[171.3781,-42.29]},{"code":"ZL3/WC-781","program":"sota","name":"ZL3/WC-781","coordinates":[171.4208,-42.2784]}]}