{"lat":-42,"lon":174,"programs":["sota"],"count":12,"references":[{"code":"ZL3/MB-162","program":"sota","name":"Ben More","coordinates":[174.0052,-41.9175]},{"code":"ZL3/MB-246","program":"sota","name":"ZL3/MB-246","coordinates":[174.0289,-41.7817]},{"code":"ZL3/MB-265","program":"sota","name":"ZL3/MB-265","coordinates":[174.0388,-41.9056]},{"code":"ZL3/MB-290","program":"sota","name":"Mount Victoria","coordinates":[174.0529,-41.8531]},{"code":"ZL3/MB-301","program":"sota","name":"ZL3/MB-301","coordinates":[174.0472,-41.7568]},{"code":"ZL3/MB-310","program":"sota","name":"Dog Hill","coordinates":[174.0766,-41.7981]},{"code":"ZL3/MB-331","program":"sota","name":"Weld Cone","coordinates":[174.1712,-41.8485]},{"code":"ZL3/MB-335","program":"sota","name":"Limestone Ridge","coordinates":[174.1835,-41.8209]},{"code":"ZL3/MB-337","program":"sota","name":"London Hill","coordinates":[174.1718,-41.8038]},{"code":"ZL3/MB-339","program":"sota","name":"Hollow Top","coordinates":[174.1454,-41.8703]},{"code":"ZL3/MB-340","program":"sota","name":"Rocks","coordinates":[174.1485,-41.8492]},{"code":"ZL3/MB-374","program":"sota","name":"ZL3/MB-374","coordinates":[174.0369,-41.7522]}]}