{"lat":-42.5,"lon":171.75,"programs":["gma","pota","sota"],"count":33,"references":[{"code":"XZL3/WC-429","program":"gma","name":"ZL3/WC-429","coordinates":[171.8501,-42.4737]},{"code":"NZ-0091","program":"pota","name":"Granville Forest Conservation Area","coordinates":[171.891,-42.4521]},{"code":"NZ-0138","program":"pota","name":"Hukawai Wildlife Management Area","coordinates":[171.831,-42.3155]},{"code":"NZ-0503","program":"pota","name":"Granville Wildlife Management Area","coordinates":[171.789,-42.415]},{"code":"NZ-0524","program":"pota","name":"Mount Harata Ecological Area","coordinates":[171.883,-42.366]},{"code":"NZ-0534","program":"pota","name":"Waipuna Ecological Area","coordinates":[171.771,-42.3848]},{"code":"NZ-0548","program":"pota","name":"Waiuta Amenity Area Reserve","coordinates":[171.822,-42.2931]},{"code":"NZ-0552","program":"pota","name":"Ahaura Riverbed Conservation Area","coordinates":[171.801,-42.4875]},{"code":"NZ-0556","program":"pota","name":"Grey River Conservation Area","coordinates":[171.98,-42.4289]},{"code":"NZ-0837","program":"pota","name":"Ahaura - Kopara Scenic Reserve","coordinates":[171.794,-42.4612]},{"code":"ZL3/WC-338","program":"sota","name":"Conical Hill","coordinates":[171.9941,-42.3732]},{"code":"ZL3/WC-412","program":"sota","name":"ZL3/WC-412","coordinates":[171.9181,-42.4654]},{"code":"ZL3/WC-415","program":"sota","name":"Mount Gore","coordinates":[171.9842,-42.309]},{"code":"ZL3/WC-433","program":"sota","name":"ZL3/WC-433","coordinates":[171.9959,-42.3131]},{"code":"ZL3/WC-439","program":"sota","name":"Mount Rameses","coordinates":[171.9473,-42.4414]},{"code":"ZL3/WC-461","program":"sota","name":"ZL3/WC-461","coordinates":[171.8419,-42.4281]},{"code":"ZL3/WC-467","program":"sota","name":"Mt Elliot","coordinates":[171.8449,-42.4924]},{"code":"ZL3/WC-470","program":"sota","name":"Mount Harata","coordinates":[171.9056,-42.376]},{"code":"ZL3/WC-478","program":"sota","name":"ZL3/WC-478","coordinates":[171.938,-42.4384]},{"code":"ZL3/WC-492","program":"sota","name":"The Pyramid","coordinates":[171.9488,-42.4723]},{"code":"ZL3/WC-511","program":"sota","name":"ZL3/WC-511","coordinates":[171.8871,-42.378]},{"code":"ZL3/WC-513","program":"sota","name":"ZL3/WC-513","coordinates":[171.8994,-42.4918]},{"code":"ZL3/WC-544","program":"sota","name":"Bald Hill","coordinates":[171.9107,-42.2994]},{"code":"ZL3/WC-546","program":"sota","name":"ZL3/WC-546","coordinates":[171.9704,-42.3338]},{"code":"ZL3/WC-578","program":"sota","name":"ZL3/WC-578","coordinates":[171.9105,-42.3162]},{"code":"ZL3/WC-587","program":"sota","name":"ZL3/WC-587","coordinates":[171.9202,-42.2645]},{"code":"ZL3/WC-591","program":"sota","name":"ZL3/WC-591","coordinates":[171.9457,-42.4053]},{"code":"ZL3/WC-598","program":"sota","name":"ZL3/WC-598","coordinates":[171.8602,-42.2761]},{"code":"ZL3/WC-657","program":"sota","name":"ZL3/WC-657","coordinates":[171.8076,-42.26]},{"code":"ZL3/WC-664","program":"sota","name":"Windy Point","coordinates":[171.9027,-42.3313]},{"code":"ZL3/WC-668","program":"sota","name":"ZL3/WC-668","coordinates":[171.8305,-42.3243]},{"code":"ZL3/WC-681","program":"sota","name":"ZL3/WC-681","coordinates":[171.886,-42.3286]},{"code":"ZL3/WC-764","program":"sota","name":"ZL3/WC-764","coordinates":[171.8421,-42.4697]}]}