{"lat":-42,"lon":145.25,"programs":["pota","sota"],"count":17,"references":[{"code":"AU-0586","program":"pota","name":"Henty Glacial Erratics State Reserve","coordinates":[145.493,-41.9924]},{"code":"AU-6517","program":"pota","name":"Badger River Regional Reserve","coordinates":[145.263,-41.9868]},{"code":"AU-6537","program":"pota","name":"Crotty Ridge Regional Reserve","coordinates":[145.379,-41.9108]},{"code":"AU-6572","program":"pota","name":"Lake Pieman Regional Reserve","coordinates":[145.439,-41.7548]},{"code":"AU-6611","program":"pota","name":"Parting Creek Regional Reserve","coordinates":[145.337,-41.8451]},{"code":"AU-6618","program":"pota","name":"Renison Bell Regional Reserve","coordinates":[145.437,-41.791]},{"code":"VK7/WC-031","program":"sota","name":"Mount Dundas","coordinates":[145.473,-41.8955]},{"code":"VK7/WC-118","program":"sota","name":"Mount Zeehan","coordinates":[145.3229,-41.9267]},{"code":"VK7/WC-120","program":"sota","name":"Black Hill","coordinates":[145.4266,-41.8511]},{"code":"VK7/WC-123","program":"sota","name":"Commonwealth Hill","coordinates":[145.4354,-41.8201]},{"code":"VK7/WC-127","program":"sota","name":"Colebrook Hill range","coordinates":[145.4911,-41.8216]},{"code":"VK7/WC-131","program":"sota","name":"Mount Razorback","coordinates":[145.4174,-41.8651]},{"code":"VK7/WC-136","program":"sota","name":"565A","coordinates":[145.3798,-41.8065]},{"code":"VK7/WC-144","program":"sota","name":"Western Hills","coordinates":[145.3745,-41.7823]},{"code":"VK7/WC-165","program":"sota","name":"Professor Range","coordinates":[145.3886,-41.9857]},{"code":"VK7/WC-170","program":"sota","name":"Misery Hill","coordinates":[145.3989,-41.8876]},{"code":"VK7/WC-185","program":"sota","name":"VK7/WC-185","coordinates":[145.4916,-41.9352]}]}