{"lat":-42.5,"lon":-73.75,"programs":["iota","pota"],"count":10,"references":[{"code":"SA-018","program":"iota","name":"LOS LAGOS REGION SOUTH group","coordinates":[-73.75,-42.29999924]},{"code":"CL-0159","program":"pota","name":"Humedal de Putemún Wetland Reserve","coordinates":[-73.7464,-42.4323]},{"code":"CL-0183","program":"pota","name":"Curaco de Velez Wetland Management District","coordinates":[-73.604,-42.4376]},{"code":"CL-0184","program":"pota","name":"San Juan Wetland Reserve","coordinates":[-73.5042,-42.3326]},{"code":"CL-0185","program":"pota","name":"Humedal de Chullec Wetland Reserve","coordinates":[-73.5423,-42.4676]},{"code":"CL-0233","program":"pota","name":"Teguel Wetland Reserve","coordinates":[-73.6068,-42.3648]},{"code":"CL-0235","program":"pota","name":"Pullao Wetland Reserve","coordinates":[-73.6813,-42.4709]},{"code":"CL-0340","program":"pota","name":"Curaco de Vélez Bay Wetland Sanctuary","coordinates":[-73.605,-42.4383]},{"code":"CL-0386","program":"pota","name":"Humedal de Astilleros en Dalcahue Wetland Reserve","coordinates":[-73.6674,-42.3905]},{"code":"CL-0399","program":"pota","name":"Cienagas de Mocopulli Historic Site","coordinates":[-73.7052,-42.3426]}]}