{"lat":-42,"lon":146,"programs":["pota","sota"],"count":15,"references":[{"code":"AU-6584","program":"pota","name":"Maggs Mountain Regional Reserve","coordinates":[146.164,-41.7663]},{"code":"VK7/CH-001","program":"sota","name":"Mt Ossa","coordinates":[146.0334,-41.871]},{"code":"VK7/CH-005","program":"sota","name":"Ducane Range","coordinates":[146.0508,-41.9191]},{"code":"VK7/CH-006","program":"sota","name":"Mt Massif","coordinates":[146.0649,-41.9061]},{"code":"VK7/CH-007","program":"sota","name":"Falling Mountain","coordinates":[146.0951,-41.9114]},{"code":"VK7/CH-012","program":"sota","name":"The Acropolis","coordinates":[146.061,-41.9361]},{"code":"VK7/CH-018","program":"sota","name":"Walled Mountain","coordinates":[146.0191,-41.9385]},{"code":"VK7/CH-023","program":"sota","name":"Mt Pelion East","coordinates":[146.0681,-41.8574]},{"code":"VK7/CH-026","program":"sota","name":"The Guardians","coordinates":[146.0232,-41.9735]},{"code":"VK7/CH-027","program":"sota","name":"Bishop Peak","coordinates":[146.1174,-41.8826]},{"code":"VK7/CH-035","program":"sota","name":"Mt Rogoona","coordinates":[146.1981,-41.8895]},{"code":"VK7/CH-036","program":"sota","name":"Mt Oakleigh","coordinates":[146.0379,-41.803]},{"code":"VK7/CH-040","program":"sota","name":"Mt Pillinger","coordinates":[146.1288,-41.8157]},{"code":"VK7/CH-090","program":"sota","name":"Mount Gould","coordinates":[146.0504,-41.9746]},{"code":"VK7/CH-093","program":"sota","name":"VK7/CH-093","coordinates":[146.1807,-41.9416]}]}