{"lat":-42.75,"lon":173,"programs":["sota"],"count":15,"references":[{"code":"ZL3/CB-644","program":"sota","name":"Mount Peter","coordinates":[173.2354,-42.5189]},{"code":"ZL3/CB-710","program":"sota","name":"Mount Cookson","coordinates":[173.1563,-42.5483]},{"code":"ZL3/CB-712","program":"sota","name":"ZL3/CB-712","coordinates":[173.2077,-42.5279]},{"code":"ZL3/CB-743","program":"sota","name":"Black Hills","coordinates":[173.1823,-42.5473]},{"code":"ZL3/CB-762","program":"sota","name":"ZL3/CB-762","coordinates":[173.1893,-42.5652]},{"code":"ZL3/CB-776","program":"sota","name":"Mount Parnassus","coordinates":[173.1829,-42.6864]},{"code":"ZL3/CB-777","program":"sota","name":"Dog Hill","coordinates":[173.0358,-42.5464]},{"code":"ZL3/CB-778","program":"sota","name":"Constitution Hill","coordinates":[173.0979,-42.7385]},{"code":"ZL3/CB-803","program":"sota","name":"Old Man Hills","coordinates":[173.1339,-42.534]},{"code":"ZL3/CB-808","program":"sota","name":"The Humps","coordinates":[173.1394,-42.5958]},{"code":"ZL3/CB-816","program":"sota","name":"ZL3/CB-816","coordinates":[173.1201,-42.6994]},{"code":"ZL3/CB-821","program":"sota","name":"The Wart","coordinates":[173.1454,-42.7342]},{"code":"ZL3/CB-829","program":"sota","name":"Mount Highfield","coordinates":[173.0946,-42.6377]},{"code":"ZL3/CB-838","program":"sota","name":"Isolated Hill","coordinates":[173.0103,-42.6874]},{"code":"ZL3/CB-884","program":"sota","name":"ZL3/CB-884","coordinates":[173.2168,-42.5451]}]}