{"lat":-42.25,"lon":172.5,"programs":["pota","sota"],"count":26,"references":[{"code":"NZ-0036","program":"pota","name":"Nelson Lakes National Park","coordinates":[172.688,-42.009]},{"code":"NZ-0793","program":"pota","name":"Matakitaki River Headwaters Conservation Area","coordinates":[172.515,-42.0845]},{"code":"ZL3/CB-101","program":"sota","name":"Mount Una","coordinates":[172.5852,-42.2168]},{"code":"ZL3/CB-168","program":"sota","name":"Mount Dora","coordinates":[172.7256,-42.1355]},{"code":"ZL3/CB-182","program":"sota","name":"Mount Princess","coordinates":[172.6911,-42.1792]},{"code":"ZL3/CB-187","program":"sota","name":"ZL3/CB-187","coordinates":[172.7189,-42.1092]},{"code":"ZL3/CB-383","program":"sota","name":"Mount Southey","coordinates":[172.7492,-42.1975]},{"code":"ZL3/CB-905","program":"sota","name":"ZL3/CB-905","coordinates":[172.6934,-42.1066]},{"code":"ZL3/CB-907","program":"sota","name":"ZL3/CB-907","coordinates":[172.6871,-42.1651]},{"code":"ZL3/MB-011","program":"sota","name":"Mount Paske","coordinates":[172.7418,-42.0893]},{"code":"ZL3/TM-001","program":"sota","name":"Mount Franklin","coordinates":[172.6877,-42.0516]},{"code":"ZL3/TM-002","program":"sota","name":"Mount Travers","coordinates":[172.7352,-42.0135]},{"code":"ZL3/TM-003","program":"sota","name":"Mount McKay","coordinates":[172.726,-42.0747]},{"code":"ZL3/TM-005","program":"sota","name":"Mount Ella","coordinates":[172.5789,-42.0807]},{"code":"ZL3/TM-009","program":"sota","name":"ZL3/TM-009","coordinates":[172.6418,-42.0769]},{"code":"ZL3/TM-010","program":"sota","name":"Mount Humboldt","coordinates":[172.6128,-42.1762]},{"code":"ZL3/TM-011","program":"sota","name":"ZL3/TM-011","coordinates":[172.5809,-42.2108]},{"code":"ZL3/TM-012","program":"sota","name":"Mount Mahanga","coordinates":[172.6352,-42.1027]},{"code":"ZL3/TM-013","program":"sota","name":"Mount Dorothy","coordinates":[172.5841,-42.1216]},{"code":"ZL3/TM-014","program":"sota","name":"Mount Magdalene","coordinates":[172.5766,-42.1103]},{"code":"ZL3/TM-015","program":"sota","name":"ZL3/TM-015","coordinates":[172.6104,-42.1656]},{"code":"ZL3/TM-017","program":"sota","name":"Franklin Ridge","coordinates":[172.6894,-42.0347]},{"code":"ZL3/TM-019","program":"sota","name":"ZL3/TM-019","coordinates":[172.7329,-42.0372]},{"code":"ZL3/TM-022","program":"sota","name":"Mahanga Range","coordinates":[172.6392,-42.0418]},{"code":"ZL3/TM-029","program":"sota","name":"ZL3/TM-029","coordinates":[172.6449,-42.131]},{"code":"ZL3/TM-284","program":"sota","name":"ZL3/TM-284","coordinates":[172.6096,-42.1319]}]}