{"lat":-42.75,"lon":147,"programs":["pota","sota"],"count":23,"references":[{"code":"AU-6209","program":"pota","name":"Harry Walker Tier Conservation Area","coordinates":[147.123,-42.5817]},{"code":"AU-6234","program":"pota","name":"Limekiln Creek Conservation Area","coordinates":[147.116,-42.6912]},{"code":"AU-6276","program":"pota","name":"Mount Dromedary Conservation Area","coordinates":[147.108,-42.7201]},{"code":"AU-6394","program":"pota","name":"Tanina Bluff Conservation Area","coordinates":[147.04,-42.6582]},{"code":"AU-6415","program":"pota","name":"Waddles Creek Conservation Area","coordinates":[147.047,-42.5445]},{"code":"AU-6440","program":"pota","name":"Andersons Nature Reserve","coordinates":[147.133,-42.6059]},{"code":"AU-6442","program":"pota","name":"Basin Nature Reserve","coordinates":[147.022,-42.5237]},{"code":"AU-6459","program":"pota","name":"Dickinsons Nature Reserve","coordinates":[147.007,-42.5502]},{"code":"AU-6466","program":"pota","name":"Elderslie Nature Reserve","coordinates":[147.046,-42.611]},{"code":"AU-6472","program":"pota","name":"Heathy Hills Nature Reserve","coordinates":[147.094,-42.5753]},{"code":"AU-6473","program":"pota","name":"Huntingdon Nature Reserve","coordinates":[147.151,-42.5873]},{"code":"AU-6491","program":"pota","name":"Pelham Nature Reserve","coordinates":[147.026,-42.5763]},{"code":"AU-6492","program":"pota","name":"Pelham North Nature Reserve","coordinates":[147.041,-42.5647]},{"code":"AU-7539","program":"pota","name":"Ravenswood Conservation Reserve","coordinates":[147.212,-42.7226]},{"code":"VK7/CH-057","program":"sota","name":"Mt Dromedary","coordinates":[147.1164,-42.7128]},{"code":"VK7/CH-058","program":"sota","name":"Platform Peak","coordinates":[147.0591,-42.692]},{"code":"VK7/CH-064","program":"sota","name":"Tanina Bluff","coordinates":[147.0304,-42.6549]},{"code":"VK7/CH-078","program":"sota","name":"Mangalore Tier","coordinates":[147.1632,-42.6295]},{"code":"VK7/CH-082","program":"sota","name":"Big Hill","coordinates":[147.1953,-42.5568]},{"code":"VK7/CH-085","program":"sota","name":"Johnsons Hill","coordinates":[147.1537,-42.5358]},{"code":"VK7/CH-088","program":"sota","name":"Harry Walker Tier","coordinates":[147.1382,-42.5785]},{"code":"VK7/CH-101","program":"sota","name":"VK7/CH-101","coordinates":[147.0205,-42.5394]},{"code":"VK7/CH-105","program":"sota","name":"Huntingdon Tier","coordinates":[147.1668,-42.5734]}]}