{"lat":-42.75,"lon":172.5,"programs":["pota","sota"],"count":27,"references":[{"code":"NZ-0269","program":"pota","name":"Hanmer Forest Park","coordinates":[172.658,-42.5077]},{"code":"NZ-0328","program":"pota","name":"Lochiel Conservation Area","coordinates":[172.657,-42.6191]},{"code":"NZ-0338","program":"pota","name":"Woodbank Conservation Area","coordinates":[172.656,-42.5493]},{"code":"ZL3/CB-376","program":"sota","name":"Mount Saint Andrew","coordinates":[172.5265,-42.5185]},{"code":"ZL3/CB-378","program":"sota","name":"Mount Skedaddle","coordinates":[172.5093,-42.6799]},{"code":"ZL3/CB-421","program":"sota","name":"Mount Tekoa","coordinates":[172.6266,-42.6637]},{"code":"ZL3/CB-431","program":"sota","name":"Hanmer Range","coordinates":[172.6134,-42.5143]},{"code":"ZL3/CB-448","program":"sota","name":"Shale Peak","coordinates":[172.6339,-42.6078]},{"code":"ZL3/CB-454","program":"sota","name":"Organ Range (South)","coordinates":[172.5251,-42.6686]},{"code":"ZL3/CB-459","program":"sota","name":"Windy Knob","coordinates":[172.6212,-42.6349]},{"code":"ZL3/CB-467","program":"sota","name":"ZL3/CB-467","coordinates":[172.5107,-42.5182]},{"code":"ZL3/CB-468","program":"sota","name":"Te Kooti","coordinates":[172.64,-42.6776]},{"code":"ZL3/CB-478","program":"sota","name":"Organ Range (North)","coordinates":[172.5932,-42.62]},{"code":"ZL3/CB-502","program":"sota","name":"Big Big D","coordinates":[172.6579,-42.6418]},{"code":"ZL3/CB-511","program":"sota","name":"Horseshoe Hill","coordinates":[172.5114,-42.5648]},{"code":"ZL3/CB-543","program":"sota","name":"Grey Hill","coordinates":[172.6545,-42.5376]},{"code":"ZL3/CB-585","program":"sota","name":"ZL3/CB-585","coordinates":[172.5789,-42.6518]},{"code":"ZL3/CB-611","program":"sota","name":"Mount Jonathan","coordinates":[172.6012,-42.7277]},{"code":"ZL3/CB-629","program":"sota","name":"ZL3/CB-629","coordinates":[172.6413,-42.7355]},{"code":"ZL3/CB-634","program":"sota","name":"Mount Saul","coordinates":[172.7141,-42.6065]},{"code":"ZL3/CB-647","program":"sota","name":"The Big Island Hills","coordinates":[172.6012,-42.7398]},{"code":"ZL3/CB-683","program":"sota","name":"ZL3/CB-683","coordinates":[172.7264,-42.6894]},{"code":"ZL3/CB-692","program":"sota","name":"ZL3/CB-692","coordinates":[172.7251,-42.6419]},{"code":"ZL3/CB-727","program":"sota","name":"ZL3/CB-727","coordinates":[172.6961,-42.6243]},{"code":"ZL3/CB-754","program":"sota","name":"ZL3/CB-754","coordinates":[172.7466,-42.6052]},{"code":"ZL3/CB-788","program":"sota","name":"ZL3/CB-788","coordinates":[172.6893,-42.7129]},{"code":"ZL3/CB-921","program":"sota","name":"ZL3/CB-921","coordinates":[172.6481,-42.6175]}]}