{"lat":-42.75,"lon":147.5,"programs":["pota","sota"],"count":11,"references":[{"code":"AU-6093","program":"pota","name":"Bluff River Conservation Area","coordinates":[147.683,-42.541]},{"code":"AU-6111","program":"pota","name":"Brown Mountain Conservation Area","coordinates":[147.524,-42.5766]},{"code":"AU-6145","program":"pota","name":"Coxs Hill Conservation Area","coordinates":[147.725,-42.5437]},{"code":"AU-6281","program":"pota","name":"Mount Morrison Conservation Area","coordinates":[147.634,-42.6896]},{"code":"AU-6324","program":"pota","name":"Prosser River Conservation Area","coordinates":[147.642,-42.5768]},{"code":"AU-6347","program":"pota","name":"Running Ground Ridge Conservation Area","coordinates":[147.633,-42.6402]},{"code":"AU-6349","program":"pota","name":"Sand River Conservation Area","coordinates":[147.733,-42.5138]},{"code":"VK7/EC-006","program":"sota","name":"Mount Hobbs","coordinates":[147.5903,-42.5046]},{"code":"VK7/EC-010","program":"sota","name":"Brown Mountain","coordinates":[147.5312,-42.5978]},{"code":"VK7/EC-032","program":"sota","name":"Sunnyside Hill","coordinates":[147.5203,-42.6585]},{"code":"VK7/SC-027","program":"sota","name":"Mt Phipps","coordinates":[147.592,-42.6638]}]}