{"lat":-42.75,"lon":171.25,"programs":["gma","pota","sota"],"count":18,"references":[{"code":"XZL3/WC-510","program":"gma","name":"Ben Claddagh","coordinates":[171.3528,-42.6834]},{"code":"NZ-0080","program":"pota","name":"Card Creek Ecological Area","coordinates":[171.295,-42.5108]},{"code":"NZ-0093","program":"pota","name":"Hohonu Forest Conservation Area","coordinates":[171.362,-42.6951]},{"code":"NZ-0500","program":"pota","name":"Greenstone Ecological Area","coordinates":[171.296,-42.6121]},{"code":"NZ-0506","program":"pota","name":"Lake Brunner Conservation Area","coordinates":[171.449,-42.6186]},{"code":"NZ-0508","program":"pota","name":"Mt Te Kinga Scenic Reserve","coordinates":[171.495,-42.6656]},{"code":"NZ-0544","program":"pota","name":"Woods Creek Amenity Area Reserve","coordinates":[171.369,-42.5661]},{"code":"NZ-0802","program":"pota","name":"Bell Hill Farm Conservation Area","coordinates":[171.432,-42.5303]},{"code":"NZ-0810","program":"pota","name":"Three Mile Amenity Area Park","coordinates":[171.267,-42.6485]},{"code":"ZL3/WC-486","program":"sota","name":"Mount Treacey","coordinates":[171.3531,-42.7226]},{"code":"ZL3/WC-488","program":"sota","name":"Mount Bruce Murray","coordinates":[171.3357,-42.7169]},{"code":"ZL3/WC-508","program":"sota","name":"Mount French","coordinates":[171.3442,-42.6781]},{"code":"ZL3/WC-516","program":"sota","name":"Taff Tor","coordinates":[171.3945,-42.6895]},{"code":"ZL3/WC-527","program":"sota","name":"Mount Smart","coordinates":[171.3227,-42.6953]},{"code":"ZL3/WC-704","program":"sota","name":"ZL3/WC-704","coordinates":[171.4021,-42.5802]},{"code":"ZL3/WC-706","program":"sota","name":"Rata Tree Peak","coordinates":[171.2769,-42.5197]},{"code":"ZL3/WC-724","program":"sota","name":"Three Mile Hill","coordinates":[171.2522,-42.6506]},{"code":"ZL3/WC-796","program":"sota","name":"ZL3/WC-796","coordinates":[171.4568,-42.51]}]}