{"lat":-42.75,"lon":148,"programs":["pota","sota"],"count":6,"references":[{"code":"AU-0570","program":"pota","name":"Maria Island National Park","coordinates":[148.079,-42.6407]},{"code":"AU-8870","program":"pota","name":"Darlington Bay - State Beach","coordinates":[148.064,-42.5804]},{"code":"AU-8871","program":"pota","name":"Hopground Beach - State Beach","coordinates":[148.055,-42.5907]},{"code":"VK7/EC-052","program":"sota","name":"Cape Bougainville","coordinates":[148.0026,-42.5126]},{"code":"VK7/SC-011","program":"sota","name":"Mt Maria","coordinates":[148.1098,-42.6207]},{"code":"VK7/SC-049","program":"sota","name":"329","coordinates":[148.0424,-42.7188]}]}