{"lat":-43.75,"lon":169.25,"programs":["gma","pota","sota"],"count":8,"references":[{"code":"XZL3/WC-694","program":"gma","name":"ZL3/WC-694","coordinates":[169.28641,-43.749]},{"code":"NZ-0826","program":"pota","name":"Whakapohai Wildlife Refuge","coordinates":[169.265,-43.7016]},{"code":"ZL3/WC-608","program":"sota","name":"Moeraki Hill","coordinates":[169.327,-43.7263]},{"code":"ZL3/WC-626","program":"sota","name":"Paringa Hill","coordinates":[169.4723,-43.6616]},{"code":"ZL3/WC-635","program":"sota","name":"Canaurd Hill","coordinates":[169.3768,-43.7409]},{"code":"ZL3/WC-677","program":"sota","name":"ZL3/WC-677","coordinates":[169.4006,-43.6884]},{"code":"ZL3/WC-701","program":"sota","name":"Fish Hill","coordinates":[169.3881,-43.7085]},{"code":"ZL3/WC-708","program":"sota","name":"Mount Gates","coordinates":[169.4158,-43.6553]}]}