{"lat":-43.5,"lon":147.25,"programs":["pota","sota"],"count":18,"references":[{"code":"AU-0524","program":"pota","name":"Waterfall Creek State Reserve","coordinates":[147.307,-43.3764]},{"code":"AU-0547","program":"pota","name":"South Bruny National Park","coordinates":[147.337,-43.4383]},{"code":"AU-6140","program":"pota","name":"Coal Point Conservation Area","coordinates":[147.322,-43.3439]},{"code":"AU-6274","program":"pota","name":"Mount Bruny Conservation Area","coordinates":[147.291,-43.4591]},{"code":"AU-6279","program":"pota","name":"Mount Mangana Conservation Area","coordinates":[147.288,-43.3685]},{"code":"AU-6280","program":"pota","name":"Mount Midway Conservation Area","coordinates":[147.309,-43.4276]},{"code":"AU-6361","program":"pota","name":"Sheepwash Bay Conservation Area","coordinates":[147.273,-43.2903]},{"code":"AU-6582","program":"pota","name":"Lutregala Creek Regional Reserve","coordinates":[147.285,-43.3153]},{"code":"AU-6846","program":"pota","name":"Bruny Island Neck Game Reserve","coordinates":[147.348,-43.2584]},{"code":"AU-8862","program":"pota","name":"Adventure Bay Beach - State Beach","coordinates":[147.34,-43.3671]},{"code":"VK7/SC-017","program":"sota","name":"Mt Mangana","coordinates":[147.2866,-43.3717]},{"code":"VK7/SC-022","program":"sota","name":"Mt Midway","coordinates":[147.2971,-43.4171]},{"code":"VK7/SC-025","program":"sota","name":"528","coordinates":[147.3076,-43.4369]},{"code":"VK7/SC-028","program":"sota","name":"Mt Bruny","coordinates":[147.2906,-43.4803]},{"code":"VK7/SC-050","program":"sota","name":"Driscolls Hill","coordinates":[147.2862,-43.2955]},{"code":"VK7/SC-069","program":"sota","name":"Mount Tobin","coordinates":[147.3039,-43.3898]},{"code":"VK7/SC-072","program":"sota","name":"Mount Cook","coordinates":[147.3312,-43.3943]},{"code":"VK7/SC-081","program":"sota","name":"Fluted Cape","coordinates":[147.375,-43.3605]}]}