{"lat":-43.25,"lon":147.5,"programs":["pota","sota"],"count":13,"references":[{"code":"AU-6078","program":"pota","name":"Apex Point Conservation Area","coordinates":[147.718,-43.1064]},{"code":"AU-6109","program":"pota","name":"Brother and Sister Conservation Area","coordinates":[147.727,-43.111]},{"code":"AU-6148","program":"pota","name":"Crooked Billet Bay Conservation Area","coordinates":[147.693,-43.1325]},{"code":"AU-6299","program":"pota","name":"North Passage Point Conservation Area","coordinates":[147.721,-43.0967]},{"code":"AU-6301","program":"pota","name":"North West Head Conservation Area","coordinates":[147.619,-43.0083]},{"code":"AU-6305","program":"pota","name":"Outer North Head Conservation Area","coordinates":[147.636,-43.0728]},{"code":"AU-6341","program":"pota","name":"Roaring Beach Conservation Area","coordinates":[147.677,-43.0919]},{"code":"AU-6421","program":"pota","name":"Wedge Island Conservation Area","coordinates":[147.672,-43.1349]},{"code":"AU-6470","program":"pota","name":"Hardys Hill Nature Reserve","coordinates":[147.745,-43.1151]},{"code":"AU-6813","program":"pota","name":"Cemetery Point Historic Site","coordinates":[147.723,-43.0128]},{"code":"AU-8695","program":"pota","name":"White State Beach","coordinates":[147.731,-43.125]},{"code":"VK7/SC-047","program":"sota","name":"Mt Communication","coordinates":[147.6566,-43.0588]},{"code":"VK7/SC-078","program":"sota","name":"Griffiths Ridge","coordinates":[147.7148,-43.0762]}]}