{"lat":-43.75,"lon":170,"programs":["gma","sota"],"count":32,"references":[{"code":"XZL3/CB-202","program":"gma","name":"ZL3/CB-202","coordinates":[170.21561,-43.7201]},{"code":"XZL3/WC-008","program":"gma","name":"Mount Spencer","coordinates":[170.221,-43.5239]},{"code":"ZL3/CB-001","program":"sota","name":"Aoraki / Mount Cook (High Peak)","coordinates":[170.1418,-43.5951]},{"code":"ZL3/CB-014","program":"sota","name":"The Nuns Veil","coordinates":[170.2474,-43.6934]},{"code":"ZL3/CB-038","program":"sota","name":"Anzac Peaks","coordinates":[170.1704,-43.6048]},{"code":"ZL3/CB-086","program":"sota","name":"Brass Peak","coordinates":[170.2274,-43.7467]},{"code":"ZL3/CB-105","program":"sota","name":"The Acolyte","coordinates":[170.2341,-43.708]},{"code":"ZL3/CB-204","program":"sota","name":"Mount Kinsey","coordinates":[170.1358,-43.6804]},{"code":"ZL3/CB-215","program":"sota","name":"Mount Wakefield","coordinates":[170.1242,-43.6927]},{"code":"ZL3/CB-891","program":"sota","name":"Mount Biretta","coordinates":[170.246,-43.6872]},{"code":"ZL3/CB-894","program":"sota","name":"ZL3/CB-894","coordinates":[170.2496,-43.7031]},{"code":"ZL3/CB-906","program":"sota","name":"ZL3/CB-906","coordinates":[170.2125,-43.7224]},{"code":"ZL3/WC-001","program":"sota","name":"Mount Tasman","coordinates":[170.1572,-43.5658]},{"code":"ZL3/WC-002","program":"sota","name":"Mount Sefton","coordinates":[170.0413,-43.6833]},{"code":"ZL3/WC-004","program":"sota","name":"La Perouse","coordinates":[170.092,-43.6015]},{"code":"ZL3/WC-005","program":"sota","name":"Douglas Peak","coordinates":[170.2025,-43.5418]},{"code":"ZL3/WC-013","program":"sota","name":"Mount Halcombe","coordinates":[170.1882,-43.5112]},{"code":"ZL3/WC-018","program":"sota","name":"Mount Thomson","coordinates":[170.023,-43.7058]},{"code":"ZL3/WC-022","program":"sota","name":"Dilemma Peak","coordinates":[170.0893,-43.6252]},{"code":"ZL3/WC-023","program":"sota","name":"Mount Isabel","coordinates":[170.0136,-43.7319]},{"code":"ZL3/WC-026","program":"sota","name":"Eagle Peak","coordinates":[170.0291,-43.7165]},{"code":"ZL3/WC-056","program":"sota","name":"Sibyl Peak","coordinates":[170.0662,-43.6311]},{"code":"ZL3/WC-063","program":"sota","name":"Lean Peak","coordinates":[170.0934,-43.6492]},{"code":"ZL3/WC-075","program":"sota","name":"Mt Copland","coordinates":[170.0246,-43.5977]},{"code":"ZL3/WC-099","program":"sota","name":"Belmont","coordinates":[170.0984,-43.5652]},{"code":"ZL3/WC-190","program":"sota","name":"Craig Peak","coordinates":[170.051,-43.5267]},{"code":"ZL3/WC-195","program":"sota","name":"Price Peak","coordinates":[170.0104,-43.6218]},{"code":"ZL3/WC-220","program":"sota","name":"Sam Peak","coordinates":[170.0737,-43.5228]},{"code":"ZL3/WC-744","program":"sota","name":"Mt Haidinger","coordinates":[170.1994,-43.5514]},{"code":"ZL3/WC-746","program":"sota","name":"Bismarck Peaks","coordinates":[170.1822,-43.5012]},{"code":"ZL3/WC-747","program":"sota","name":"Scott Peak","coordinates":[170.0029,-43.6724]},{"code":"ZL3/WC-752","program":"sota","name":"Chancellor Dome","coordinates":[170.137,-43.5104]}]}