{"lat":-43,"lon":171.5,"programs":["pota","sota"],"count":30,"references":[{"code":"NZ-0038","program":"pota","name":"Arthur's Pass National Park","coordinates":[171.569,-42.9445]},{"code":"NZ-0356","program":"pota","name":"Hawdon Flats Reserve","coordinates":[171.748,-42.9996]},{"code":"NZ-0509","program":"pota","name":"Taramakau River / Otira River Conservation Area","coordinates":[171.613,-42.7843]},{"code":"ZL3/CB-112","program":"sota","name":"Mount Rolleston","coordinates":[171.5125,-42.9112]},{"code":"ZL3/CB-217","program":"sota","name":"Mount Oates","coordinates":[171.6524,-42.9075]},{"code":"ZL3/CB-228","program":"sota","name":"Mount Wilson","coordinates":[171.6791,-42.9319]},{"code":"ZL3/CB-256","program":"sota","name":"Dome","coordinates":[171.6643,-42.9775]},{"code":"ZL3/CB-279","program":"sota","name":"Falling Mountain","coordinates":[171.6875,-42.8996]},{"code":"ZL3/CB-309","program":"sota","name":"Mount Bealey","coordinates":[171.5451,-42.9666]},{"code":"ZL3/CB-317","program":"sota","name":"Mount Hunt","coordinates":[171.7465,-42.8751]},{"code":"ZL3/CB-328","program":"sota","name":"Mount Foweraker","coordinates":[171.6972,-42.9736]},{"code":"ZL3/CB-369","program":"sota","name":"Mount Williams","coordinates":[171.627,-42.9612]},{"code":"ZL3/CB-910","program":"sota","name":"ZL3/CB-910","coordinates":[171.7124,-42.9319]},{"code":"ZL3/WC-117","program":"sota","name":"Mount Franklin","coordinates":[171.6594,-42.8701]},{"code":"ZL3/WC-174","program":"sota","name":"Mount Philistine","coordinates":[171.5258,-42.8867]},{"code":"ZL3/WC-176","program":"sota","name":"Phipps Peak","coordinates":[171.5911,-42.8958]},{"code":"ZL3/WC-196","program":"sota","name":"Mount Stuart","coordinates":[171.5854,-42.8773]},{"code":"ZL3/WC-204","program":"sota","name":"Mount Russel","coordinates":[171.6527,-42.8485]},{"code":"ZL3/WC-251","program":"sota","name":"Barron Ridge","coordinates":[171.5138,-42.8499]},{"code":"ZL3/WC-272","program":"sota","name":"ZL3/WC-272","coordinates":[171.52,-42.8595]},{"code":"ZL3/WC-283","program":"sota","name":"ZL3/WC-283","coordinates":[171.7011,-42.8786]},{"code":"ZL3/WC-290","program":"sota","name":"Mount Pfeifer","coordinates":[171.6751,-42.8067]},{"code":"ZL3/WC-309","program":"sota","name":"Goat Hill","coordinates":[171.5981,-42.8296]},{"code":"ZL3/WC-314","program":"sota","name":"ZL3/WC-314","coordinates":[171.7368,-42.857]},{"code":"ZL3/WC-328","program":"sota","name":"ZL3/WC-328","coordinates":[171.6995,-42.8401]},{"code":"ZL3/WC-435","program":"sota","name":"Rangi Taipo","coordinates":[171.5004,-42.7627]},{"code":"ZL3/WC-458","program":"sota","name":"Kelly Range","coordinates":[171.5248,-42.7983]},{"code":"ZL3/WC-459","program":"sota","name":"Kellys Hill","coordinates":[171.5588,-42.7837]},{"code":"ZL3/WC-537","program":"sota","name":"One Shot Hill","coordinates":[171.6468,-42.7892]},{"code":"ZL3/WC-617","program":"sota","name":"ZL3/WC-617","coordinates":[171.6974,-42.7775]}]}