{"lat":-43.25,"lon":146.75,"programs":["pota","sota"],"count":13,"references":[{"code":"AU-0589","program":"pota","name":"Hartz Mountains National Park","coordinates":[146.759,-43.2235]},{"code":"AU-6081","program":"pota","name":"Arve Loop Conservation Area","coordinates":[146.752,-43.1508]},{"code":"AU-6205","program":"pota","name":"Griggs Creek Conservation Area","coordinates":[146.841,-43.033]},{"code":"AU-6219","program":"pota","name":"Judbury Conservation Area","coordinates":[146.948,-43.0007]},{"code":"VK7/SC-013","program":"sota","name":"618","coordinates":[146.9392,-43.0659]},{"code":"VK7/SC-016","program":"sota","name":"Tongatabu","coordinates":[146.9575,-43.2293]},{"code":"VK7/SC-020","program":"sota","name":"Blue Hill","coordinates":[146.7794,-43.0983]},{"code":"VK7/SC-029","program":"sota","name":"She Oak Hills","coordinates":[146.8976,-43.0117]},{"code":"VK7/SC-046","program":"sota","name":"Denison Hill","coordinates":[146.8308,-43.0127]},{"code":"VK7/SC-065","program":"sota","name":"Taylors Ridge","coordinates":[146.8106,-43.2208]},{"code":"VK7/SC-066","program":"sota","name":"Kermandie Divide","coordinates":[146.8717,-43.2172]},{"code":"VK7/SC-079","program":"sota","name":"Ashlin Hill","coordinates":[146.9409,-43.1811]},{"code":"VK7/SW-008","program":"sota","name":"Hartz Peak","coordinates":[146.7679,-43.2451]}]}