{"lat":-43,"lon":146.25,"programs":["pota","sota"],"count":20,"references":[{"code":"AU-6103","program":"pota","name":"Boyd Conservation Area","coordinates":[146.327,-42.8277]},{"code":"AU-6287","program":"pota","name":"Mount Wedge Conservation Area","coordinates":[146.273,-42.8294]},{"code":"AU-6383","program":"pota","name":"Stringybark Conservation Area","coordinates":[146.278,-42.819]},{"code":"VK7/SW-001","program":"sota","name":"Mount Anne","coordinates":[146.424,-42.9428]},{"code":"VK7/SW-006","program":"sota","name":"Mount Sarah Jane","coordinates":[146.443,-42.9789]},{"code":"VK7/SW-060","program":"sota","name":"Mount Solitary","coordinates":[146.2508,-42.9571]},{"code":"VK7/SW-103","program":"sota","name":"Marsden Range 657","coordinates":[146.3176,-42.9231]},{"code":"VK7/SW-115","program":"sota","name":"Harlequin Hill","coordinates":[146.334,-42.9788]},{"code":"VK7/SW-172","program":"sota","name":"Mount Lot","coordinates":[146.4429,-42.9517]},{"code":"VK7/SW-176","program":"sota","name":"VK7/SW-176","coordinates":[146.2694,-42.958]},{"code":"VK7/WC-017","program":"sota","name":"Mount Mueller","coordinates":[146.4565,-42.7754]},{"code":"VK7/WC-027","program":"sota","name":"Mount Wedge","coordinates":[146.2971,-42.8453]},{"code":"VK7/WC-064","program":"sota","name":"Mount Bowes","coordinates":[146.4088,-42.8553]},{"code":"VK7/WC-081","program":"sota","name":"884","coordinates":[146.4057,-42.8749]},{"code":"VK7/WC-083","program":"sota","name":"864","coordinates":[146.3433,-42.8438]},{"code":"VK7/WC-098","program":"sota","name":"Junction Hill","coordinates":[146.382,-42.8214]},{"code":"VK7/WC-101","program":"sota","name":"Ragged Range","coordinates":[146.3106,-42.7683]},{"code":"VK7/WC-105","program":"sota","name":"Celtic Hill","coordinates":[146.3613,-42.9325]},{"code":"VK7/WC-107","program":"sota","name":"Saw Back Range","coordinates":[146.3508,-42.7743]},{"code":"VK7/WC-152","program":"sota","name":"487","coordinates":[146.3418,-42.903]}]}