{"lat":-43.75,"lon":170.25,"programs":["iota","pota","sota"],"count":40,"references":[{"code":"OC-134","program":"iota","name":"SOUTH ISLAND","coordinates":[170.400001525,-43.59500122]},{"code":"NZ-0040","program":"pota","name":"Aoraki/Mount Cook National Park","coordinates":[170.288,-43.6172]},{"code":"NZ-0128","program":"pota","name":"Godley Peaks Ecological Area","coordinates":[170.431,-43.7338]},{"code":"NZ-0155","program":"pota","name":"Liebig Range/Upper Jollie/Cass Conservation Area","coordinates":[170.353,-43.6423]},{"code":"ZL3/CB-002","program":"sota","name":"Malte Brun","coordinates":[170.304,-43.5631]},{"code":"ZL3/CB-003","program":"sota","name":"Mount Hamilton","coordinates":[170.3293,-43.5546]},{"code":"ZL3/CB-004","program":"sota","name":"Mount Chudleigh","coordinates":[170.279,-43.5871]},{"code":"ZL3/CB-005","program":"sota","name":"Haeckel Peak","coordinates":[170.3454,-43.5401]},{"code":"ZL3/CB-006","program":"sota","name":"Mount Darwin","coordinates":[170.3398,-43.5271]},{"code":"ZL3/CB-007","program":"sota","name":"Aiguilles Rouges","coordinates":[170.2918,-43.5776]},{"code":"ZL3/CB-009","program":"sota","name":"Hochstetter Dome","coordinates":[170.3492,-43.5024]},{"code":"ZL3/CB-010","program":"sota","name":"Mount Hutton","coordinates":[170.3909,-43.6035]},{"code":"ZL3/CB-011","program":"sota","name":"Mount Ronald Adair","coordinates":[170.4006,-43.5922]},{"code":"ZL3/CB-016","program":"sota","name":"Mount Johnson","coordinates":[170.2619,-43.6037]},{"code":"ZL3/CB-019","program":"sota","name":"The Abbot","coordinates":[170.2933,-43.6659]},{"code":"ZL3/CB-022","program":"sota","name":"Mount Lucia","coordinates":[170.3546,-43.6457]},{"code":"ZL3/CB-024","program":"sota","name":"Mount Conrad","coordinates":[170.4192,-43.5613]},{"code":"ZL3/CB-030","program":"sota","name":"Mount Acland","coordinates":[170.4438,-43.5182]},{"code":"ZL3/CB-033","program":"sota","name":"Mount William Grant","coordinates":[170.3215,-43.7046]},{"code":"ZL3/CB-039","program":"sota","name":"Mount Jukes","coordinates":[170.331,-43.6623]},{"code":"ZL3/CB-040","program":"sota","name":"Gamack Range","coordinates":[170.3264,-43.6946]},{"code":"ZL3/CB-042","program":"sota","name":"Mount Richmond","coordinates":[170.4363,-43.5413]},{"code":"ZL3/CB-049","program":"sota","name":"ZL3/CB-049","coordinates":[170.3577,-43.7472]},{"code":"ZL3/CB-053","program":"sota","name":"ZL3/CB-053","coordinates":[170.3577,-43.7011]},{"code":"ZL3/CB-056","program":"sota","name":"Mount Radove","coordinates":[170.4362,-43.6977]},{"code":"ZL3/CB-064","program":"sota","name":"The Needles","coordinates":[170.3109,-43.7409]},{"code":"ZL3/CB-068","program":"sota","name":"Mount Bruce","coordinates":[170.2609,-43.7142]},{"code":"ZL3/CB-079","program":"sota","name":"Mount Cooper","coordinates":[170.3851,-43.5216]},{"code":"ZL3/CB-083","program":"sota","name":"ZL3/CB-083","coordinates":[170.345,-43.7423]},{"code":"ZL3/CB-096","program":"sota","name":"Hall Range","coordinates":[170.4332,-43.6245]},{"code":"ZL3/CB-099","program":"sota","name":"Taranaki Peak","coordinates":[170.4417,-43.6408]},{"code":"ZL3/CB-113","program":"sota","name":"ZL3/CB-113","coordinates":[170.3199,-43.7232]},{"code":"ZL3/CB-121","program":"sota","name":"ZL3/CB-121","coordinates":[170.4243,-43.6626]},{"code":"ZL3/CB-122","program":"sota","name":"ZL3/CB-122","coordinates":[170.464,-43.7165]},{"code":"ZL3/CB-167","program":"sota","name":"ZL3/CB-167","coordinates":[170.3527,-43.6699]},{"code":"ZL3/CB-234","program":"sota","name":"ZL3/CB-234","coordinates":[170.4542,-43.6732]},{"code":"ZL3/CB-245","program":"sota","name":"ZL3/CB-245","coordinates":[170.4459,-43.5886]},{"code":"ZL3/CB-897","program":"sota","name":"ZL3/CB-897","coordinates":[170.2576,-43.7186]},{"code":"ZL3/CB-903","program":"sota","name":"ZL3/CB-903","coordinates":[170.3657,-43.6932]},{"code":"ZL3/WC-006","program":"sota","name":"Minarets","coordinates":[170.2742,-43.5097]}]}