{"lat":-43.25,"lon":146.25,"programs":["sota"],"count":19,"references":[{"code":"VK7/SW-012","program":"sota","name":"West Portal","coordinates":[146.411,-43.195]},{"code":"VK7/SW-015","program":"sota","name":"Mount Orion","coordinates":[146.2671,-43.1405]},{"code":"VK7/SW-021","program":"sota","name":"The Dial","coordinates":[146.4491,-43.2288]},{"code":"VK7/SW-022","program":"sota","name":"Mount Aldebaran","coordinates":[146.3435,-43.1774]},{"code":"VK7/SW-023","program":"sota","name":"Mount Scorpio","coordinates":[146.3455,-43.1613]},{"code":"VK7/SW-026","program":"sota","name":"The Pheonix","coordinates":[146.3672,-43.1783]},{"code":"VK7/SW-027","program":"sota","name":"Schnells Ridge","coordinates":[146.4202,-43.0242]},{"code":"VK7/SW-031","program":"sota","name":"Dorado Peak","coordinates":[146.2991,-43.1539]},{"code":"VK7/SW-032","program":"sota","name":"Mount Pegasus","coordinates":[146.2773,-43.1483]},{"code":"VK7/SW-037","program":"sota","name":"Centaurus Ridge","coordinates":[146.3785,-43.1876]},{"code":"VK7/SW-038","program":"sota","name":"Mount Columba","coordinates":[146.301,-43.1672]},{"code":"VK7/SW-045","program":"sota","name":"Gallagher Plateau","coordinates":[146.4768,-43.029]},{"code":"VK7/SW-049","program":"sota","name":"963","coordinates":[146.2623,-43.2358]},{"code":"VK7/SW-056","program":"sota","name":"887","coordinates":[146.3799,-43.0568]},{"code":"VK7/SW-065","program":"sota","name":"823","coordinates":[146.3248,-43.1946]},{"code":"VK7/SW-096","program":"sota","name":"Scotts Peak","coordinates":[146.2781,-43.0045]},{"code":"VK7/SW-099","program":"sota","name":"660A","coordinates":[146.4762,-43.1076]},{"code":"VK7/SW-130","program":"sota","name":"522","coordinates":[146.4789,-43.1283]},{"code":"VK7/SW-142","program":"sota","name":"The Razorback","coordinates":[146.4808,-43.1701]}]}