{"lat":-43.5,"lon":171,"programs":["pota","sota"],"count":25,"references":[{"code":"NZ-0669","program":"pota","name":"Lake Heron Wildlife Refuge","coordinates":[171.179,-43.4732]},{"code":"NZ-0672","program":"pota","name":"Lake Heron Nature Reserve","coordinates":[171.179,-43.4738]},{"code":"ZL3/CB-015","program":"sota","name":"Jagged Peak","coordinates":[171.0088,-43.334]},{"code":"ZL3/CB-020","program":"sota","name":"North Peak","coordinates":[171.0032,-43.3123]},{"code":"ZL3/CB-051","program":"sota","name":"Tent Peak","coordinates":[171.0209,-43.3421]},{"code":"ZL3/CB-058","program":"sota","name":"The Marquee","coordinates":[171.0449,-43.3445]},{"code":"ZL3/CB-157","program":"sota","name":"ZL3/CB-157","coordinates":[171.0184,-43.4406]},{"code":"ZL3/CB-173","program":"sota","name":"ZL3/CB-173","coordinates":[171.0125,-43.4559]},{"code":"ZL3/CB-195","program":"sota","name":"ZL3/CB-195","coordinates":[171.0126,-43.4896]},{"code":"ZL3/CB-236","program":"sota","name":"Wild Mans Brother Range","coordinates":[171.0181,-43.3939]},{"code":"ZL3/CB-238","program":"sota","name":"Smite Peak","coordinates":[171.2382,-43.3537]},{"code":"ZL3/CB-244","program":"sota","name":"Lagoon Peak","coordinates":[171.238,-43.3747]},{"code":"ZL3/CB-266","program":"sota","name":"ZL3/CB-266","coordinates":[171.0581,-43.3767]},{"code":"ZL3/CB-281","program":"sota","name":"ZL3/CB-281","coordinates":[171.0907,-43.3794]},{"code":"ZL3/CB-300","program":"sota","name":"Wild Mans Hill","coordinates":[171.0494,-43.4164]},{"code":"ZL3/CB-327","program":"sota","name":"Palmer Range","coordinates":[171.1995,-43.3423]},{"code":"ZL3/CB-338","program":"sota","name":"ZL3/CB-338","coordinates":[171.1623,-43.3377]},{"code":"ZL3/CB-389","program":"sota","name":"Manuka Peak","coordinates":[171.1764,-43.2585]},{"code":"ZL3/CB-399","program":"sota","name":"ZL3/CB-399","coordinates":[171.083,-43.4673]},{"code":"ZL3/CB-418","program":"sota","name":"Middle Hill","coordinates":[171.1153,-43.399]},{"code":"ZL3/CB-442","program":"sota","name":"ZL3/CB-442","coordinates":[171.1705,-43.361]},{"code":"ZL3/CB-444","program":"sota","name":"Cascade Hill","coordinates":[171.0977,-43.3385]},{"code":"ZL3/CB-456","program":"sota","name":"ZL3/CB-456","coordinates":[171.0714,-43.3974]},{"code":"ZL3/CB-463","program":"sota","name":"Staces Hill","coordinates":[171.1219,-43.4149]},{"code":"ZL3/CB-544","program":"sota","name":"Mount Sugarloaf","coordinates":[171.1994,-43.4591]}]}