{"lat":-43,"lon":171.25,"programs":["gma","pota","sota"],"count":23,"references":[{"code":"XZL3/WC-211","program":"gma","name":"Cairn Peak","coordinates":[171.2501,-42.9197]},{"code":"NZ-0095","program":"pota","name":"Kawhaka Forest Conservation Area","coordinates":[171.27,-42.7672]},{"code":"NZ-0235","program":"pota","name":"Waitaiki Historical Reserve","coordinates":[171.331,-42.8658]},{"code":"ZL3/CB-110","program":"sota","name":"Mount Davie","coordinates":[171.3936,-42.9661]},{"code":"ZL3/CB-134","program":"sota","name":"Mount Harper","coordinates":[171.4131,-42.992]},{"code":"ZL3/CB-188","program":"sota","name":"Mount Camsell","coordinates":[171.282,-42.9832]},{"code":"ZL3/CB-314","program":"sota","name":"Mount Campbell","coordinates":[171.4371,-42.9357]},{"code":"ZL3/CB-865","program":"sota","name":"Mount Guinevere","coordinates":[171.48851,-42.94799]},{"code":"ZL3/WC-109","program":"sota","name":"Mount Rosamond","coordinates":[171.3906,-42.9409]},{"code":"ZL3/WC-125","program":"sota","name":"Mount Armstrong","coordinates":[171.4919,-42.8915]},{"code":"ZL3/WC-147","program":"sota","name":"Mount Learmont","coordinates":[171.2963,-42.9585]},{"code":"ZL3/WC-169","program":"sota","name":"Mount Axis","coordinates":[171.3647,-42.9236]},{"code":"ZL3/WC-192","program":"sota","name":"Mount Lathrop","coordinates":[171.29,-42.9195]},{"code":"ZL3/WC-212","program":"sota","name":"Tara Tama","coordinates":[171.4133,-42.8199]},{"code":"ZL3/WC-215","program":"sota","name":"McLaurin Range","coordinates":[171.3992,-42.9227]},{"code":"ZL3/WC-233","program":"sota","name":"Mount Walcott","coordinates":[171.4084,-42.8739]},{"code":"ZL3/WC-289","program":"sota","name":"Hunts Ridge","coordinates":[171.4716,-42.858]},{"code":"ZL3/WC-295","program":"sota","name":"Mount Newton","coordinates":[171.3356,-42.874]},{"code":"ZL3/WC-337","program":"sota","name":"Mount Olson","coordinates":[171.3671,-42.8257]},{"code":"ZL3/WC-341","program":"sota","name":"ZL3/WC-341","coordinates":[171.3949,-42.846]},{"code":"ZL3/WC-477","program":"sota","name":"Mt Turiwhate","coordinates":[171.2913,-42.7629]},{"code":"ZL3/WC-555","program":"sota","name":"Mount McInerney","coordinates":[171.3999,-42.7779]},{"code":"ZL3/WC-755","program":"sota","name":"Cairn Peak","coordinates":[171.2534,-42.9211]}]}