{"lat":-43,"lon":146.5,"programs":["pota","sota"],"count":11,"references":[{"code":"AU-6088","program":"pota","name":"Big Tree Conservation Area","coordinates":[146.666,-42.8171]},{"code":"AU-6300","program":"pota","name":"North Styx Conservation Area","coordinates":[146.68,-42.7838]},{"code":"AU-6384","program":"pota","name":"Styx Tall Trees Conservation Area","coordinates":[146.699,-42.8109]},{"code":"AU-6410","program":"pota","name":"Tyenna River Conservation Area","coordinates":[146.6,-42.7561]},{"code":"VK7/SC-005","program":"sota","name":"Mount Styx","coordinates":[146.7456,-42.8315]},{"code":"VK7/SW-002","program":"sota","name":"Snowy South","coordinates":[146.6583,-42.9425]},{"code":"VK7/SW-003","program":"sota","name":"Nevada Peak","coordinates":[146.6397,-42.9199]},{"code":"VK7/SW-007","program":"sota","name":"Snowy North","coordinates":[146.6453,-42.8609]},{"code":"VK7/SW-042","program":"sota","name":"Jubilee Range","coordinates":[146.549,-42.8816]},{"code":"VK7/WC-040","program":"sota","name":"Abbotts Lookout","coordinates":[146.6537,-42.7806]},{"code":"VK7/WC-041","program":"sota","name":"Marriots Lookout","coordinates":[146.6788,-42.765]}]}