{"lat":-44.5,"lon":-176.25,"programs":["pota","sota"],"count":6,"references":[{"code":"NZ-0292","program":"pota","name":"Waipaua Conservation Area","coordinates":[-176.233,-44.3089]},{"code":"NZ-0687","program":"pota","name":"Waipaua Scenic Reserve","coordinates":[-176.234,-44.3347]},{"code":"NZ-0688","program":"pota","name":"Canister Cove Scenic Reserve","coordinates":[-176.234,-44.3347]},{"code":"ZL7/CI-003","program":"sota","name":"Waihere","coordinates":[-176.2497,-44.2805]},{"code":"ZL7/CI-004","program":"sota","name":"Rangatira Island","coordinates":[-176.1809,-44.3502]},{"code":"ZL7/CI-007","program":"sota","name":"The Pyramid","coordinates":[-176.2398,-44.433]}]}