{"lat":-44,"lon":172.75,"programs":["pota","sota"],"count":6,"references":[{"code":"NZ-0665","program":"pota","name":"Te Oka Bay Recreation Park","coordinates":[172.797,-43.8298]},{"code":"NZ-0680","program":"pota","name":"Akaroa Marine Reserve","coordinates":[172.963,-43.8842]},{"code":"ZL3/CB-725","program":"sota","name":"Saddle Hill","coordinates":[172.8606,-43.8008]},{"code":"ZL3/CB-735","program":"sota","name":"French Hill","coordinates":[172.8662,-43.7666]},{"code":"ZL3/CB-737","program":"sota","name":"Flag Peak","coordinates":[172.9882,-43.8355]},{"code":"ZL3/CB-746","program":"sota","name":"Carews Peak","coordinates":[172.8654,-43.833]}]}