{"lat":-44.75,"lon":168,"programs":["sota"],"count":48,"references":[{"code":"ZL3/FL-001","program":"sota","name":"Mount Tutoko","coordinates":[168.0126,-44.5946]},{"code":"ZL3/FL-002","program":"sota","name":"Mount Madeline","coordinates":[168.0458,-44.6142]},{"code":"ZL3/FL-005","program":"sota","name":"Mount Te Wera","coordinates":[168.0543,-44.6584]},{"code":"ZL3/FL-010","program":"sota","name":"Mount Patuki","coordinates":[168.0235,-44.6692]},{"code":"ZL3/FL-011","program":"sota","name":"Poseidon Peak (West Peak)","coordinates":[168.2328,-44.5789]},{"code":"ZL3/FL-013","program":"sota","name":"Mount Underwood","coordinates":[168.0038,-44.6735]},{"code":"ZL3/FL-014","program":"sota","name":"Karetai Peak","coordinates":[168.046,-44.6723]},{"code":"ZL3/FL-015","program":"sota","name":"Niobe Peak","coordinates":[168.2369,-44.5646]},{"code":"ZL3/FL-016","program":"sota","name":"Mount Syme","coordinates":[168.0321,-44.627]},{"code":"ZL3/FL-018","program":"sota","name":"Mount Revelation","coordinates":[168.0496,-44.6813]},{"code":"ZL3/FL-021","program":"sota","name":"Sabre Peak","coordinates":[168.0525,-44.7473]},{"code":"ZL3/FL-023","program":"sota","name":"Alice Peak","coordinates":[168.0404,-44.5839]},{"code":"ZL3/FL-024","program":"sota","name":"Taiaroa Peak","coordinates":[168.0621,-44.6803]},{"code":"ZL3/FL-026","program":"sota","name":"Mount Gifford","coordinates":[168.076,-44.7251]},{"code":"ZL3/FL-031","program":"sota","name":"Marian Peak","coordinates":[168.0456,-44.7484]},{"code":"ZL3/FL-033","program":"sota","name":"Adelaide Peak","coordinates":[168.0587,-44.746]},{"code":"ZL3/FL-034","program":"sota","name":"Waitiri","coordinates":[168.0226,-44.6437]},{"code":"ZL3/FL-047","program":"sota","name":"ZL3/FL-047","coordinates":[168.2368,-44.5492]},{"code":"ZL3/FL-052","program":"sota","name":"Nereus Peak","coordinates":[168.1967,-44.643]},{"code":"ZL3/FL-056","program":"sota","name":"Apirana Peak","coordinates":[168.0313,-44.6937]},{"code":"ZL3/FL-081","program":"sota","name":"The Twins","coordinates":[168.015,-44.7151]},{"code":"ZL3/FL-088","program":"sota","name":"Ocean Peak","coordinates":[168.1808,-44.7438]},{"code":"ZL3/FL-101","program":"sota","name":"Emily Peak","coordinates":[168.2051,-44.7454]},{"code":"ZL3/FL-107","program":"sota","name":"ZL3/FL-107","coordinates":[168.1845,-44.646]},{"code":"ZL3/FL-108","program":"sota","name":"ZL3/FL-108","coordinates":[168.1741,-44.5894]},{"code":"ZL3/FL-116","program":"sota","name":"Puketuroto Peak","coordinates":[168.033,-44.5453]},{"code":"ZL3/FL-125","program":"sota","name":"The Sentinel","coordinates":[168.0202,-44.7214]},{"code":"ZL3/FL-128","program":"sota","name":"Barrington Peak","coordinates":[168.191,-44.5552]},{"code":"ZL3/FL-134","program":"sota","name":"ZL3/FL-134","coordinates":[168.0075,-44.5423]},{"code":"ZL3/FL-136","program":"sota","name":"ZL3/FL-136","coordinates":[168.2026,-44.6238]},{"code":"ZL3/FL-137","program":"sota","name":"Frenchman Peak","coordinates":[168.1848,-44.569]},{"code":"ZL3/FL-139","program":"sota","name":"Mount Dot","coordinates":[168.0537,-44.5652]},{"code":"ZL3/FL-151","program":"sota","name":"Serpentine Range","coordinates":[168.184,-44.6696]},{"code":"ZL3/FL-196","program":"sota","name":"ZL3/FL-196","coordinates":[168.083,-44.6629]},{"code":"ZL3/FL-216","program":"sota","name":"Mount Thunder","coordinates":[168.0226,-44.5167]},{"code":"ZL3/FL-291","program":"sota","name":"ZL3/FL-291","coordinates":[168.1183,-44.5041]},{"code":"ZL3/FL-294","program":"sota","name":"Prospector Peak","coordinates":[168.1621,-44.6058]},{"code":"ZL3/FL-323","program":"sota","name":"ZL3/FL-323","coordinates":[168.1572,-44.6453]},{"code":"ZL3/FL-825","program":"sota","name":"ZL3/FL-825","coordinates":[168.1027,-44.5717]},{"code":"ZL3/OT-038","program":"sota","name":"Somnus","coordinates":[168.2209,-44.6643]},{"code":"ZL3/OT-075","program":"sota","name":"ZL3/OT-075","coordinates":[168.2271,-44.673]},{"code":"ZL3/OT-139","program":"sota","name":"Minos Peak","coordinates":[168.2477,-44.6197]},{"code":"ZL3/OT-151","program":"sota","name":"Mount Erebus","coordinates":[168.1916,-44.7003]},{"code":"ZL3/OT-162","program":"sota","name":"Amphion Peak","coordinates":[168.2341,-44.6051]},{"code":"ZL3/OT-170","program":"sota","name":"ZL3/OT-170","coordinates":[168.2223,-44.7429]},{"code":"ZL3/OT-187","program":"sota","name":"ZL3/OT-187","coordinates":[168.1988,-44.7404]},{"code":"ZL3/OT-192","program":"sota","name":"Mount Xenicus","coordinates":[168.1895,-44.7137]},{"code":"ZL3/OT-215","program":"sota","name":"ZL3/OT-215","coordinates":[168.237,-44.6564]}]}