{"lat":-44,"lon":169.5,"programs":["sota"],"count":20,"references":[{"code":"ZL3/OT-019","program":"sota","name":"Mount Strauchon","coordinates":[169.6965,-43.9615]},{"code":"ZL3/OT-046","program":"sota","name":"Mount Maitland","coordinates":[169.6243,-43.9587]},{"code":"ZL3/OT-047","program":"sota","name":"Tongue Spur","coordinates":[169.6239,-43.9785]},{"code":"ZL3/WC-019","program":"sota","name":"Mount Hooker","coordinates":[169.674,-43.8307]},{"code":"ZL3/WC-074","program":"sota","name":"Mount Trent","coordinates":[169.7456,-43.9311]},{"code":"ZL3/WC-081","program":"sota","name":"Mathers Peak","coordinates":[169.7191,-43.7869]},{"code":"ZL3/WC-088","program":"sota","name":"Mount McCullaugh","coordinates":[169.6175,-43.8294]},{"code":"ZL3/WC-104","program":"sota","name":"Mount Hawkins","coordinates":[169.7025,-43.7619]},{"code":"ZL3/WC-111","program":"sota","name":"Mount Marshman","coordinates":[169.5692,-43.9852]},{"code":"ZL3/WC-115","program":"sota","name":"Mount Mackenzie","coordinates":[169.7227,-43.9467]},{"code":"ZL3/WC-200","program":"sota","name":"Mount Millington","coordinates":[169.6045,-43.7943]},{"code":"ZL3/WC-210","program":"sota","name":"Mount Gow","coordinates":[169.7208,-43.8311]},{"code":"ZL3/WC-236","program":"sota","name":"Rough Ridge","coordinates":[169.5328,-43.8532]},{"code":"ZL3/WC-275","program":"sota","name":"ZL3/WC-275","coordinates":[169.617,-43.7511]},{"code":"ZL3/WC-278","program":"sota","name":"ZL3/WC-278","coordinates":[169.586,-43.8471]},{"code":"ZL3/WC-284","program":"sota","name":"ZL3/WC-284","coordinates":[169.64,-43.7646]},{"code":"ZL3/WC-286","program":"sota","name":"Mount Solution","coordinates":[169.6506,-43.8948]},{"code":"ZL3/WC-352","program":"sota","name":"ZL3/WC-352","coordinates":[169.5002,-43.8217]},{"code":"ZL3/WC-491","program":"sota","name":"Kea Cliffs","coordinates":[169.6637,-43.8607]},{"code":"ZL3/WC-753","program":"sota","name":"ZL3/WC-753","coordinates":[169.6752,-43.7777]}]}