{"lat":-44,"lon":170.5,"programs":["pota","sota"],"count":13,"references":[{"code":"NZ-0359","program":"pota","name":"Mt. Gerald Conservation Area","coordinates":[170.617,-43.7706]},{"code":"ZL3/CB-097","program":"sota","name":"Mount Misery","coordinates":[170.718,-43.8475]},{"code":"ZL3/CB-170","program":"sota","name":"ZL3/CB-170","coordinates":[170.6747,-43.8339]},{"code":"ZL3/CB-197","program":"sota","name":"Dobson Peak","coordinates":[170.6701,-43.9357]},{"code":"ZL3/CB-200","program":"sota","name":"ZL3/CB-200","coordinates":[170.6791,-43.8692]},{"code":"ZL3/CB-214","program":"sota","name":"ZL3/CB-214","coordinates":[170.7092,-43.7655]},{"code":"ZL3/CB-221","program":"sota","name":"The Knobbies","coordinates":[170.654,-43.904]},{"code":"ZL3/CB-335","program":"sota","name":"Mount Maude","coordinates":[170.632,-43.9814]},{"code":"ZL3/CB-394","program":"sota","name":"Sugar Loaf","coordinates":[170.7115,-43.8936]},{"code":"ZL3/CB-560","program":"sota","name":"ZL3/CB-560","coordinates":[170.7097,-43.9874]},{"code":"ZL3/CB-561","program":"sota","name":"ZL3/CB-561","coordinates":[170.7114,-43.9643]},{"code":"ZL3/CB-566","program":"sota","name":"Mount Hay","coordinates":[170.5651,-43.9492]},{"code":"ZL3/CB-577","program":"sota","name":"Wee McGregor","coordinates":[170.5831,-43.9426]}]}