{"lat":-44.5,"lon":169.25,"programs":["sota"],"count":17,"references":[{"code":"ZL3/OT-073","program":"sota","name":"ZL3/OT-073","coordinates":[169.2796,-44.3099]},{"code":"ZL3/OT-112","program":"sota","name":"Triplet Mountain","coordinates":[169.3197,-44.3286]},{"code":"ZL3/OT-121","program":"sota","name":"Terrace Peak","coordinates":[169.3274,-44.3546]},{"code":"ZL3/OT-131","program":"sota","name":"Mount Patriarch","coordinates":[169.3745,-44.2567]},{"code":"ZL3/OT-148","program":"sota","name":"ZL3/OT-148","coordinates":[169.4043,-44.2711]},{"code":"ZL3/OT-153","program":"sota","name":"Mount Arnold","coordinates":[169.4905,-44.3281]},{"code":"ZL3/OT-186","program":"sota","name":"ZL3/OT-186","coordinates":[169.273,-44.3516]},{"code":"ZL3/OT-190","program":"sota","name":"ZL3/OT-190","coordinates":[169.2662,-44.2678]},{"code":"ZL3/OT-195","program":"sota","name":"Teat Ridge","coordinates":[169.2537,-44.3581]},{"code":"ZL3/OT-224","program":"sota","name":"Maungatika","coordinates":[169.4574,-44.4772]},{"code":"ZL3/OT-226","program":"sota","name":"ZL3/OT-226","coordinates":[169.345,-44.2945]},{"code":"ZL3/OT-239","program":"sota","name":"Dingle Peak","coordinates":[169.3788,-44.4833]},{"code":"ZL3/OT-240","program":"sota","name":"ZL3/OT-240","coordinates":[169.4998,-44.4443]},{"code":"ZL3/OT-245","program":"sota","name":"ZL3/OT-245","coordinates":[169.4702,-44.3621]},{"code":"ZL3/OT-287","program":"sota","name":"Corner Peak","coordinates":[169.3437,-44.4834]},{"code":"ZL3/OT-326","program":"sota","name":"ZL3/OT-326","coordinates":[169.2964,-44.3846]},{"code":"ZL3/OT-431","program":"sota","name":"The Peninsula","coordinates":[169.3801,-44.4321]}]}