{"lat":-44.5,"lon":168.25,"programs":["gma","pota","sota"],"count":35,"references":[{"code":"XZL3/WC-222","program":"gma","name":"ZL3/WC-222","coordinates":[168.44749,-44.2913]},{"code":"NZ-0176","program":"pota","name":"Olivine Wilderness Area","coordinates":[168.46,-44.3814]},{"code":"ZL3/FL-004","program":"sota","name":"ZL3/FL-004","coordinates":[168.3532,-44.4189]},{"code":"ZL3/FL-009","program":"sota","name":"Intervention Ridge","coordinates":[168.3595,-44.4322]},{"code":"ZL3/FL-017","program":"sota","name":"Blockade Peak","coordinates":[168.3488,-44.4495]},{"code":"ZL3/FL-022","program":"sota","name":"Mount Gates","coordinates":[168.3382,-44.4735]},{"code":"ZL3/FL-035","program":"sota","name":"Gyrae","coordinates":[168.3684,-44.3928]},{"code":"ZL3/FL-038","program":"sota","name":"McClimont Peak","coordinates":[168.3068,-44.4352]},{"code":"ZL3/FL-053","program":"sota","name":"ZL3/FL-053","coordinates":[168.4051,-44.3757]},{"code":"ZL3/FL-055","program":"sota","name":"Toreador Peak","coordinates":[168.4113,-44.361]},{"code":"ZL3/FL-064","program":"sota","name":"Angle Peak","coordinates":[168.288,-44.4482]},{"code":"ZL3/FL-067","program":"sota","name":"Trinity (West Peak)","coordinates":[168.3853,-44.3782]},{"code":"ZL3/FL-083","program":"sota","name":"Elespie","coordinates":[168.3259,-44.3857]},{"code":"ZL3/FL-156","program":"sota","name":"ZL3/FL-156","coordinates":[168.3757,-44.365]},{"code":"ZL3/FL-159","program":"sota","name":"Red Mountain","coordinates":[168.345,-44.3209]},{"code":"ZL3/FL-188","program":"sota","name":"ZL3/FL-188","coordinates":[168.2616,-44.4469]},{"code":"ZL3/FL-218","program":"sota","name":"Beresford Peak","coordinates":[168.2633,-44.4203]},{"code":"ZL3/FL-246","program":"sota","name":"Battlement Peak","coordinates":[168.2841,-44.3588]},{"code":"ZL3/FL-313","program":"sota","name":"Beacon","coordinates":[168.2891,-44.3415]},{"code":"ZL3/FL-474","program":"sota","name":"Red Hills Range","coordinates":[168.3575,-44.3033]},{"code":"ZL3/OT-025","program":"sota","name":"Albert Peak","coordinates":[168.3346,-44.4967]},{"code":"ZL3/OT-070","program":"sota","name":"Mallory Peak","coordinates":[168.3067,-44.4997]},{"code":"ZL3/OT-109","program":"sota","name":"Johansen Peak","coordinates":[168.3821,-44.4969]},{"code":"ZL3/WC-037","program":"sota","name":"Mount Ian","coordinates":[168.4766,-44.4852]},{"code":"ZL3/WC-047","program":"sota","name":"Climax Peak","coordinates":[168.3652,-44.4566]},{"code":"ZL3/WC-096","program":"sota","name":"Barrier Range","coordinates":[168.3541,-44.4932]},{"code":"ZL3/WC-102","program":"sota","name":"ZL3/WC-102","coordinates":[168.4621,-44.4652]},{"code":"ZL3/WC-110","program":"sota","name":"Gable Peak","coordinates":[168.3993,-44.4251]},{"code":"ZL3/WC-160","program":"sota","name":"Nansen Peak","coordinates":[168.4038,-44.4965]},{"code":"ZL3/WC-197","program":"sota","name":"Remote Peaks","coordinates":[168.4406,-44.3204]},{"code":"ZL3/WC-217","program":"sota","name":"Jagged Ridge","coordinates":[168.4336,-44.3675]},{"code":"ZL3/WC-225","program":"sota","name":"Retreat Pinnacles","coordinates":[168.438,-44.3466]},{"code":"ZL3/WC-246","program":"sota","name":"Alfred Peak","coordinates":[168.4879,-44.3133]},{"code":"ZL3/WC-277","program":"sota","name":"Retreat Peaks","coordinates":[168.4166,-44.3435]},{"code":"ZL3/WC-757","program":"sota","name":"ZL3/WC-757","coordinates":[168.4717,-44.2863]}]}