{"lat":-45.25,"lon":169,"programs":["pota","sota"],"count":8,"references":[{"code":"NZ-0436","program":"pota","name":"Old Woman Range Conservation Area","coordinates":[169.092,-45.2476]},{"code":"NZ-0451","program":"pota","name":"Potters Creek Conservation Area","coordinates":[169.03,-45.1298]},{"code":"NZ-0458","program":"pota","name":"Happy Valley Conservation Area","coordinates":[169.096,-45.1986]},{"code":"ZL3/OT-357","program":"sota","name":"Carrick Range","coordinates":[169.0457,-45.1083]},{"code":"ZL3/OT-363","program":"sota","name":"Mount Difficulty","coordinates":[169.0819,-45.0429]},{"code":"ZL3/OT-393","program":"sota","name":"The Horn Range","coordinates":[169.0013,-45.0885]},{"code":"ZL3/OT-406","program":"sota","name":"Mount Malcolm","coordinates":[169.0051,-45.0231]},{"code":"ZL3/OT-417","program":"sota","name":"ZL3/OT-417","coordinates":[169.1946,-45.1952]}]}