{"lat":-45,"lon":168.5,"programs":["pota","sota"],"count":34,"references":[{"code":"NZ-0103","program":"pota","name":"Mt Creighton Conservation Area","coordinates":[168.52,-44.9489]},{"code":"NZ-0170","program":"pota","name":"Mt Aurum Regional Reserve","coordinates":[168.649,-44.8133]},{"code":"NZ-0238","program":"pota","name":"Whakaari Conservation Area","coordinates":[168.511,-44.8208]},{"code":"NZ-0763","program":"pota","name":"Coronet Peak Recreation Site","coordinates":[168.731,-44.9273]},{"code":"NZ-0766","program":"pota","name":"Ballarat Creek Conservation Area","coordinates":[168.639,-44.7536]},{"code":"NZ-0771","program":"pota","name":"Devils Creek Conservation Area","coordinates":[168.681,-44.9532]},{"code":"ZL3/OT-055","program":"sota","name":"Mount Aurum","coordinates":[168.6225,-44.7678]},{"code":"ZL3/OT-062","program":"sota","name":"ZL3/OT-062","coordinates":[168.5979,-44.7635]},{"code":"ZL3/OT-082","program":"sota","name":"ZL3/OT-082","coordinates":[168.5544,-44.7716]},{"code":"ZL3/OT-095","program":"sota","name":"Mount Butement","coordinates":[168.5253,-44.8523]},{"code":"ZL3/OT-110","program":"sota","name":"Round Hill","coordinates":[168.5253,-44.7813]},{"code":"ZL3/OT-115","program":"sota","name":"ZL3/OT-115","coordinates":[168.5358,-44.8045]},{"code":"ZL3/OT-116","program":"sota","name":"ZL3/OT-116","coordinates":[168.5295,-44.764]},{"code":"ZL3/OT-118","program":"sota","name":"Mount Buck","coordinates":[168.5351,-44.8142]},{"code":"ZL3/OT-150","program":"sota","name":"Wallers Spur","coordinates":[168.5271,-44.8361]},{"code":"ZL3/OT-233","program":"sota","name":"Ben More","coordinates":[168.5394,-44.9489]},{"code":"ZL3/OT-256","program":"sota","name":"Mount Gilbert","coordinates":[168.589,-44.8766]},{"code":"ZL3/OT-258","program":"sota","name":"Silverhorn","coordinates":[168.6121,-44.8318]},{"code":"ZL3/OT-268","program":"sota","name":"ZL3/OT-268","coordinates":[168.5172,-44.9819]},{"code":"ZL3/OT-272","program":"sota","name":"Prince of Wales","coordinates":[168.6554,-44.7674]},{"code":"ZL3/OT-302","program":"sota","name":"Coronet Peak","coordinates":[168.7397,-44.9157]},{"code":"ZL3/OT-310","program":"sota","name":"Bowen Peak","coordinates":[168.6394,-44.9963]},{"code":"ZL3/OT-331","program":"sota","name":"ZL3/OT-331","coordinates":[168.6892,-44.7511]},{"code":"ZL3/OT-333","program":"sota","name":"ZL3/OT-333","coordinates":[168.5465,-44.8941]},{"code":"ZL3/OT-344","program":"sota","name":"ZL3/OT-344","coordinates":[168.7168,-44.7868]},{"code":"ZL3/OT-358","program":"sota","name":"Mount Dewar","coordinates":[168.6875,-44.9416]},{"code":"ZL3/OT-362","program":"sota","name":"Mount Selwyn","coordinates":[168.6496,-44.8765]},{"code":"ZL3/OT-379","program":"sota","name":"ZL3/OT-379","coordinates":[168.592,-44.9525]},{"code":"ZL3/OT-390","program":"sota","name":"ZL3/OT-390","coordinates":[168.7063,-44.8216]},{"code":"ZL3/OT-391","program":"sota","name":"ZL3/OT-391","coordinates":[168.6244,-44.8761]},{"code":"ZL3/OT-405","program":"sota","name":"The Point","coordinates":[168.6389,-44.9364]},{"code":"ZL3/OT-412","program":"sota","name":"ZL3/OT-412","coordinates":[168.6847,-44.9037]},{"code":"ZL3/OT-416","program":"sota","name":"Sugar Loaf","coordinates":[168.7019,-44.9968]},{"code":"ZL3/OT-450","program":"sota","name":"Ferry Hill","coordinates":[168.7444,-44.9942]}]}