{"lat":-45.75,"lon":167.75,"programs":["pota","sota"],"count":14,"references":[{"code":"NZ-0209","program":"pota","name":"Takitimu Conservation Area","coordinates":[167.885,-45.7018]},{"code":"ZL3/FL-240","program":"sota","name":"Family Peaks","coordinates":[167.7999,-45.6894]},{"code":"ZL3/FL-301","program":"sota","name":"Excelsior Peak","coordinates":[167.8243,-45.6337]},{"code":"ZL3/FL-387","program":"sota","name":"ZL3/FL-387","coordinates":[167.8625,-45.6297]},{"code":"ZL3/FL-757","program":"sota","name":"Woodhen Hill","coordinates":[167.9191,-45.5949]},{"code":"ZL3/SL-017","program":"sota","name":"Spence Peak","coordinates":[167.85,-45.7175]},{"code":"ZL3/SL-020","program":"sota","name":"Chimney Peaks","coordinates":[167.8005,-45.7333]},{"code":"ZL3/SL-021","program":"sota","name":"Wairaki Peaks (South)","coordinates":[167.8678,-45.7269]},{"code":"ZL3/SL-025","program":"sota","name":"Aparima Peaks","coordinates":[167.8759,-45.686]},{"code":"ZL3/SL-026","program":"sota","name":"Gladstone Peak","coordinates":[167.9155,-45.6486]},{"code":"ZL3/SL-033","program":"sota","name":"ZL3/SL-033","coordinates":[167.9067,-45.6407]},{"code":"ZL3/SL-162","program":"sota","name":"Waterloo Peak","coordinates":[167.9684,-45.6052]},{"code":"ZL3/SL-331","program":"sota","name":"ZL3/SL-331","coordinates":[167.8919,-45.6291]},{"code":"ZL3/SL-332","program":"sota","name":"ZL3/SL-332","coordinates":[167.9295,-45.7049]}]}