{"lat":-45,"lon":168.75,"programs":["sota"],"count":16,"references":[{"code":"ZL3/OT-114","program":"sota","name":"Mount Hyde","coordinates":[168.7995,-44.7537]},{"code":"ZL3/OT-180","program":"sota","name":"Mount Cardrona","coordinates":[168.9395,-44.8514]},{"code":"ZL3/OT-236","program":"sota","name":"Middle Peak","coordinates":[168.9858,-44.7702]},{"code":"ZL3/OT-250","program":"sota","name":"Harris Mountains","coordinates":[168.7518,-44.8502]},{"code":"ZL3/OT-251","program":"sota","name":"Knuckle Peak","coordinates":[168.9229,-44.7885]},{"code":"ZL3/OT-264","program":"sota","name":"Mount Soho","coordinates":[168.8591,-44.8634]},{"code":"ZL3/OT-265","program":"sota","name":"Advance Peak","coordinates":[168.7922,-44.8273]},{"code":"ZL3/OT-271","program":"sota","name":"Crown Peak","coordinates":[168.92,-44.9503]},{"code":"ZL3/OT-282","program":"sota","name":"ZL3/OT-282","coordinates":[168.9552,-44.7857]},{"code":"ZL3/OT-316","program":"sota","name":"ZL3/OT-316","coordinates":[168.8745,-44.8306]},{"code":"ZL3/OT-318","program":"sota","name":"Quartz Knoll","coordinates":[168.9944,-44.9603]},{"code":"ZL3/OT-335","program":"sota","name":"Brow Peak","coordinates":[168.8038,-44.9097]},{"code":"ZL3/OT-388","program":"sota","name":"ZL3/OT-388","coordinates":[168.8656,-44.9284]},{"code":"ZL3/OT-414","program":"sota","name":"Mount Beetham","coordinates":[168.8647,-44.9503]},{"code":"ZL3/OT-440","program":"sota","name":"Morven Hill","coordinates":[168.8263,-44.9911]},{"code":"ZL3/OT-462","program":"sota","name":"Slope Hill","coordinates":[168.783,-44.9841]}]}