{"lat":-45,"lon":170,"programs":["pota","sota"],"count":6,"references":[{"code":"NZ-0168","program":"pota","name":"Mount Ida Conservation Area","coordinates":[170.172,-44.839]},{"code":"NZ-0179","program":"pota","name":"Oteake Conservation Park","coordinates":[170.097,-44.8707]},{"code":"ZL3/CB-876","program":"sota","name":"Wire Yards","coordinates":[170.1092,-44.835]},{"code":"ZL3/OT-283","program":"sota","name":"Mount Ida","coordinates":[170.0867,-44.9306]},{"code":"ZL3/OT-377","program":"sota","name":"Little Mount Ida","coordinates":[170.066,-44.9572]},{"code":"ZL3/OT-528","program":"sota","name":"Ida Range East","coordinates":[170.1272,-44.9411]}]}