{"lat":-46,"lon":167.75,"programs":["sota"],"count":11,"references":[{"code":"ZL3/SL-016","program":"sota","name":"Brunel Peaks","coordinates":[167.7873,-45.7509]},{"code":"ZL3/SL-023","program":"sota","name":"Telford Peak","coordinates":[167.8353,-45.7651]},{"code":"ZL3/SL-039","program":"sota","name":"Mackinnon Peaks","coordinates":[167.8793,-45.7532]},{"code":"ZL3/SL-054","program":"sota","name":"Corner Peaks","coordinates":[167.7854,-45.7839]},{"code":"ZL3/SL-185","program":"sota","name":"Letham Hill","coordinates":[167.9842,-45.7821]},{"code":"ZL3/SL-202","program":"sota","name":"The Knob","coordinates":[167.753,-45.7914]},{"code":"ZL3/SL-221","program":"sota","name":"Gibraltar Hill","coordinates":[167.8459,-45.8356]},{"code":"ZL3/SL-227","program":"sota","name":"Wether Hill","coordinates":[167.9184,-45.862]},{"code":"ZL3/SL-228","program":"sota","name":"Nugget Hill","coordinates":[167.9169,-45.8148]},{"code":"ZL3/SL-249","program":"sota","name":"Twinlaw","coordinates":[167.8922,-45.9779]},{"code":"ZL3/SL-262","program":"sota","name":"ZL3/SL-262","coordinates":[167.817,-45.8659]}]}