{"lat":-47,"lon":167.75,"programs":["pota","sota"],"count":10,"references":[{"code":"NZ-0043","program":"pota","name":"Rakiura National Park","coordinates":[167.814,-46.9792]},{"code":"ZL3/SL-215","program":"sota","name":"Little Mount Anglem","coordinates":[167.9508,-46.768]},{"code":"ZL3/SL-224","program":"sota","name":"Mount Rakeahua","coordinates":[167.8802,-46.9431]},{"code":"ZL3/SL-241","program":"sota","name":"The Paps","coordinates":[167.9833,-46.8115]},{"code":"ZL3/SL-256","program":"sota","name":"Bald Hill","coordinates":[167.9671,-46.9738]},{"code":"ZL3/SL-260","program":"sota","name":"Walkers Hill","coordinates":[167.7959,-46.9528]},{"code":"ZL3/SL-271","program":"sota","name":"Traills Hill","coordinates":[167.8052,-46.981]},{"code":"ZL3/SL-288","program":"sota","name":"West Circuit Track (High Point)","coordinates":[167.751,-46.829]},{"code":"ZL3/SL-292","program":"sota","name":"ZL3/SL-292","coordinates":[167.8887,-46.7935]},{"code":"ZL3/SL-303","program":"sota","name":"ZL3/SL-303","coordinates":[167.7753,-46.8794]}]}