{"lat":-54.5,"lon":-36.75,"programs":["sota"],"count":20,"references":[{"code":"VP0/SG-001","program":"sota","name":"Mount Paget","coordinates":[-36.5254,-54.45]},{"code":"VP0/SG-004","program":"sota","name":"Mount Sugartop","coordinates":[-36.6255,-54.3674]},{"code":"VP0/SG-010","program":"sota","name":"Henriksen Buttress","coordinates":[-36.5526,-54.3922]},{"code":"VP0/SG-013","program":"sota","name":"Paulsen Peak","coordinates":[-36.6649,-54.3421]},{"code":"VP0/SG-015","program":"sota","name":"Mount Fagerli","coordinates":[-36.7119,-54.3391]},{"code":"VP0/SG-021","program":"sota","name":"Marikoppa","coordinates":[-36.7009,-54.3278]},{"code":"VP0/SG-024","program":"sota","name":"VP0/SG-024","coordinates":[-36.6742,-54.3295]},{"code":"VP0/SG-074","program":"sota","name":"VP0/SG-074","coordinates":[-36.578,-54.4846]},{"code":"VP0/SG-075","program":"sota","name":"VP0/SG-075","coordinates":[-36.7463,-54.4464]},{"code":"VP0/SG-097","program":"sota","name":"VP0/SG-097","coordinates":[-36.5997,-54.4967]},{"code":"VP0/SG-107","program":"sota","name":"Waller Peak","coordinates":[-36.6423,-54.3179]},{"code":"VP0/SG-109","program":"sota","name":"VP0/SG-109","coordinates":[-36.5323,-54.3457]},{"code":"VP0/SG-111","program":"sota","name":"Headland Peak","coordinates":[-36.7171,-54.2794]},{"code":"VP0/SG-118","program":"sota","name":"VP0/SG-118","coordinates":[-36.5268,-54.3625]},{"code":"VP0/SG-133","program":"sota","name":"VP0/SG-133","coordinates":[-36.7028,-54.4684]},{"code":"VP0/SG-158","program":"sota","name":"Minden Peak - South","coordinates":[-36.5672,-54.3102]},{"code":"VP0/SG-173","program":"sota","name":"Petrel Peak","coordinates":[-36.5356,-54.2706]},{"code":"VP0/SG-196","program":"sota","name":"Stenhouse Peak","coordinates":[-36.5425,-54.2514]},{"code":"VP0/SG-217","program":"sota","name":"VP0/SG-217","coordinates":[-36.5692,-54.2629]},{"code":"VP0/SG-224","program":"sota","name":"Brown Mountain","coordinates":[-36.515,-54.2951]}]}