{"lat":-54.75,"lon":158.75,"programs":["iota","pota","sota"],"count":5,"references":[{"code":"AN-005","program":"iota","name":"MACQUARIE ISLAND","coordinates":[158.875,-54.625]},{"code":"AU-2158","program":"pota","name":"Macquarie Island Nature Reserve","coordinates":[158.83,-54.6917]},{"code":"VKM/MI-001","program":"sota","name":"Mount Hamilton","coordinates":[158.8275,-54.7086]},{"code":"VKM/MI-002","program":"sota","name":"Mount Waite","coordinates":[158.835,-54.6394]},{"code":"VKM/MI-003","program":"sota","name":"Mount Elder","coordinates":[158.92,-54.5361]}]}