{"lat":-55,"lon":-36.25,"programs":["sota"],"count":20,"references":[{"code":"VP0/SG-014","program":"sota","name":"Mount Macklin","coordinates":[-36.0452,-54.7542]},{"code":"VP0/SG-017","program":"sota","name":"Mount Macklin - South","coordinates":[-36.0471,-54.7632]},{"code":"VP0/SG-030","program":"sota","name":"Douglas Crag","coordinates":[-36.0025,-54.7704]},{"code":"VP0/SG-043","program":"sota","name":"VP0/SG-043","coordinates":[-36.1863,-54.7514]},{"code":"VP0/SG-048","program":"sota","name":"Mount Senderens","coordinates":[-36.1186,-54.8375]},{"code":"VP0/SG-053","program":"sota","name":"Mount Normann","coordinates":[-36.0685,-54.8513]},{"code":"VP0/SG-062","program":"sota","name":"Mount Sabatier","coordinates":[-36.142,-54.8196]},{"code":"VP0/SG-083","program":"sota","name":"VP0/SG-083","coordinates":[-36.1629,-54.7954]},{"code":"VP0/SG-105","program":"sota","name":"Philippi Glacier","coordinates":[-36.0878,-54.8026]},{"code":"VP0/SG-116","program":"sota","name":"VP0/SG-116","coordinates":[-36.1934,-54.7773]},{"code":"VP0/SG-120","program":"sota","name":"VP0/SG-120","coordinates":[-36.2138,-54.7734]},{"code":"VP0/SG-125","program":"sota","name":"Mount Mair","coordinates":[-36.0366,-54.8309]},{"code":"VP0/SG-153","program":"sota","name":"VP0/SG-153","coordinates":[-36.2366,-54.7852]},{"code":"VP0/SG-155","program":"sota","name":"VP0/SG-155","coordinates":[-36.016,-54.8493]},{"code":"VP0/SG-162","program":"sota","name":"VP0/SG-162","coordinates":[-36.085,-54.8158]},{"code":"VP0/SG-165","program":"sota","name":"VP0/SG-165","coordinates":[-36.0545,-54.8095]},{"code":"VP0/SG-175","program":"sota","name":"Trollhul","coordinates":[-36.2097,-54.8064]},{"code":"VP0/SG-190","program":"sota","name":"VP0/SG-190","coordinates":[-36.0625,-54.8763]},{"code":"VP0/SG-216","program":"sota","name":"VP0/SG-216","coordinates":[-36.0218,-54.8752]},{"code":"VP0/SG-232","program":"sota","name":"Green Island","coordinates":[-36.0991,-54.8955]}]}