{"lat":-6,"lon":-36.25,"programs":["sota"],"count":5,"references":[{"code":"PS7/AP-005","program":"sota","name":"Serra da Oiticica","coordinates":[-36.1451,-5.8912]},{"code":"PS7/AP-012","program":"sota","name":"Serra do Espinheiro","coordinates":[-36.1884,-5.9625]},{"code":"PS7/AP-014","program":"sota","name":"Serra Feliz","coordinates":[-36.0543,-5.8873]},{"code":"PS7/CP-032","program":"sota","name":"Serra do Feiticeiro","coordinates":[-36.2236,-5.7906]},{"code":"PS7/CP-053","program":"sota","name":"Serra de São Francisco","coordinates":[-36.1161,-5.7923]}]}