{"lat":-6,"lon":-37,"programs":["sota"],"count":10,"references":[{"code":"PS7/OP-083","program":"sota","name":"Serra da Pindoba","coordinates":[-36.8738,-5.9059]},{"code":"PS7/OP-084","program":"sota","name":"Poça de Cavacos","coordinates":[-36.9726,-5.9843]},{"code":"PS7/OP-092","program":"sota","name":"Serra Caiçarinha","coordinates":[-36.9794,-5.8689]},{"code":"PS7/OP-098","program":"sota","name":"Serra Branca","coordinates":[-36.8292,-5.8583]},{"code":"PS7/OP-101","program":"sota","name":"Serra Caiçarinha","coordinates":[-36.9695,-5.8343]},{"code":"PS7/OP-107","program":"sota","name":"Serra do Antônio Laro","coordinates":[-36.9833,-5.7544]},{"code":"PS7/OP-109","program":"sota","name":"Serra Branca","coordinates":[-36.824,-5.8339]},{"code":"PS7/OP-111","program":"sota","name":"Serra Coberta","coordinates":[-36.9926,-5.7718]},{"code":"PS7/OP-113","program":"sota","name":"Serra Cabeça","coordinates":[-36.9611,-5.7526]},{"code":"PS7/OP-114","program":"sota","name":"Serra Redonda","coordinates":[-36.9631,-5.7718]}]}