{"lat":-6,"lon":-37.25,"programs":["sota"],"count":9,"references":[{"code":"PS7/OP-039","program":"sota","name":"Serra das Carnaúbas","coordinates":[-37.122,-5.9541]},{"code":"PS7/OP-040","program":"sota","name":"PS7/OP-040","coordinates":[-37.0995,-5.9392]},{"code":"PS7/OP-056","program":"sota","name":"PS7/OP-056","coordinates":[-37.067,-5.9556]},{"code":"PS7/OP-058","program":"sota","name":"Serra dos Cajueiros","coordinates":[-37.0622,-5.9136]},{"code":"PS7/OP-060","program":"sota","name":"Serra das Pinturas","coordinates":[-37.0368,-5.9128]},{"code":"PS7/OP-087","program":"sota","name":"Serra da Cava","coordinates":[-37.0286,-5.8292]},{"code":"PS7/OP-100","program":"sota","name":"PS7/OP-100","coordinates":[-37.1562,-5.9208]},{"code":"PS7/OP-102","program":"sota","name":"Cabeço da Areré","coordinates":[-37.1356,-5.8652]},{"code":"PS7/OP-110","program":"sota","name":"Cabeço Pipoco","coordinates":[-37.163,-5.8911]}]}