{"lat":-6.25,"lon":-38,"programs":["sota"],"count":12,"references":[{"code":"PS7/OP-003","program":"sota","name":"Serrote Verde","coordinates":[-37.893,-6.1327]},{"code":"PS7/OP-004","program":"sota","name":"Serra Três Cabeças","coordinates":[-37.7539,-6.1992]},{"code":"PS7/OP-014","program":"sota","name":"PS7/OP-014","coordinates":[-37.9987,-6.0796]},{"code":"PS7/OP-018","program":"sota","name":"Serra do Prado","coordinates":[-37.7667,-6.2223]},{"code":"PS7/OP-019","program":"sota","name":"PS7/OP-019","coordinates":[-37.9636,-6.0772]},{"code":"PS7/OP-031","program":"sota","name":"Serra dos Picos","coordinates":[-37.8953,-6.0419]},{"code":"PS7/OP-035","program":"sota","name":"Serra Bom Princípio","coordinates":[-37.8972,-6.0224]},{"code":"PS7/OP-037","program":"sota","name":"Nogueira","coordinates":[-37.8455,-6.0959]},{"code":"PS7/OP-049","program":"sota","name":"PS7/OP-049","coordinates":[-37.973,-6.22]},{"code":"PS7/OP-057","program":"sota","name":"Serrote do Mineiro","coordinates":[-37.8303,-6.1157]},{"code":"PS7/OP-059","program":"sota","name":"Serra do Mulungu","coordinates":[-37.8285,-6.1821]},{"code":"PS7/OP-093","program":"sota","name":"Cabeço da Jurema","coordinates":[-37.8086,-6.0762]}]}