{"lat":-6.5,"lon":105.75,"programs":["pota","sota"],"count":5,"references":[{"code":"ID-0084","program":"pota","name":"Gunung Aseupan Regional Park","coordinates":[105.932,-6.29733]},{"code":"ID-0085","program":"pota","name":"Gunung Pulosari Regional Park","coordinates":[105.978,-6.34201]},{"code":"YBJ/BT-002","program":"sota","name":"Gunung Pulosari","coordinates":[105.9782,-6.3417]},{"code":"YBJ/BT-004","program":"sota","name":"Gunung Jeungjing","coordinates":[105.9448,-6.2879]},{"code":"YBJ/BT-005","program":"sota","name":"Gunung Aseupan","coordinates":[105.9297,-6.2959]}]}