{"lat":-6.5,"lon":-38,"programs":["sota"],"count":18,"references":[{"code":"PS7/OP-005","program":"sota","name":"Serra do Cajueiro","coordinates":[-37.8182,-6.2975]},{"code":"PS7/OP-007","program":"sota","name":"Serra Rajada","coordinates":[-37.8411,-6.32]},{"code":"PS7/OP-009","program":"sota","name":"Bica da Arara","coordinates":[-37.8736,-6.3255]},{"code":"PS7/OP-011","program":"sota","name":"Serra da Vassoura","coordinates":[-37.8886,-6.3642]},{"code":"PS7/OP-012","program":"sota","name":"Serra das Covas","coordinates":[-37.9134,-6.3761]},{"code":"PS7/OP-015","program":"sota","name":"Serra da Boa Vista","coordinates":[-37.8942,-6.2884]},{"code":"PS7/OP-020","program":"sota","name":"PS7/OP-020","coordinates":[-37.8626,-6.2649]},{"code":"PS7/OP-022","program":"sota","name":"Serra do Sobradinho","coordinates":[-37.9119,-6.3019]},{"code":"PS7/OP-023","program":"sota","name":"Serra Santana","coordinates":[-37.9105,-6.3903]},{"code":"PS7/OP-026","program":"sota","name":"PS7/OP-026","coordinates":[-37.9318,-6.3879]},{"code":"PS7/OP-029","program":"sota","name":"Serra do Mata Pasto","coordinates":[-37.9324,-6.3094]},{"code":"PS7/OP-030","program":"sota","name":"Serra da Prensa","coordinates":[-37.8887,-6.3826]},{"code":"PS7/OP-032","program":"sota","name":"PS7/OP-032","coordinates":[-37.9442,-6.3782]},{"code":"PS7/OP-041","program":"sota","name":"Serra Lagoa de Lajes","coordinates":[-37.9669,-6.39]},{"code":"PS7/OP-042","program":"sota","name":"Serra da Cafunga","coordinates":[-37.9241,-6.2799]},{"code":"PS7/OP-044","program":"sota","name":"Boqueirão","coordinates":[-37.9038,-6.3996]},{"code":"PS7/OP-046","program":"sota","name":"Serra Lagoa de Lajes","coordinates":[-37.9735,-6.3797]},{"code":"PS7/OP-053","program":"sota","name":"Serrote da Ilha","coordinates":[-37.9931,-6.4164]}]}