{"lat":-6.75,"lon":-39.75,"programs":["sota"],"count":9,"references":[{"code":"PT7/CS-009","program":"sota","name":"PT7/CS-009","coordinates":[-39.6019,-6.7114]},{"code":"PT7/CS-011","program":"sota","name":"Pedra da Lagoinha","coordinates":[-39.7248,-6.7038]},{"code":"PT7/CS-013","program":"sota","name":"Serra das Almas","coordinates":[-39.682,-6.6217]},{"code":"PT7/CS-017","program":"sota","name":"PT7/CS-017","coordinates":[-39.6458,-6.7125]},{"code":"PT7/CS-021","program":"sota","name":"Serra Vista Alegre","coordinates":[-39.5522,-6.5113]},{"code":"PT7/CS-023","program":"sota","name":"Morro do André","coordinates":[-39.5312,-6.5936]},{"code":"PT7/CS-028","program":"sota","name":"Morro Bangará","coordinates":[-39.5529,-6.6114]},{"code":"PT7/CS-031","program":"sota","name":"PT7/CS-031","coordinates":[-39.6908,-6.7494]},{"code":"PT7/CS-033","program":"sota","name":"PT7/CS-033","coordinates":[-39.5596,-6.6459]}]}