{"lat":-6.75,"lon":107.25,"programs":["sota"],"count":11,"references":[{"code":"YBJ/JB-129","program":"sota","name":"Gunung Bangkok","coordinates":[107.3381,-6.6017]},{"code":"YBJ/JB-135","program":"sota","name":"Gunung Parang","coordinates":[107.3457,-6.5947]},{"code":"YBJ/JB-151","program":"sota","name":"Gunung Anaga","coordinates":[107.3452,-6.61]},{"code":"YBJ/JB-177","program":"sota","name":"Gunung Lembu","coordinates":[107.3402,-6.5617]},{"code":"YBJ/JB-187","program":"sota","name":"Gunung Mandalawangi","coordinates":[107.2686,-6.675]},{"code":"YBJ/JB-189","program":"sota","name":"Pasir Solasih","coordinates":[107.3378,-6.5817]},{"code":"YBJ/JB-199","program":"sota","name":"Gunung Panawungan","coordinates":[107.2643,-6.6991]},{"code":"YBJ/JB-202","program":"sota","name":"Gunung Cilalawi","coordinates":[107.3836,-6.5631]},{"code":"YBJ/JB-203","program":"sota","name":"Gunung Haur","coordinates":[107.302,-6.5144]},{"code":"YBJ/JB-211","program":"sota","name":"Gunung Cengkik","coordinates":[107.2547,-6.5102]},{"code":"YBJ/JB-219","program":"sota","name":"YBJ/JB-219","coordinates":[107.3986,-6.5347]}]}