{"lat":-6.75,"lon":106.75,"programs":["pota","sota"],"count":7,"references":[{"code":"ID-0090","program":"pota","name":"Gunung Pancar Regional Park","coordinates":[106.912,-6.59218]},{"code":"YBJ/JB-032","program":"sota","name":"Geger Bentang","coordinates":[106.9863,-6.7344]},{"code":"YBJ/JB-053","program":"sota","name":"Gunung Kencana","coordinates":[106.9794,-6.6592]},{"code":"YBJ/JB-102","program":"sota","name":"Gunung Simeut","coordinates":[106.9914,-6.6043]},{"code":"YBJ/JB-149","program":"sota","name":"Gunung Pancar","coordinates":[106.9119,-6.5918]},{"code":"YBJ/JB-164","program":"sota","name":"Gunung Karang","coordinates":[106.9756,-6.5206]},{"code":"YBJ/JB-183","program":"sota","name":"Gunung Hambalang","coordinates":[106.8989,-6.5494]}]}