{"lat":-7,"lon":106.5,"programs":["pota","sota"],"count":12,"references":[{"code":"ID-0110","program":"pota","name":"Gunung Kendeng Regional Park","coordinates":[106.525,-6.76224]},{"code":"YBJ/JB-055","program":"sota","name":"Gunung Halimun","coordinates":[106.5553,-6.8303]},{"code":"YBJ/JB-056","program":"sota","name":"Gunung Kendeng","coordinates":[106.5264,-6.7679]},{"code":"YBJ/JB-067","program":"sota","name":"Gunung Talaga","coordinates":[106.5458,-6.8524]},{"code":"YBJ/JB-076","program":"sota","name":"YBJ/JB-076","coordinates":[106.5597,-6.8069]},{"code":"YBJ/JB-079","program":"sota","name":"Gunung Endut","coordinates":[106.6785,-6.7806]},{"code":"YBJ/JB-166","program":"sota","name":"Gunung Paok","coordinates":[106.5833,-6.9092]},{"code":"YBJ/JB-174","program":"sota","name":"Gunung Jayanti","coordinates":[106.5894,-6.9728]},{"code":"YBJ/JB-180","program":"sota","name":"Gunung Sura","coordinates":[106.5717,-6.9351]},{"code":"YBJ/JB-188","program":"sota","name":"Gunung Tangkubanperahu","coordinates":[106.5782,-6.9879]},{"code":"YBJ/JB-191","program":"sota","name":"Gunung Tumpeng","coordinates":[106.5357,-6.9341]},{"code":"YBJ/JB-200","program":"sota","name":"Gunung Jayanti Pelabuhanratu","coordinates":[106.5724,-6.9992]}]}