{"lat":-7,"lon":107.25,"programs":["sota"],"count":11,"references":[{"code":"YBJ/JB-095","program":"sota","name":"Gunung Gedugan","coordinates":[107.4751,-6.9795]},{"code":"YBJ/JB-101","program":"sota","name":"Gunung Palasari","coordinates":[107.3192,-6.9745]},{"code":"YBJ/JB-108","program":"sota","name":"Gunung Buleud","coordinates":[107.4981,-6.9775]},{"code":"YBJ/JB-114","program":"sota","name":"Gunung Gedongan","coordinates":[107.2644,-6.9316]},{"code":"YBJ/JB-115","program":"sota","name":"Gunung Masigit","coordinates":[107.3386,-6.9489]},{"code":"YBJ/JB-131","program":"sota","name":"Gunung Halimun","coordinates":[107.4397,-6.8464]},{"code":"YBJ/JB-132","program":"sota","name":"Pasir Kerud","coordinates":[107.4021,-6.8639]},{"code":"YBJ/JB-138","program":"sota","name":"Gunung Pancalikan","coordinates":[107.3705,-6.8994]},{"code":"YBJ/JB-165","program":"sota","name":"Gunung Guhawalet","coordinates":[107.3298,-6.8723]},{"code":"YBJ/JB-190","program":"sota","name":"Pasir Susuru","coordinates":[107.3619,-6.7961]},{"code":"YBJ/JB-193","program":"sota","name":"Gunung Ipis","coordinates":[107.3303,-6.7928]}]}