{"lat":-7.25,"lon":107.25,"programs":["pota","sota"],"count":17,"references":[{"code":"ID-0098","program":"pota","name":"Gunung Patuha Regional Park","coordinates":[107.4,-7.16181]},{"code":"YBJ/JB-009","program":"sota","name":"Gunung Patuha","coordinates":[107.4,-7.1626]},{"code":"YBJ/JB-011","program":"sota","name":"Gunung Patuha II","coordinates":[107.404,-7.1778]},{"code":"YBJ/JB-018","program":"sota","name":"Gunung Urug","coordinates":[107.4342,-7.1818]},{"code":"YBJ/JB-022","program":"sota","name":"Gunung Puncaklawang","coordinates":[107.4572,-7.1739]},{"code":"YBJ/JB-024","program":"sota","name":"Gunung Karangtengah","coordinates":[107.4974,-7.2035]},{"code":"YBJ/JB-027","program":"sota","name":"Gunung Masigit","coordinates":[107.3708,-7.1036]},{"code":"YBJ/JB-031","program":"sota","name":"Pasir Cadaspanjang","coordinates":[107.3798,-7.1257]},{"code":"YBJ/JB-034","program":"sota","name":"Gunung Tambakruyung","coordinates":[107.4087,-7.1013]},{"code":"YBJ/JB-040","program":"sota","name":"Pasir Eureun","coordinates":[107.3201,-7.1075]},{"code":"YBJ/JB-045","program":"sota","name":"Pasir Tikukur","coordinates":[107.296,-7.1295]},{"code":"YBJ/JB-052","program":"sota","name":"Gunung Kanti","coordinates":[107.3559,-7.2172]},{"code":"YBJ/JB-073","program":"sota","name":"Gunung Buleud","coordinates":[107.3971,-7.05]},{"code":"YBJ/JB-074","program":"sota","name":"Gunung Padang","coordinates":[107.433,-7.0487]},{"code":"YBJ/JB-105","program":"sota","name":"Gunung Kutamajangkar","coordinates":[107.4858,-7.0001]},{"code":"YBJ/JB-106","program":"sota","name":"Gunung Aul","coordinates":[107.4866,-7.0117]},{"code":"YBJ/JB-109","program":"sota","name":"Gunung Kaseproke","coordinates":[107.475,-7.0069]}]}