{"lat":-7.5,"lon":107.5,"programs":["sota"],"count":8,"references":[{"code":"YBJ/JB-006","program":"sota","name":"Gunung Malang","coordinates":[107.7158,-7.3289]},{"code":"YBJ/JB-008","program":"sota","name":"Gunung Puntang","coordinates":[107.7315,-7.2944]},{"code":"YBJ/JB-010","program":"sota","name":"Gunung Jaya","coordinates":[107.7392,-7.2721]},{"code":"YBJ/JB-019","program":"sota","name":"Gunung Kencana Pengalengan","coordinates":[107.6273,-7.2963]},{"code":"YBJ/JB-033","program":"sota","name":"Gunung Sodongabig","coordinates":[107.602,-7.2983]},{"code":"YBJ/JB-042","program":"sota","name":"Gunung Panengen","coordinates":[107.6476,-7.3312]},{"code":"YBJ/JB-098","program":"sota","name":"Gunung Sembung","coordinates":[107.6456,-7.4129]},{"code":"YBJ/JB-110","program":"sota","name":"Gunung Ragas","coordinates":[107.7314,-7.4755]}]}