{"lat":-7.75,"lon":109.5,"programs":["sota"],"count":7,"references":[{"code":"YBJ/JT-101","program":"sota","name":"Gunung Indrakila","coordinates":[109.749,-7.5831]},{"code":"YBJ/JT-110","program":"sota","name":"Gunung Kruwet","coordinates":[109.6235,-7.5896]},{"code":"YBJ/JT-112","program":"sota","name":"Igir Lempuyang","coordinates":[109.5217,-7.5125]},{"code":"YBJ/JT-116","program":"sota","name":"Gunung Silender","coordinates":[109.7448,-7.6381]},{"code":"YBJ/JT-117","program":"sota","name":"Igir Kunir","coordinates":[109.5883,-7.5421]},{"code":"YBJ/JT-129","program":"sota","name":"Gunung Pagergeong","coordinates":[109.6965,-7.6291]},{"code":"YBJ/JT-131","program":"sota","name":"Gunung Tutukan","coordinates":[109.5679,-7.5961]}]}