{"lat":-7.75,"lon":109.75,"programs":["sota"],"count":5,"references":[{"code":"YBJ/JT-053","program":"sota","name":"YBJ/JT-053","coordinates":[109.8688,-7.5127]},{"code":"YBJ/JT-069","program":"sota","name":"Gunung Pacet","coordinates":[109.8446,-7.5656]},{"code":"YBJ/JT-090","program":"sota","name":"Gunung Salialah","coordinates":[109.8625,-7.5828]},{"code":"YBJ/JT-094","program":"sota","name":"Bukit Siloreng Indah","coordinates":[109.78,-7.5125]},{"code":"YBJ/JT-096","program":"sota","name":"Gunung Sigendol","coordinates":[109.945,-7.585]}]}