{"lat":-8,"lon":112.25,"programs":["pota","sota"],"count":14,"references":[{"code":"ID-0069","program":"pota","name":"Gunung Kelud Regional Park","coordinates":[112.314,-7.93499]},{"code":"ID-0070","program":"pota","name":"Gunung Anjasmoro Regional Park","coordinates":[112.498,-7.7554]},{"code":"ID-0071","program":"pota","name":"Gunung Butak Regional Park","coordinates":[112.449,-7.92004]},{"code":"ID-0072","program":"pota","name":"Gunung Anjasmoro Regional Park","coordinates":[112.498,-7.7554]},{"code":"YBJ/JI-011","program":"sota","name":"Gunung Butak","coordinates":[112.4652,-7.9555]},{"code":"YBJ/JI-012","program":"sota","name":"Gunung Kawi","coordinates":[112.4524,-7.9187]},{"code":"YBJ/JI-027","program":"sota","name":"Gunung Anjasmoro 2","coordinates":[112.4793,-7.7674]},{"code":"YBJ/JI-035","program":"sota","name":"Gunung Argowayang","coordinates":[112.4302,-7.773]},{"code":"YBJ/JI-040","program":"sota","name":"Gunung Gentonggowok","coordinates":[112.4559,-7.7792]},{"code":"YBJ/JI-041","program":"sota","name":"Gunung Panderman","coordinates":[112.4969,-7.9043]},{"code":"YBJ/JI-047","program":"sota","name":"Gunung Kelud","coordinates":[112.3139,-7.9348]},{"code":"YBJ/JI-052","program":"sota","name":"Gunung Drowati","coordinates":[112.421,-7.8367]},{"code":"YBJ/JI-053","program":"sota","name":"Gunung Kambang","coordinates":[112.3066,-7.9292]},{"code":"YBJ/JI-068","program":"sota","name":"Gunung Selokodok","coordinates":[112.3525,-7.8339]}]}