{"lat":-8.5,"lon":115.25,"programs":["sota"],"count":5,"references":[{"code":"YBB/BA-001","program":"sota","name":"Gunung Agung","coordinates":[115.4984,-8.3403]},{"code":"YBB/BA-003","program":"sota","name":"Gunung Abang","coordinates":[115.4296,-8.2804]},{"code":"YBB/BA-011","program":"sota","name":"Gunung Jineng","coordinates":[115.4617,-8.3239]},{"code":"YBB/BA-027","program":"sota","name":"Bukit Dewaangga","coordinates":[115.467,-8.4667]},{"code":"YBB/BA-030","program":"sota","name":"Bukit Abah","coordinates":[115.4651,-8.4982]}]}