{"lat":-9.75,"lon":-37.75,"programs":["sota"],"count":6,"references":[{"code":"PP7/SA-035","program":"sota","name":"Serra do Pilão","coordinates":[-37.5253,-9.5522]},{"code":"PP7/SA-040","program":"sota","name":"Morro da Capela","coordinates":[-37.5464,-9.5469]},{"code":"PP7/SA-043","program":"sota","name":"Serra Formosinho","coordinates":[-37.7211,-9.5306]},{"code":"PP7/SA-048","program":"sota","name":"Serra do Caloeirão","coordinates":[-37.5042,-9.5864]},{"code":"PP7/SA-050","program":"sota","name":"Serra do Catu","coordinates":[-37.5717,-9.6469]},{"code":"PP7/SA-051","program":"sota","name":"PP7/SA-051","coordinates":[-37.6442,-9.5769]}]}