{"lat":-9.75,"lon":-36.75,"programs":["sota"],"count":6,"references":[{"code":"PP7/AA-010","program":"sota","name":"Coité das Pinhas","coordinates":[-36.6565,-9.5282]},{"code":"PP7/AA-013","program":"sota","name":"Serra Mubuca","coordinates":[-36.5831,-9.6119]},{"code":"PP7/AA-016","program":"sota","name":"Serra Mubuca","coordinates":[-36.5781,-9.595]},{"code":"PP7/AA-018","program":"sota","name":"Olho da Água","coordinates":[-36.5514,-9.66]},{"code":"PP7/AA-020","program":"sota","name":"Corcunda","coordinates":[-36.6717,-9.6722]},{"code":"PP7/AA-021","program":"sota","name":"Serra Barro Vermelho","coordinates":[-36.6019,-9.5297]}]}