{"lat":0,"lon":100.5,"programs":["sota"],"count":20,"references":[{"code":"YBS/RI-043","program":"sota","name":"Bukit Batuputih","coordinates":[100.6119,0.2454]},{"code":"YBS/RI-044","program":"sota","name":"Bukit Taman","coordinates":[100.6314,0.2183]},{"code":"YBS/SB-090","program":"sota","name":"YBS/SB-090","coordinates":[100.5281,0.0776]},{"code":"YBS/SB-126","program":"sota","name":"Bukit Batuitam","coordinates":[100.6078,0.0014]},{"code":"YBS/SB-192","program":"sota","name":"Bukit Gasan","coordinates":[100.5158,0.0843]},{"code":"YBS/SB-230","program":"sota","name":"YBS/SB-230","coordinates":[100.5262,0.0909]},{"code":"YBS/SB-231","program":"sota","name":"Bukit Kudung","coordinates":[100.5434,0.0409]},{"code":"YBS/SB-262","program":"sota","name":"Gunung Saranglayanglay","coordinates":[100.5703,0.0696]},{"code":"YBS/SB-272","program":"sota","name":"Bukit Labuhbanting","coordinates":[100.518,0.117]},{"code":"YBS/SB-315","program":"sota","name":"Bukit Baranak","coordinates":[100.54,0.0661]},{"code":"YBS/SB-339","program":"sota","name":"YBS/SB-339","coordinates":[100.7292,0.0211]},{"code":"YBS/SB-342","program":"sota","name":"Bukit Sapankijang","coordinates":[100.5292,0.1874]},{"code":"YBS/SB-360","program":"sota","name":"Bukit Ludai","coordinates":[100.7373,0.1448]},{"code":"YBS/SB-379","program":"sota","name":"Bukit Basar","coordinates":[100.6734,0.1891]},{"code":"YBS/SB-389","program":"sota","name":"Bukit Bakar","coordinates":[100.6918,0.1702]},{"code":"YBS/SB-403","program":"sota","name":"YBS/SB-403","coordinates":[100.5503,0.1808]},{"code":"YBS/SB-411","program":"sota","name":"Bukit Partumpangan","coordinates":[100.7483,0.12]},{"code":"YBS/SB-412","program":"sota","name":"Bukit Alanggadang","coordinates":[100.5527,0.1588]},{"code":"YBS/SB-437","program":"sota","name":"Bukit Kububalung","coordinates":[100.7228,0.1194]},{"code":"YBS/SB-449","program":"sota","name":"Bukit Patal","coordinates":[100.5012,0.2208]}]}