{"lat":10,"lon":-85.5,"programs":["pota","sota"],"count":22,"references":[{"code":"CR-0022","program":"pota","name":"Barra Honda National Park","coordinates":[-85.3705,10.1759]},{"code":"TI/GU-014","program":"sota","name":"Cerro Venados","coordinates":[-85.4026,10.0011]},{"code":"TI/GU-017","program":"sota","name":"Cerro Santa Elena","coordinates":[-85.4704,10.0047]},{"code":"TI/GU-023","program":"sota","name":"Cerro Santa Rita","coordinates":[-85.2922,10.0181]},{"code":"TI/GU-028","program":"sota","name":"Cerro Jesus 653","coordinates":[-85.3117,10.0912]},{"code":"TI/GU-030","program":"sota","name":"La Palma 600","coordinates":[-85.494,10.1445]},{"code":"TI/GU-034","program":"sota","name":"Fila Matambú","coordinates":[-85.4293,10.0803]},{"code":"TI/GU-035","program":"sota","name":"Cerro Corralillo (El Fierro) 575","coordinates":[-85.3546,10.1955]},{"code":"TI/GU-038","program":"sota","name":"Cerro Panes 555","coordinates":[-85.4826,10.1139]},{"code":"TI/GU-040","program":"sota","name":"Cerro San Vicente","coordinates":[-85.5,10.2335]},{"code":"TI/GU-047","program":"sota","name":"Cerro Cardones","coordinates":[-85.459,10.2051]},{"code":"TI/GU-051","program":"sota","name":"Cerro Caballito","coordinates":[-85.3523,10.221]},{"code":"TI/GU-052","program":"sota","name":"Cerro Ojochillal","coordinates":[-85.4806,10.0469]},{"code":"TI/GU-057","program":"sota","name":"Cerro Tierra Colorada","coordinates":[-85.4832,10.2202]},{"code":"TI/GU-061","program":"sota","name":"Cerro Copasl","coordinates":[-85.2866,10.1605]},{"code":"TI/GU-063","program":"sota","name":"Cerros Rejoya Oscura (Hisan) 401","coordinates":[-85.4059,10.1536]},{"code":"TI/GU-068","program":"sota","name":"Cerro China","coordinates":[-85.4756,10.2336]},{"code":"TI/GU-069","program":"sota","name":"Lomas Palos Negros","coordinates":[-85.4121,10.2214]},{"code":"TI/GU-070","program":"sota","name":"Cerro Obispo 383","coordinates":[-85.3819,10.1321]},{"code":"TI/GU-073","program":"sota","name":"Cerro Piedra 354","coordinates":[-85.316,10.2441]},{"code":"TI/GU-079","program":"sota","name":"Cerro Sonzapote","coordinates":[-85.2832,10.2122]},{"code":"TI/GU-097","program":"sota","name":"Cerro Panamá","coordinates":[-85.2505,10.1961]}]}