{"lat":10,"lon":-84.25,"programs":["pota","sota"],"count":14,"references":[{"code":"CR-0007","program":"pota","name":"Volcan Poas National Park","coordinates":[-84.2365,10.184]},{"code":"CR-0036","program":"pota","name":"Reserva Forestal Bosque del Niño State Reserve","coordinates":[-84.2472,10.1421]},{"code":"CR-0042","program":"pota","name":"Laguna de Fraijanes Area of Outstanding Natural Beauty","coordinates":[-84.1904,10.1239]},{"code":"CR-0026","program":"pota","name":"Bosque de la Hoja Recreation Park","coordinates":[-84.0948,10.0624]},{"code":"TI/AL-001","program":"sota","name":"TI/AL-001","coordinates":[-84.2238,10.1886]},{"code":"TI/AL-002","program":"sota","name":"TI/AL-002","coordinates":[-84.2269,10.2125]},{"code":"TI/HE-001","program":"sota","name":"Volcan Barva","coordinates":[-84.1009,10.1307]},{"code":"TI/HE-002","program":"sota","name":"Cerro Delicias","coordinates":[-84.0634,10.0815]},{"code":"TI/HE-003","program":"sota","name":"Cerro Turú","coordinates":[-84.0442,10.0635]},{"code":"TI/HE-004","program":"sota","name":"Cerro Cacho Negro","coordinates":[-84.0424,10.193]},{"code":"TI/HE-005","program":"sota","name":"Cerro Zurquí","coordinates":[-84.0282,10.0606]},{"code":"TI/HE-006","program":"sota","name":"Cerro Cacho Negro","coordinates":[-84.0513,10.1746]},{"code":"TI/HE-007","program":"sota","name":"Cerro Achiotillal","coordinates":[-84.0182,10.1229]},{"code":"TI/SJ-017","program":"sota","name":"Cerro Hondura","coordinates":[-84.0201,10.0672]}]}