{"lat":10,"lon":-84,"programs":["pota","sota"],"count":6,"references":[{"code":"CR-0001","program":"pota","name":"Volcan Turrialba National Park","coordinates":[-83.7595,10.0185]},{"code":"CR-0021","program":"pota","name":"Braulio Carrillo National Park","coordinates":[-83.9841,10.1042]},{"code":"TI/CA-003","program":"sota","name":"Volcán Turrialba","coordinates":[-83.7564,10.0194]},{"code":"TI/CA-005","program":"sota","name":"Cerro Alto Grande","coordinates":[-83.8316,10.0183]},{"code":"TI/SJ-013","program":"sota","name":"Cerro Nubes","coordinates":[-83.8943,10.0224]},{"code":"TI/SJ-024","program":"sota","name":"Cerros Tres Marias","coordinates":[-83.9986,10.0739]}]}