{"lat":10,"lon":-61.75,"programs":["pota"],"count":14,"references":[{"code":"TT-0062","program":"pota","name":"Godineau Swamp Reserve","coordinates":[-61.5159,10.2255]},{"code":"TT-0011","program":"pota","name":"La Fortunee Dam Historic Site","coordinates":[-61.6845,10.1629]},{"code":"TT-0010","program":"pota","name":"Pitch Lake Natural Area","coordinates":[-61.627,10.2357]},{"code":"TT-0013","program":"pota","name":"Charlie King Junction and Butler Memorial Statue Historic Site","coordinates":[-61.5455,10.1811]},{"code":"TT-0036","program":"pota","name":"Shore of Peace Cremation Historic Site","coordinates":[-61.5251,10.234]},{"code":"TT-0047","program":"pota","name":"Cap de Ville Forest Reserve","coordinates":[-61.6849,10.1349]},{"code":"TT-0048","program":"pota","name":"Erin Forest Reserve","coordinates":[-61.6141,10.119]},{"code":"TT-0056","program":"pota","name":"Morne l'Enfer Forest Reserve and Wildlife Sanctuary","coordinates":[-61.6056,10.1625]},{"code":"TT-0064","program":"pota","name":"Siparia Nature Reserve","coordinates":[-61.5053,10.1542]},{"code":"TT-0082","program":"pota","name":"Avocat Mud House National Heritage Site","coordinates":[-61.5254,10.187]},{"code":"TT-0093","program":"pota","name":"Quinam Beach Recreation Park","coordinates":[-61.5082,10.073]},{"code":"TT-0094","program":"pota","name":"Vessigny Beach Park","coordinates":[-61.632,10.2196]},{"code":"TT-0112","program":"pota","name":"Rubber Fields National Heritage Area","coordinates":[-61.6307,10.2161]},{"code":"TT-0140","program":"pota","name":"Wartime Tower Historic Site","coordinates":[-61.6234,10.2396]}]}