{"lat":10.5,"lon":-85,"programs":["pota","sota"],"count":5,"references":[{"code":"CR-0003","program":"pota","name":"Volcan Tenorio National Park","coordinates":[-84.97,10.6547]},{"code":"TI/AL-021","program":"sota","name":"Cerro Jilguero","coordinates":[-84.9759,10.6068]},{"code":"TI/AL-025","program":"sota","name":"Cerro Dormida","coordinates":[-84.9244,10.6085]},{"code":"TI/AL-026","program":"sota","name":"Cerro Chorros","coordinates":[-84.9955,10.7089]},{"code":"TI/AL-027","program":"sota","name":"Cerro Suampo","coordinates":[-84.7998,10.5011]}]}