{"lat":10.5,"lon":-61.5,"programs":["pota"],"count":16,"references":[{"code":"TT-0117","program":"pota","name":"Arima Dial National Heritage Site","coordinates":[-61.2817,10.6416]},{"code":"TT-0019","program":"pota","name":"Caroni Swamp/Bird Sanctuary Ramsar Site","coordinates":[-61.4553,10.5914]},{"code":"TT-0090","program":"pota","name":"Longdenville Nature Reserve","coordinates":[-61.3545,10.511]},{"code":"TT-0088","program":"pota","name":"Todd's Road North National Park","coordinates":[-61.3033,10.5051]},{"code":"TT-0089","program":"pota","name":"Mac Nair Ravine Nature Reserve","coordinates":[-61.3304,10.5195]},{"code":"TT-0045","program":"pota","name":"Fort Picton Historic Site","coordinates":[-61.4959,10.6527]},{"code":"TT-0098","program":"pota","name":"Maracas Waterfalls Natural Area","coordinates":[-61.4044,10.7292]},{"code":"TT-0116","program":"pota","name":"Laventile Water Trough Historic Site","coordinates":[-61.4948,10.6467]},{"code":"TT-0128","program":"pota","name":"Fort Chacon National Heritage Site","coordinates":[-61.4944,10.656]},{"code":"TT-0012","program":"pota","name":"Cleaver Woods Park","coordinates":[-61.2982,10.6318]},{"code":"TT-0079","program":"pota","name":"Arima Nature Reserve","coordinates":[-61.3076,10.673]},{"code":"TT-0080","program":"pota","name":"Tacarigua Reserve and National Park","coordinates":[-61.3476,10.679]},{"code":"TT-0091","program":"pota","name":"Mount St. Benedict Abbey Historic Site","coordinates":[-61.3964,10.6632]},{"code":"TT-0100","program":"pota","name":"Lopinot House National Heritage Site","coordinates":[-61.3241,10.6919]},{"code":"TT-0104","program":"pota","name":"Caurita Petroglyphs Historic Site","coordinates":[-61.3826,10.7169]},{"code":"TT-0125","program":"pota","name":"Caura Recreation Site","coordinates":[-61.3591,10.6904]}]}