{"lat":10.5,"lon":124.25,"programs":["pota"],"count":7,"references":[{"code":"PH-0138","program":"pota","name":"Lake Danao Park","coordinates":[124.335,10.6744]},{"code":"PH-0203","program":"pota","name":"San Francisco Town Plaza Park","coordinates":[124.382,10.6462]},{"code":"PH-0204","program":"pota","name":"Lake Danao Nature Park","coordinates":[124.335,10.6733]},{"code":"PH-0205","program":"pota","name":"San Francisco Camotes Baywalk Trail Park","coordinates":[124.383,10.6453]},{"code":"PH-0206","program":"pota","name":"Poro Seaview Park","coordinates":[124.41,10.6275]},{"code":"PH-0207","program":"pota","name":"Lawis Sancuatary Park","coordinates":[124.411,10.7037]},{"code":"PH-0208","program":"pota","name":"AltaVista Quarry View Park","coordinates":[124.432,10.6517]}]}