{"lat":10.75,"lon":-61.5,"programs":["pota"],"count":5,"references":[{"code":"TT-0081","program":"pota","name":"Las Cuevas Nature Reserve","coordinates":[-61.3801,10.7754]},{"code":"TT-0096","program":"pota","name":"Las Cuevas Beach Park","coordinates":[-61.4009,10.7781]},{"code":"TT-0069","program":"pota","name":"Blanchisseuse Nature Reserve","coordinates":[-61.2768,10.7641]},{"code":"TT-0084","program":"pota","name":"Yarra Nature Reserve","coordinates":[-61.3254,10.7587]},{"code":"TT-0097","program":"pota","name":"Maracas Beach Recreation Park","coordinates":[-61.4395,10.759]}]}