{"lat":10.75,"lon":-85.5,"programs":["pota","sota"],"count":7,"references":[{"code":"CR-0006","program":"pota","name":"Rincon de la Vieja National Park","coordinates":[-85.349,10.7731]},{"code":"TI/GU-002","program":"sota","name":"Volcan Santa Maria","coordinates":[-85.3192,10.8092]},{"code":"TI/GU-004","program":"sota","name":"Cerro Braun","coordinates":[-85.3518,10.8278]},{"code":"TI/GU-005","program":"sota","name":"Cerro Cacao","coordinates":[-85.4476,10.9329]},{"code":"TI/GU-006","program":"sota","name":"Volcan Orosi","coordinates":[-85.4715,10.9789]},{"code":"TI/GU-019","program":"sota","name":"Cerro Gongora","coordinates":[-85.413,10.7636]},{"code":"TI/GU-043","program":"sota","name":"Cerro San Roque","coordinates":[-85.4612,10.7721]}]}