{"lat":12,"lon":-68.5,"programs":["iota","pota"],"count":7,"references":[{"code":"SA-006","program":"iota","name":"BONAIRE ISLAND","coordinates":[-68.299999235,12.16499996]},{"code":"BQ-0001","program":"pota","name":"Tanki Maraka Heritage Park Historical Reserve","coordinates":[-68.2734,12.2134]},{"code":"BQ-0003","program":"pota","name":"White Slave Huts Historic Site","coordinates":[-68.2808,12.0579]},{"code":"BQ-0004","program":"pota","name":"Yellow Slave Huts Historic Site","coordinates":[-68.2513,12.0268]},{"code":"BQ-0005","program":"pota","name":"Cruz Seru Largu Historic Site","coordinates":[-68.2721,12.1937]},{"code":"BQ-0006","program":"pota","name":"Hell Trail State Trail","coordinates":[-68.2834,12.2126]},{"code":"BQ-0007","program":"pota","name":"Wayaka Trail State Trail","coordinates":[-68.31,12.2126]}]}