{"lat":12.25,"lon":123.25,"programs":["sota"],"count":14,"references":[{"code":"DU4/MA-001","program":"sota","name":"Conical Peak","coordinates":[123.481,12.3909]},{"code":"DU4/MA-005","program":"sota","name":"Mount Nabongsuran","coordinates":[123.3734,12.3795]},{"code":"DU4/MA-010","program":"sota","name":"Mount Villon","coordinates":[123.416,12.4388]},{"code":"DU4/MA-015","program":"sota","name":"DU4/MA-015","coordinates":[123.4259,12.4626]},{"code":"DU4/MA-020","program":"sota","name":"DU4/MA-020","coordinates":[123.4425,12.3335]},{"code":"DU4/MA-021","program":"sota","name":"DU4/MA-021","coordinates":[123.432,12.3179]},{"code":"DU4/MA-024","program":"sota","name":"DU4/MA-024","coordinates":[123.3344,12.3374]},{"code":"DU4/MA-025","program":"sota","name":"Biluang Hill","coordinates":[123.4162,12.3024]},{"code":"DU4/MA-026","program":"sota","name":"Mount Cogran","coordinates":[123.4171,12.4056]},{"code":"DU4/MA-027","program":"sota","name":"Mount Masapinit","coordinates":[123.3579,12.3841]},{"code":"DU4/MA-028","program":"sota","name":"Mount Canatonatoan","coordinates":[123.3981,12.4821]},{"code":"DU4/MA-030","program":"sota","name":"DU4/MA-030","coordinates":[123.3052,12.2756]},{"code":"DU4/MA-032","program":"sota","name":"DU4/MA-032","coordinates":[123.3968,12.497]},{"code":"DU4/MA-039","program":"sota","name":"DU4/MA-039","coordinates":[123.3826,12.4163]}]}