{"lat":12.5,"lon":102,"programs":["pota"],"count":6,"references":[{"code":"TH-0091","program":"pota","name":"Namtok Phlio National Park","coordinates":[102.184,12.5296]},{"code":"TH-0446","program":"pota","name":"Somdet Phra Chao Taksin Maharat Park","coordinates":[102.106,12.6058]},{"code":"TH-0447","program":"pota","name":"Chaloem Phra Kiat Rama 9 Chanthaburi Park","coordinates":[102.086,12.5928]},{"code":"TH-0631","program":"pota","name":"Tha Chalop Public Park Park","coordinates":[102.059,12.5349]},{"code":"TH-0633","program":"pota","name":"Chalermprakiat Park, Tha Chang Municipality Prefectural Park","coordinates":[102.089,12.6369]},{"code":"TH-0634","program":"pota","name":"Chalermprakiat Park in Honor of His Majesty the King's 80th Birthday Anniversary Prefectural Park","coordinates":[102.015,12.6167]}]}