{"lat":12.75,"lon":-86,"programs":["pota"],"count":5,"references":[{"code":"NI-0023","program":"pota","name":"Cerro Apante Nature Reserve","coordinates":[-85.899,12.8972]},{"code":"NI-0024","program":"pota","name":"Cerro Arenal Nature Reserve","coordinates":[-85.9099,12.9111]},{"code":"NI-0034","program":"pota","name":"Salto del Río Yasica Nature Reserve","coordinates":[-85.8292,12.9918]},{"code":"NI-0039","program":"pota","name":"Cerro Arenal Nature Refuge","coordinates":[-85.9162,12.9164]},{"code":"NI-0040","program":"pota","name":"Cerro Apante National Reserve","coordinates":[-85.8984,12.8972]}]}