{"lat":13,"lon":-59.5,"programs":["pota"],"count":7,"references":[{"code":"BB-0029","program":"pota","name":"Bath Beach Park","coordinates":[-59.4766,13.1869]},{"code":"BB-0010","program":"pota","name":"Three Houses National Park","coordinates":[-59.4607,13.158]},{"code":"BB-0011","program":"pota","name":"King George V National Park","coordinates":[-59.4542,13.1323]},{"code":"BB-0023","program":"pota","name":"Oldbury National Forest","coordinates":[-59.4754,13.0879]},{"code":"BB-0025","program":"pota","name":"Culpepper Island Coastal Park","coordinates":[-59.4434,13.1658]},{"code":"BB-0040","program":"pota","name":"St. Martins Terrace Recreation Park","coordinates":[-59.4671,13.0957]},{"code":"BB-0045","program":"pota","name":"Foul Bay Coastal Park","coordinates":[-59.4506,13.1012]}]}