{"lat":13,"lon":-61.25,"programs":["iota","pota","sota"],"count":11,"references":[{"code":"NA-109","program":"iota","name":"ST VINCENT","coordinates":[-61.19499969,13.244999885]},{"code":"VC-0017","program":"pota","name":"Bequia Marine Conservation Area","coordinates":[-61.219,13.0224]},{"code":"VC-0034","program":"pota","name":"Vermont Nature Trail Flora and Fauna Reserve","coordinates":[-61.2158,13.2139]},{"code":"VC-0004","program":"pota","name":"Kings Hill Forest Reserve","coordinates":[-61.1647,13.1446]},{"code":"VC-0015","program":"pota","name":"Milligan Cay Wildlife Reserve","coordinates":[-61.1647,13.1256]},{"code":"VC-0027","program":"pota","name":"Botanical Garden Wildlife Reserve","coordinates":[-61.2277,13.1652]},{"code":"VC-0033","program":"pota","name":"Brighton Salt Pond Recreation Site","coordinates":[-61.1774,13.1259]},{"code":"J8/VC-003","program":"sota","name":"J8/VC-003","coordinates":[-61.190067,13.248905]},{"code":"J8/VC-004","program":"sota","name":"Grand Bonhomme","coordinates":[-61.1967,13.2169]},{"code":"J8/VC-007","program":"sota","name":"J8/VC-007","coordinates":[-61.2297,13.2222]},{"code":"J8/VC-009","program":"sota","name":"Holler Peak","coordinates":[-61.22,13.035]}]}