{"lat":13.25,"lon":-87.25,"programs":["sota"],"count":14,"references":[{"code":"HR/CH-018","program":"sota","name":"Cerro El Matastro","coordinates":[-87.2193,13.4994]},{"code":"HR/CH-026","program":"sota","name":"Cerro Guajiniquil","coordinates":[-87.0172,13.2733]},{"code":"HR/CH-027","program":"sota","name":"Cerro El Farayo 2","coordinates":[-87.1471,13.4556]},{"code":"HR/CH-030","program":"sota","name":"Cerro Verde","coordinates":[-87.2259,13.4569]},{"code":"HR/CH-031","program":"sota","name":"Cerro El Ojuste","coordinates":[-87.013,13.4495]},{"code":"HR/CH-033","program":"sota","name":"Cerro Las Arquillas","coordinates":[-87.0288,13.4377]},{"code":"HR/CH-035","program":"sota","name":"Cerro Caleros 2","coordinates":[-87.1147,13.2664]},{"code":"HR/CH-036","program":"sota","name":"Cerro Calaire","coordinates":[-87.0449,13.3136]},{"code":"HR/CH-038","program":"sota","name":"Cerro Guayle","coordinates":[-87.2034,13.4284]},{"code":"HR/CH-041","program":"sota","name":"Cerro Grande o Perdido","coordinates":[-87.0573,13.422]},{"code":"HR/CH-043","program":"sota","name":"Carp Mata de Platano","coordinates":[-87.0782,13.4177]},{"code":"HR/CH-046","program":"sota","name":"Cerro Quebrada de las Pilas","coordinates":[-87.1571,13.4084]},{"code":"HR/CH-049","program":"sota","name":"Cerro El Zorzal 2","coordinates":[-87.2171,13.3984]},{"code":"HR/CH-054","program":"sota","name":"Cerro Guacaire","coordinates":[-87.2219,13.3832]}]}