{"lat":13.25,"lon":-87.5,"programs":["sota"],"count":13,"references":[{"code":"HR/CH-040","program":"sota","name":"Cerro Las Cañas","coordinates":[-87.2567,13.4428]},{"code":"HR/CH-044","program":"sota","name":"Cerro Morroso 2","coordinates":[-87.2661,13.4007]},{"code":"HR/CH-047","program":"sota","name":"Cerro Saracuco","coordinates":[-87.3127,13.4364]},{"code":"HR/CH-053","program":"sota","name":"Cerro San Jose","coordinates":[-87.3819,13.3061]},{"code":"HR/CH-056","program":"sota","name":"Cerro Las Lajas","coordinates":[-87.3495,13.3523]},{"code":"HR/CH-057","program":"sota","name":"Cerro Santa Elena","coordinates":[-87.2718,13.3369]},{"code":"HR/CH-059","program":"sota","name":"Cerro Quiquiste","coordinates":[-87.2887,13.344]},{"code":"HR/CH-061","program":"sota","name":"Cerro Los Lirios","coordinates":[-87.4095,13.2863]},{"code":"HR/CH-062","program":"sota","name":"Cerro Santa Elena","coordinates":[-87.2694,13.3267]},{"code":"HR/CH-063","program":"sota","name":"Cerro El Porton","coordinates":[-87.3667,13.3039]},{"code":"HR/VL-008","program":"sota","name":"Cerro Guanacustal","coordinates":[-87.3937,13.4905]},{"code":"HR/VL-010","program":"sota","name":"Cerro El Alto de Estiquirín","coordinates":[-87.477,13.4979]},{"code":"HR/VL-020","program":"sota","name":"Cerro El Comercio","coordinates":[-87.474,13.4798]}]}