{"lat":13.25,"lon":-81.5,"programs":["iota","pota"],"count":5,"references":[{"code":"NA-049","program":"iota","name":"PROVIDENCIA ISLAND","coordinates":[-81.375,13.349999905]},{"code":"CO-0026","program":"pota","name":"Old Providence McBean Lagoon National Natural Park Marine National Park","coordinates":[-81.3571,13.3634]},{"code":"CO-0160","program":"pota","name":"Old Providence Mc Bean Lagoon National Nature Reserve","coordinates":[-81.3342,13.3724]},{"code":"CO-0234","program":"pota","name":"The Peak State Natural Reserve","coordinates":[-81.3722,13.3484]},{"code":"CO-0489","program":"pota","name":"Seaflower Marine Protected Area","coordinates":[-81.3112,13.3191]}]}