{"lat":13.25,"lon":-87.75,"programs":["pota","sota"],"count":5,"references":[{"code":"HN-0023","program":"pota","name":"Marino Golfo de Fonseca National Park","coordinates":[-87.632,13.282]},{"code":"HR/VL-001","program":"sota","name":"Cerro del Tigre","coordinates":[-87.6394,13.272]},{"code":"HR/VL-003","program":"sota","name":"Cerro Zacate","coordinates":[-87.6281,13.3375]},{"code":"HR/VL-023","program":"sota","name":"Cerro Exposición","coordinates":[-87.6719,13.3192]},{"code":"HR/VL-024","program":"sota","name":"Cerro Garrobo","coordinates":[-87.7144,13.3297]}]}