{"lat":13.25,"lon":100.75,"programs":["pota"],"count":11,"references":[{"code":"TH-0464","program":"pota","name":"Nature Study and Mangrove Conservation Center for Ecotourism Ecological Reserve","coordinates":[100.943,13.3422]},{"code":"TH-0491","program":"pota","name":"Queen Sirikit's 60th  Anniversary 🌲 Park","coordinates":[100.948,13.3431]},{"code":"TH-0492","program":"pota","name":"Chalermprakiat Park in Celebration of His Majesty the King's 80th Birthday Anniversary Park","coordinates":[100.979,13.3639]},{"code":"TH-0806","program":"pota","name":"Bangsaen Lang Beach Public Park","coordinates":[100.923,13.2701]},{"code":"TH-0809","program":"pota","name":"Chon Buri City Exercise Park","coordinates":[100.979,13.365]},{"code":"TH-0813","program":"pota","name":"Bang Sai Public Park","coordinates":[100.985,13.3844]},{"code":"TH-0814","program":"pota","name":"Suan Luang Chonburi Park","coordinates":[100.957,13.3378]},{"code":"TH-0816","program":"pota","name":"Chaloem Phrakiat Rama 9 Park","coordinates":[100.984,13.3626]},{"code":"TH-0818","program":"pota","name":"garden in the middle of the house Park","coordinates":[100.945,13.3321]},{"code":"TH-0819","program":"pota","name":"City People Park, Chonburi Provincial Park","coordinates":[100.948,13.3315]},{"code":"TH-0820","program":"pota","name":"Public park, Samet Subdistrict Municipality Park","coordinates":[100.942,13.3283]}]}