{"lat":13.5,"lon":100.25,"programs":["pota"],"count":10,"references":[{"code":"TH-0163","program":"pota","name":"Thonburirom Park","coordinates":[100.491,13.652]},{"code":"TH-0166","program":"pota","name":"Thawiwanarom Park","coordinates":[100.352,13.7439]},{"code":"TH-0174","program":"pota","name":"Saranrom Park","coordinates":[100.495,13.7479]},{"code":"TH-0184","program":"pota","name":"Sirinthara Phrueksaphan Park","coordinates":[100.466,13.7465]},{"code":"TH-0403","program":"pota","name":"Thian Thale Phatthana Phrueksa Phirom Park","coordinates":[100.437,13.6204]},{"code":"TH-0405","program":"pota","name":"Bang Khae Phirom Park","coordinates":[100.385,13.6859]},{"code":"TH-0407","program":"pota","name":"Kanlapaphruek Park","coordinates":[100.408,13.6838]},{"code":"TH-0408","program":"pota","name":"Chalerm Prakiat Bang Bon Park","coordinates":[100.391,13.6485]},{"code":"TH-0410","program":"pota","name":"Phet Kanchanarom Park","coordinates":[100.406,13.7122]},{"code":"TH-0454","program":"pota","name":"60th Anniversary Maharaj Municipal Park","coordinates":[100.274,13.5453]}]}