{"lat":13.5,"lon":99.75,"programs":["pota"],"count":7,"references":[{"code":"TH-0376","program":"pota","name":"Khao Ngu Stone Park","coordinates":[99.7755,13.5689]},{"code":"TH-0377","program":"pota","name":"Chaloem Phrakiat 60th Anniversary Celebrations Park","coordinates":[99.8254,13.5383]},{"code":"TH-0387","program":"pota","name":"Chakri Monument Park","coordinates":[99.7901,13.5215]},{"code":"TH-0388","program":"pota","name":"Chalerm Phra Kiat Lak Mueang Municipality Public Park","coordinates":[99.8232,13.5607]},{"code":"TH-0871","program":"pota","name":"Tham Khang Khao-Khao Chong Phran Non-hunting Area Park","coordinates":[99.7731,13.7188]},{"code":"TH-0872","program":"pota","name":"Muang Photharam Municipal Public Park","coordinates":[99.8453,13.692]},{"code":"TH-0875","program":"pota","name":"Nong Klang Taeng Health Park","coordinates":[99.8648,13.6839]}]}