{"lat":13.75,"lon":-88.5,"programs":["sota"],"count":12,"references":[{"code":"HR/IN-022","program":"sota","name":"Cerro del Nance","coordinates":[-88.2608,13.9854]},{"code":"HR/IN-023","program":"sota","name":"Cerro Madgalena","coordinates":[-88.3775,13.9726]},{"code":"HR/IN-024","program":"sota","name":"Cerro Quetera","coordinates":[-88.3202,13.979]},{"code":"HR/IN-025","program":"sota","name":"Cerro La Magdalena","coordinates":[-88.4017,13.9681]},{"code":"HR/IN-026","program":"sota","name":"Cerro Santa Lucía","coordinates":[-88.418,13.9261]},{"code":"HR/IN-028","program":"sota","name":"Cerro Tabaco","coordinates":[-88.4404,13.9619]},{"code":"HR/IN-029","program":"sota","name":"Cerro Frontera","coordinates":[-88.3369,13.9004]},{"code":"HR/IN-030","program":"sota","name":"Cerro Colomoncagua","coordinates":[-88.3566,13.93]},{"code":"HR/IN-031","program":"sota","name":"Cerro de Lo Alto","coordinates":[-88.4304,13.8922]},{"code":"HR/IN-032","program":"sota","name":"Cerro de Punta","coordinates":[-88.3637,13.896]},{"code":"HR/IN-033","program":"sota","name":"Cerro Lucía","coordinates":[-88.4528,13.8837]},{"code":"HR/LM-056","program":"sota","name":"Cerro El Jicayar","coordinates":[-88.4573,13.9967]}]}