{"lat":13.75,"lon":-86.5,"programs":["pota","sota"],"count":15,"references":[{"code":"NI-0059","program":"pota","name":"Serranía Dipilto – Jalapa Nature Reserve","coordinates":[-86.3332,13.7685]},{"code":"HR/EP-001","program":"sota","name":"Cerro Mogoton","coordinates":[-86.3989,13.7633]},{"code":"HR/EP-018","program":"sota","name":"Cerro Guambuco","coordinates":[-86.3009,13.8523]},{"code":"HR/EP-029","program":"sota","name":"Cerro Pico de Montaña","coordinates":[-86.277,13.9238]},{"code":"HR/EP-039","program":"sota","name":"Cerro del Pacayal","coordinates":[-86.2748,13.904]},{"code":"HR/EP-045","program":"sota","name":"Cerro de La Roca","coordinates":[-86.4279,13.8332]},{"code":"HR/EP-047","program":"sota","name":"Cerro Pachoncito","coordinates":[-86.3401,13.8705]},{"code":"HR/EP-063","program":"sota","name":"Cerro El Naranjo","coordinates":[-86.287,13.9466]},{"code":"HR/EP-066","program":"sota","name":"Cerro Santa Ana","coordinates":[-86.4733,13.9668]},{"code":"HR/EP-067","program":"sota","name":"Cerro Palo Verde","coordinates":[-86.4947,13.8251]},{"code":"HR/EP-071","program":"sota","name":"Cerro Achiotes","coordinates":[-86.4164,13.8766]},{"code":"HR/EP-080","program":"sota","name":"Cerro del Potrero","coordinates":[-86.2656,13.9912]},{"code":"HR/EP-083","program":"sota","name":"Cerro El Tizate","coordinates":[-86.2943,13.9854]},{"code":"HR/EP-101","program":"sota","name":"Montaña de La Mora","coordinates":[-86.3622,13.9992]},{"code":"HR/EP-102","program":"sota","name":"Cerro Cruzado","coordinates":[-86.3701,13.9414]}]}