{"lat":13.75,"lon":100.25,"programs":["pota"],"count":8,"references":[{"code":"TH-0175","program":"pota","name":"His Majesty King Bhumibol Adulyadej's 80th Birthday Anniversary Park","coordinates":[100.468,13.7719]},{"code":"TH-0177","program":"pota","name":"Rama VIII Park","coordinates":[100.495,13.7694]},{"code":"TH-0182","program":"pota","name":"Santichaiprakarn Park","coordinates":[100.495,13.7635]},{"code":"TH-0183","program":"pota","name":"Charanphirom Park","coordinates":[100.491,13.7749]},{"code":"TH-0401","program":"pota","name":"Princess Mother Memorial Park (Phutthamonthon Sai 2) Park","coordinates":[100.391,13.7843]},{"code":"TH-0432","program":"pota","name":"Phutthamonthon Sai 2 Interchange Park","coordinates":[100.396,13.7527]},{"code":"TH-0344","program":"pota","name":"Phutthamonthon Park","coordinates":[100.324,13.7822]},{"code":"TH-0359","program":"pota","name":"Chaloem Kanchanaphisek Regional Park","coordinates":[100.481,13.8497]}]}