{"lat":13.75,"lon":-87.25,"programs":["sota"],"count":9,"references":[{"code":"HR/EP-011","program":"sota","name":"Cerro Las Mesas","coordinates":[-87.0101,13.7902]},{"code":"HR/FM-009","program":"sota","name":"Cerro La Mole","coordinates":[-87.1311,13.907]},{"code":"HR/FM-011","program":"sota","name":"Cerro Monte Crudo","coordinates":[-87.1028,13.9619]},{"code":"HR/FM-027","program":"sota","name":"Cerro Antenas","coordinates":[-87.2479,13.9461]},{"code":"HR/FM-050","program":"sota","name":"Cerro El Montañés","coordinates":[-87.1871,13.8702]},{"code":"HR/FM-054","program":"sota","name":"Cerro San José","coordinates":[-87.0306,13.9266]},{"code":"HR/FM-061","program":"sota","name":"Cerro Minita","coordinates":[-87.2042,13.8131]},{"code":"HR/FM-088","program":"sota","name":"Cerro El Peñascoso","coordinates":[-87.0923,13.8562]},{"code":"HR/FM-093","program":"sota","name":"Cerro Capire 2","coordinates":[-87.1843,13.7503]}]}