{"lat":13.75,"lon":-86,"programs":["sota"],"count":10,"references":[{"code":"HR/EP-085","program":"sota","name":"Cerro Sombra Verde","coordinates":[-85.8961,13.9438]},{"code":"HR/EP-086","program":"sota","name":"Cerro Iluminado","coordinates":[-85.8271,13.9694]},{"code":"HR/EP-088","program":"sota","name":"Cerro Perdido","coordinates":[-85.9109,13.9827]},{"code":"HR/EP-092","program":"sota","name":"Cerro Vecino","coordinates":[-85.7977,13.8739]},{"code":"HR/EP-095","program":"sota","name":"Cerro Caulote","coordinates":[-85.8147,13.9944]},{"code":"HR/EP-098","program":"sota","name":"Cerro Cocotes","coordinates":[-85.7699,13.9547]},{"code":"HR/EP-099","program":"sota","name":"Cerro Chatos","coordinates":[-85.8627,13.9705]},{"code":"HR/EP-105","program":"sota","name":"Cerro Norte","coordinates":[-85.7753,13.9174]},{"code":"HR/EP-108","program":"sota","name":"Cerro Suerte","coordinates":[-85.807,13.896]},{"code":"HR/EP-110","program":"sota","name":"Cerro Aguas","coordinates":[-85.7883,13.9828]}]}