{"lat":14,"lon":-88.75,"programs":["pota","sota"],"count":7,"references":[{"code":"HN-0058","program":"pota","name":"Parque Nacional Congolón, Coyocutena y Piedra Parada National Park","coordinates":[-88.5522,14.1877]},{"code":"HR/LM-008","program":"sota","name":"Cerro Congolón","coordinates":[-88.5524,14.1868]},{"code":"HR/LM-029","program":"sota","name":"Cerro Yuquinal","coordinates":[-88.6622,14.2249]},{"code":"HR/LM-032","program":"sota","name":"Cerro Chancoyote","coordinates":[-88.7383,14.1542]},{"code":"HR/LM-047","program":"sota","name":"Cerro San Lorenzo","coordinates":[-88.7,14.1537]},{"code":"HR/LM-050","program":"sota","name":"Cerro Valladolid","coordinates":[-88.7311,14.1023]},{"code":"HR/LM-051","program":"sota","name":"Cerro Mapulaca","coordinates":[-88.5905,14.1073]}]}