{"lat":14,"lon":-88.5,"programs":["sota"],"count":15,"references":[{"code":"HR/IN-011","program":"sota","name":"Cerro Augueto","coordinates":[-88.2656,14.1753]},{"code":"HR/IN-019","program":"sota","name":"Cerro Azacualpita","coordinates":[-88.3483,14.214]},{"code":"HR/IN-027","program":"sota","name":"Cerro El Portillón","coordinates":[-88.4182,14.0097]},{"code":"HR/LM-011","program":"sota","name":"Cerro La Laguna","coordinates":[-88.4946,14.2253]},{"code":"HR/LM-019","program":"sota","name":"Cerro Chilera","coordinates":[-88.4941,14.127]},{"code":"HR/LM-027","program":"sota","name":"Cerro Tanguay","coordinates":[-88.3431,14.1935]},{"code":"HR/LM-033","program":"sota","name":"Cerro Zumbante","coordinates":[-88.3684,14.1637]},{"code":"HR/LM-034","program":"sota","name":"Cerro Coyoculena","coordinates":[-88.4309,14.1799]},{"code":"HR/LM-035","program":"sota","name":"Cerro Las Flores","coordinates":[-88.3448,14.1551]},{"code":"HR/LM-036","program":"sota","name":"Cerro La Haciendita","coordinates":[-88.4741,14.0555]},{"code":"HR/LM-039","program":"sota","name":"Cerro Maiquira","coordinates":[-88.3603,14.1861]},{"code":"HR/LM-049","program":"sota","name":"Cerro Gelpoa","coordinates":[-88.3905,14.1087]},{"code":"HR/LM-052","program":"sota","name":"Cerro El Ojo de Agua","coordinates":[-88.394,14.1388]},{"code":"HR/LM-053","program":"sota","name":"Cerro El Volcán","coordinates":[-88.4298,14.0553]},{"code":"HR/LM-055","program":"sota","name":"Cerro Los Cerritos","coordinates":[-88.3393,14.0905]}]}