{"lat":14.25,"lon":-87,"programs":["sota"],"count":8,"references":[{"code":"HR/EP-026","program":"sota","name":"Cerro La Lagunita","coordinates":[-86.7769,14.2748]},{"code":"HR/FM-004","program":"sota","name":"Cerro Pico de Navaja","coordinates":[-86.8449,14.3026]},{"code":"HR/FM-013","program":"sota","name":"Cerro Los Copetes","coordinates":[-86.8837,14.3012]},{"code":"HR/FM-058","program":"sota","name":"Cerro del Cenicero","coordinates":[-86.9312,14.3525]},{"code":"HR/FM-064","program":"sota","name":"Cerro Grande 3","coordinates":[-86.9479,14.3575]},{"code":"HR/FM-066","program":"sota","name":"Cerro Picacho","coordinates":[-86.9899,14.3272]},{"code":"HR/FM-092","program":"sota","name":"Cerro del Empedrado","coordinates":[-86.895,14.4457]},{"code":"HR/FM-095","program":"sota","name":"Cerro de La Cruz","coordinates":[-86.8632,14.4567]}]}