{"lat":14.25,"lon":-88.75,"programs":["sota"],"count":9,"references":[{"code":"HR/LM-013","program":"sota","name":"Cerro Camapara","coordinates":[-88.5339,14.3882]},{"code":"HR/LM-016","program":"sota","name":"Cerro de La Mol","coordinates":[-88.717,14.3484]},{"code":"HR/LM-017","program":"sota","name":"Cerro San Pedro","coordinates":[-88.5385,14.3551]},{"code":"HR/LM-018","program":"sota","name":"Cerro de Quesuco","coordinates":[-88.6672,14.404]},{"code":"HR/LM-020","program":"sota","name":"Cerro San Francisco","coordinates":[-88.5355,14.3281]},{"code":"HR/LM-021","program":"sota","name":"Cerro Caraquín","coordinates":[-88.6584,14.3662]},{"code":"HR/LM-037","program":"sota","name":"Cerro Candelaria","coordinates":[-88.605,14.3421]},{"code":"HR/LM-041","program":"sota","name":"Cerro Zopilote","coordinates":[-88.6338,14.3116]},{"code":"HR/LM-046","program":"sota","name":"Cerro Los Higos","coordinates":[-88.6606,14.3036]}]}