{"lat":14.25,"lon":-88.5,"programs":["pota","sota"],"count":8,"references":[{"code":"HN-0052","program":"pota","name":"Biological Reserve Opalaca Biological Reserve","coordinates":[-88.3034,14.4876]},{"code":"HR/IN-005","program":"sota","name":"Cerro Grande","coordinates":[-88.3755,14.4366]},{"code":"HR/IN-007","program":"sota","name":"Cerro de Pacaya","coordinates":[-88.2987,14.4258]},{"code":"HR/IN-014","program":"sota","name":"Cerro Taucerique","coordinates":[-88.3634,14.295]},{"code":"HR/IN-016","program":"sota","name":"Cerro El Cerrón","coordinates":[-88.3495,14.2507]},{"code":"HR/IN-017","program":"sota","name":"Cerro San José","coordinates":[-88.2619,14.4796]},{"code":"HR/LM-005","program":"sota","name":"Cerro Agua Negra","coordinates":[-88.3758,14.4784]},{"code":"HR/LM-012","program":"sota","name":"Cerro Jocón","coordinates":[-88.4956,14.3135]}]}