{"lat":14.5,"lon":121,"programs":["pota","sota"],"count":28,"references":[{"code":"PH-0030","program":"pota","name":"Arboretum Park","coordinates":[121.051,14.6605]},{"code":"PH-0101","program":"pota","name":"La Mesa Ecopark National Park","coordinates":[121.075,14.712]},{"code":"PH-0131","program":"pota","name":"La Mesa Nature Reserve","coordinates":[121.081,14.7429]},{"code":"PH-0145","program":"pota","name":"Payatas Bike Park","coordinates":[121.103,14.7193]},{"code":"PH-0116","program":"pota","name":"Quezon Memorial Circle National Park","coordinates":[121.049,14.6516]},{"code":"PH-0122","program":"pota","name":"Ninoy Aquino Parks and Wildlife Center National Park","coordinates":[121.044,14.6508]},{"code":"PH-0147","program":"pota","name":"UP Lagoon Park","coordinates":[121.067,14.6551]},{"code":"PH-0157","program":"pota","name":"Pugad Lawin Shrine Park","coordinates":[121.017,14.6646]},{"code":"PH-0236","program":"pota","name":"UP Science Park","coordinates":[121.07,14.6493]},{"code":"PH-0240","program":"pota","name":"Tandang Sora Shrine National Monument","coordinates":[121.045,14.683]},{"code":"PH-0032","program":"pota","name":"UP Sunken Garden Park","coordinates":[121.072,14.6552]},{"code":"PH-0093","program":"pota","name":"Marikina River Park National Park","coordinates":[121.093,14.6329]},{"code":"PH-0118","program":"pota","name":"Hinulugang Taktak National Park","coordinates":[121.168,14.5946]},{"code":"PH-0149","program":"pota","name":"Poblacion Park","coordinates":[121.033,14.5676]},{"code":"PH-0150","program":"pota","name":"Buendia Freedom Park","coordinates":[121.015,14.5616]},{"code":"PH-0151","program":"pota","name":"Pinagkaisahan Underpass Park","coordinates":[121.039,14.5576]},{"code":"PH-0152","program":"pota","name":"EDSA-Buendia Park","coordinates":[121.035,14.5555]},{"code":"PH-0227","program":"pota","name":"Hardin ng Bayan Park","coordinates":[121.115,14.6509]},{"code":"PH-0241","program":"pota","name":"Sumulong Park","coordinates":[121.176,14.5874]},{"code":"PH-0258","program":"pota","name":"Angono Lakeside Ecological Park","coordinates":[121.143,14.519]},{"code":"PH-0262","program":"pota","name":"Maybunga Rainforest Park","coordinates":[121.098,14.5754]},{"code":"DUC/RI-018","program":"sota","name":"Mount Purro","coordinates":[121.2352,14.6992]},{"code":"DUC/RI-020","program":"sota","name":"Mount Hapunang Banoy","coordinates":[121.1924,14.7411]},{"code":"DUC/RI-021","program":"sota","name":"Mount Parawagan","coordinates":[121.171,14.7275]},{"code":"DUC/RI-022","program":"sota","name":"Mount Baytangan","coordinates":[121.2127,14.67]},{"code":"DUC/RI-025","program":"sota","name":"DUC/RI-025","coordinates":[121.2369,14.7183]},{"code":"DUC/RI-026","program":"sota","name":"DUC/RI-026","coordinates":[121.2052,14.62]},{"code":"DUC/RI-028","program":"sota","name":"DUC/RI-028","coordinates":[121.2144,14.5783]}]}