{"lat":14.5,"lon":-89.25,"programs":["sota"],"count":7,"references":[{"code":"HR/CP-005","program":"sota","name":"Montaña del Socorro","coordinates":[-89.0295,14.7184]},{"code":"HR/CP-013","program":"sota","name":"Cerro El Tambor","coordinates":[-89.1064,14.74]},{"code":"HR/OC-010","program":"sota","name":"Cerro de Las Flores","coordinates":[-89.0303,14.636]},{"code":"HR/OC-011","program":"sota","name":"Cerro San Jerónimo","coordinates":[-89.1198,14.5801]},{"code":"HR/OC-012","program":"sota","name":"Cerro Marín","coordinates":[-89.1571,14.5749]},{"code":"HR/OC-015","program":"sota","name":"Cerro Obscuro","coordinates":[-89.2095,14.582]},{"code":"HR/OC-016","program":"sota","name":"Cerro El Cerrón","coordinates":[-89.197,14.536]}]}