{"lat":14.5,"lon":-61.25,"programs":["pota","sota"],"count":9,"references":[{"code":"MQ-0001","program":"pota","name":"Parc naturel régional de la Martinique Regional Park","coordinates":[-61.0667,14.6167]},{"code":"MQ-0028","program":"pota","name":"Martinique Biological Reserve","coordinates":[-61.036,14.669]},{"code":"MQ-0029","program":"pota","name":"Martinique 2 Biological Reserve","coordinates":[-61.036,14.669]},{"code":"FM/FM-002","program":"sota","name":"Piton Lacroix","coordinates":[-61.1134,14.6986]},{"code":"FM/FM-003","program":"sota","name":"Piton Dumauzé","coordinates":[-61.1035,14.695]},{"code":"FM/FM-004","program":"sota","name":"Piton Gelé","coordinates":[-61.1055,14.735]},{"code":"FM/FM-008","program":"sota","name":"Morne Bigot","coordinates":[-61.0691,14.5153]},{"code":"FM/FM-009","program":"sota","name":"Morne Gardier","coordinates":[-61.0275,14.5068]},{"code":"FM/FM-014","program":"sota","name":"Morne Réduit (Est)","coordinates":[-61.0822,14.515]}]}