{"lat":14.75,"lon":-88,"programs":["pota","sota"],"count":15,"references":[{"code":"HN-0003","program":"pota","name":"Cerro Azul Meambar National Park","coordinates":[-87.9048,14.873]},{"code":"HR/CM-005","program":"sota","name":"Cerro Azul Meambar","coordinates":[-87.8855,14.8138]},{"code":"HR/CM-008","program":"sota","name":"Cerro Meambar","coordinates":[-87.8766,14.8299]},{"code":"HR/CM-013","program":"sota","name":"Cerro Laguna Seca","coordinates":[-87.8963,14.7834]},{"code":"HR/CM-015","program":"sota","name":"Cerro Los Aguacateles","coordinates":[-87.8524,14.8279]},{"code":"HR/CM-018","program":"sota","name":"Cerro Rio Varsoula","coordinates":[-87.9086,14.8134]},{"code":"HR/CM-021","program":"sota","name":"Cerro Canchilla","coordinates":[-87.8694,14.8518]},{"code":"HR/CM-032","program":"sota","name":"Cerro Platano","coordinates":[-87.8482,14.8467]},{"code":"HR/CM-033","program":"sota","name":"Cerro El Palmichal","coordinates":[-87.8461,14.8605]},{"code":"HR/CM-050","program":"sota","name":"Cerro La Crucita","coordinates":[-87.7962,14.7838]},{"code":"HR/CM-060","program":"sota","name":"Cerro de Leon","coordinates":[-87.7523,14.7912]},{"code":"HR/CR-008","program":"sota","name":"Cerro Babilonia","coordinates":[-87.9785,14.9787]},{"code":"HR/CR-012","program":"sota","name":"Cerro La Joya","coordinates":[-87.9566,14.9289]},{"code":"HR/CR-013","program":"sota","name":"Cerro El Pozo","coordinates":[-87.8213,14.9403]},{"code":"HR/CR-016","program":"sota","name":"Cerro Toloa","coordinates":[-87.8558,14.9282]}]}