{"lat":14.75,"lon":120.25,"programs":["pota","sota"],"count":13,"references":[{"code":"PH-0096","program":"pota","name":"Subic Watershed Forest Reserve Forest Reserve","coordinates":[120.289,14.781]},{"code":"DU3/BA-010","program":"sota","name":"Mount Santa Rita","coordinates":[120.3635,14.8217]},{"code":"DU3/ZA-017","program":"sota","name":"DU3/ZA-017","coordinates":[120.3779,14.9872]},{"code":"DU3/ZA-018","program":"sota","name":"DU3/ZA-018","coordinates":[120.371,14.9792]},{"code":"DU3/ZA-022","program":"sota","name":"Mount Balakibak","coordinates":[120.3277,14.93]},{"code":"DU3/ZA-023","program":"sota","name":"DU3/ZA-023","coordinates":[120.3744,14.9375]},{"code":"DU3/ZA-024","program":"sota","name":"Mount Zamatam","coordinates":[120.3702,14.9175]},{"code":"DU3/ZA-026","program":"sota","name":"Mount Mabulinoc","coordinates":[120.2844,14.9508]},{"code":"DU3/ZA-028","program":"sota","name":"DU3/ZA-028","coordinates":[120.3586,14.9586]},{"code":"DU3/ZA-037","program":"sota","name":"Mount Susongdalaga","coordinates":[120.3502,14.8775]},{"code":"DU3/ZA-050","program":"sota","name":"Mount Malasimbo","coordinates":[120.4208,14.8859]},{"code":"DU3/ZA-053","program":"sota","name":"DU3/ZA-053","coordinates":[120.2503,14.9256]},{"code":"DU3/ZA-057","program":"sota","name":"Mount Booitlau","coordinates":[120.2575,14.875]}]}