{"lat":14.75,"lon":-87.25,"programs":["sota"],"count":16,"references":[{"code":"HR/FM-001","program":"sota","name":"Cerro de La Florida","coordinates":[-87.0749,14.9618]},{"code":"HR/FM-008","program":"sota","name":"Cerro de La Resbalosa","coordinates":[-87.1147,14.9559]},{"code":"HR/FM-014","program":"sota","name":"Cerro Punta de Oro","coordinates":[-87.1435,14.9878]},{"code":"HR/FM-018","program":"sota","name":"Cerro El Mogotón","coordinates":[-87.0165,14.8889]},{"code":"HR/FM-023","program":"sota","name":"Cerro Guamil de La Rosa","coordinates":[-87.1122,14.9189]},{"code":"HR/FM-025","program":"sota","name":"Cerro El Zapote","coordinates":[-87.0053,14.8541]},{"code":"HR/FM-029","program":"sota","name":"Cerro La Ciénaga","coordinates":[-87.0697,14.8556]},{"code":"HR/FM-031","program":"sota","name":"Cerro Portillo de Terrero","coordinates":[-87.0937,14.9027]},{"code":"HR/FM-035","program":"sota","name":"Cerro Azul","coordinates":[-87.1705,14.9414]},{"code":"HR/FM-047","program":"sota","name":"Cerro Pacaya","coordinates":[-87.1907,14.8043]},{"code":"HR/FM-062","program":"sota","name":"Cerro Santo Tomás de Siales","coordinates":[-87.0369,14.8233]},{"code":"HR/FM-087","program":"sota","name":"Cerro El Quebrachal","coordinates":[-87.0118,14.7669]},{"code":"HR/FM-099","program":"sota","name":"Cerro El Caliche","coordinates":[-87.189,14.8822]},{"code":"HR/FM-100","program":"sota","name":"Cerro El Ocote","coordinates":[-87.1779,14.8681]},{"code":"HR/YO-051","program":"sota","name":"Cerro Azul","coordinates":[-87.2272,14.9764]},{"code":"HR/YO-068","program":"sota","name":"Cerro del Chagüitillo","coordinates":[-87.2175,14.9633]}]}