{"lat":15,"lon":-87.5,"programs":["sota"],"count":10,"references":[{"code":"HR/YO-007","program":"sota","name":"Cerro Macuzal","coordinates":[-87.3368,15.0715]},{"code":"HR/YO-011","program":"sota","name":"Cerro San Antonio","coordinates":[-87.4459,15.1266]},{"code":"HR/YO-012","program":"sota","name":"Cerro Agua Sucia","coordinates":[-87.4313,15.0725]},{"code":"HR/YO-018","program":"sota","name":"Cerro de Agua Sucia","coordinates":[-87.4603,15.1019]},{"code":"HR/YO-022","program":"sota","name":"Cerro La Peña","coordinates":[-87.39,15.013]},{"code":"HR/YO-031","program":"sota","name":"Cerro El Frontón","coordinates":[-87.4124,15.206]},{"code":"HR/YO-049","program":"sota","name":"Cerro El Pastoreo","coordinates":[-87.2998,15.1099]},{"code":"HR/YO-066","program":"sota","name":"Cerro Palos Blancos","coordinates":[-87.4523,15.2239]},{"code":"HR/YO-072","program":"sota","name":"Cerro Grande","coordinates":[-87.2763,15.0531]},{"code":"HR/YO-080","program":"sota","name":"Cerro Portillo del Chilar","coordinates":[-87.2716,15.086]}]}