{"lat":15,"lon":121,"programs":["pota","sota"],"count":10,"references":[{"code":"PH-0011","program":"pota","name":"Biak-na-Bato National Park","coordinates":[121.085,15.1189]},{"code":"DU3/BU-009","program":"sota","name":"Mount Silad","coordinates":[121.1537,15.0952]},{"code":"DU3/BU-012","program":"sota","name":"DU3/BU-012","coordinates":[121.2487,15.0846]},{"code":"DU3/BU-013","program":"sota","name":"Mount Sumacbao","coordinates":[121.1778,15.1939]},{"code":"DU3/BU-015","program":"sota","name":"DU3/BU-015","coordinates":[121.1926,15.1264]},{"code":"DU3/BU-018","program":"sota","name":"Mount Tabernaculo","coordinates":[121.1783,15.0083]},{"code":"DU3/BU-021","program":"sota","name":"Mount Lumot","coordinates":[121.1069,15.0633]},{"code":"DU3/BU-025","program":"sota","name":"Mount Susungdalaga","coordinates":[121.0913,15.1299]},{"code":"DU3/BU-026","program":"sota","name":"Mount Silid","coordinates":[121.0933,15.1138]},{"code":"DU3/NE-025","program":"sota","name":"DU3/NE-025","coordinates":[121.2422,15.2441]}]}