{"lat":15,"lon":145.5,"programs":["pota","sota"],"count":5,"references":[{"code":"MP-0001","program":"pota","name":"American Memorial National Park","coordinates":[145.717,15.2184]},{"code":"MP-0002","program":"pota","name":"Marpi Point & Landing Beaches National Historic Site","coordinates":[145.71,15.18]},{"code":"MP-0003","program":"pota","name":"Managaha Marine National Park","coordinates":[145.712,15.241]},{"code":"MP-0014","program":"pota","name":"North Field National Historic Site","coordinates":[145.637,15.073]},{"code":"KH0/SA-001","program":"sota","name":"Okso' Takpochao","coordinates":[145.7434,15.1868]}]}