{"lat":15,"lon":-88.5,"programs":["sota"],"count":8,"references":[{"code":"HR/SB-006","program":"sota","name":"Cerro Chimizates","coordinates":[-88.3493,15.1607]},{"code":"HR/SB-007","program":"sota","name":"Cerro de La Peña","coordinates":[-88.3122,15.1268]},{"code":"HR/SB-020","program":"sota","name":"Cerro Picacho de Agua Buena","coordinates":[-88.363,15.0757]},{"code":"HR/SB-041","program":"sota","name":"Cerro El Caracol","coordinates":[-88.3217,15.2114]},{"code":"HR/SB-049","program":"sota","name":"Cerro Zapotalito","coordinates":[-88.4422,15.1884]},{"code":"HR/SB-051","program":"sota","name":"Cerro La Pimienta","coordinates":[-88.4394,15.173]},{"code":"HR/SB-057","program":"sota","name":"Cerro de Miquiaderos","coordinates":[-88.4213,15.2056]},{"code":"HR/SB-060","program":"sota","name":"Cerro El Casposo","coordinates":[-88.3766,15.0257]}]}