{"lat":15,"lon":-85,"programs":["sota"],"count":11,"references":[{"code":"HR/GD-012","program":"sota","name":"Cerro Wimpi","coordinates":[-84.8608,15.013]},{"code":"HR/GD-017","program":"sota","name":"Cerro Último Rincón","coordinates":[-84.769,15.0467]},{"code":"HR/GD-023","program":"sota","name":"Cerro de Warunta","coordinates":[-84.8384,15.0047]},{"code":"HR/GD-030","program":"sota","name":"Cerro Nacimiento","coordinates":[-84.9853,15.2445]},{"code":"HR/GD-033","program":"sota","name":"Cerro Extremo","coordinates":[-84.833,15.0179]},{"code":"HR/GD-035","program":"sota","name":"Cerro Rocalloso","coordinates":[-84.832,15.2067]},{"code":"HR/GD-046","program":"sota","name":"Cerro del Tapawas","coordinates":[-84.8997,15.1385]},{"code":"HR/GD-052","program":"sota","name":"Cerro Pimienta","coordinates":[-84.8396,15.1623]},{"code":"HR/GD-054","program":"sota","name":"Cerro Canela","coordinates":[-84.7644,15.1162]},{"code":"HR/GD-057","program":"sota","name":"Cerro Kraulara","coordinates":[-84.907,15.0335]},{"code":"HR/GD-058","program":"sota","name":"Cerro de Pimienta","coordinates":[-84.8154,15.084]}]}