{"lat":15.25,"lon":-85,"programs":["sota"],"count":11,"references":[{"code":"HR/GD-018","program":"sota","name":"Cerro El Principio","coordinates":[-84.9914,15.2604]},{"code":"HR/GD-021","program":"sota","name":"Cerro Pico de Pájaro","coordinates":[-84.9417,15.3137]},{"code":"HR/GD-022","program":"sota","name":"Cerro Morito","coordinates":[-84.9685,15.417]},{"code":"HR/GD-025","program":"sota","name":"Cerro Solo","coordinates":[-84.8587,15.2691]},{"code":"HR/GD-028","program":"sota","name":"Cerro Arriba","coordinates":[-84.9627,15.2727]},{"code":"HR/GD-031","program":"sota","name":"Cerro Pomokir","coordinates":[-84.9678,15.4823]},{"code":"HR/GD-032","program":"sota","name":"Cerro Payahailuir","coordinates":[-84.9175,15.4667]},{"code":"HR/GD-034","program":"sota","name":"Cerro Vertiente","coordinates":[-84.9182,15.4393]},{"code":"HR/GD-036","program":"sota","name":"Cerro de Todos los Ríos","coordinates":[-84.8109,15.4095]},{"code":"HR/GD-044","program":"sota","name":"Cerro Elevado","coordinates":[-84.793,15.4912]},{"code":"HR/GD-049","program":"sota","name":"Cerro Quebrado","coordinates":[-84.7759,15.4611]}]}