{"lat":15.25,"lon":-87.5,"programs":["pota","sota"],"count":17,"references":[{"code":"HN-0041","program":"pota","name":"Texiguat National Wildlife Refuge","coordinates":[-87.2738,15.4629]},{"code":"HR/AT-004","program":"sota","name":"Cerro Texiguat 2","coordinates":[-87.2974,15.4567]},{"code":"HR/AT-008","program":"sota","name":"Cerro Texiguat 3","coordinates":[-87.3608,15.4683]},{"code":"HR/YO-019","program":"sota","name":"Cerro Paragües","coordinates":[-87.3703,15.3558]},{"code":"HR/YO-032","program":"sota","name":"Cerro La Joya","coordinates":[-87.4823,15.4663]},{"code":"HR/YO-035","program":"sota","name":"Cerro El Ayudante","coordinates":[-87.3714,15.2908]},{"code":"HR/YO-037","program":"sota","name":"Cerro La Madera","coordinates":[-87.2599,15.3371]},{"code":"HR/YO-044","program":"sota","name":"Cerro El Sauce","coordinates":[-87.3555,15.2656]},{"code":"HR/YO-046","program":"sota","name":"Cerro Los Guineos","coordinates":[-87.3478,15.2581]},{"code":"HR/YO-052","program":"sota","name":"Cerro Caja de Moneda","coordinates":[-87.3097,15.3284]},{"code":"HR/YO-057","program":"sota","name":"Cerro de Tierra Blanca","coordinates":[-87.297,15.2531]},{"code":"HR/YO-059","program":"sota","name":"Cerro La Patricia","coordinates":[-87.4669,15.3167]},{"code":"HR/YO-062","program":"sota","name":"Cerro La Pita","coordinates":[-87.3138,15.3037]},{"code":"HR/YO-064","program":"sota","name":"Cerro El Convento","coordinates":[-87.3385,15.2805]},{"code":"HR/YO-067","program":"sota","name":"Cerro El Plan Grande","coordinates":[-87.4838,15.2506]},{"code":"HR/YO-082","program":"sota","name":"Cerro Cuchilla Lambe Mano","coordinates":[-87.2997,15.2778]},{"code":"HR/YO-086","program":"sota","name":"Cerro La Zuncuya","coordinates":[-87.2962,15.2938]}]}