{"lat":15.25,"lon":-88.25,"programs":["sota"],"count":8,"references":[{"code":"HR/CR-017","program":"sota","name":"Cerro del Robledal","coordinates":[-88.1005,15.2951]},{"code":"HR/CR-020","program":"sota","name":"Cerro El Sauce","coordinates":[-88.024,15.3605]},{"code":"HR/CR-025","program":"sota","name":"Cerro Monte Alegre","coordinates":[-88.0468,15.2983]},{"code":"HR/CR-027","program":"sota","name":"Cerro La Zorra","coordinates":[-88.0805,15.3652]},{"code":"HR/CR-028","program":"sota","name":"Cerro Agua Dulce","coordinates":[-88.0848,15.3309]},{"code":"HR/CR-029","program":"sota","name":"Cerro Pilas del Sauce","coordinates":[-88.021,15.3303]},{"code":"HR/CR-039","program":"sota","name":"Cerro Chamelecón","coordinates":[-88.035,15.4129]},{"code":"HR/SB-078","program":"sota","name":"Cerro Miravalles","coordinates":[-88.1364,15.3243]}]}