{"lat":15.5,"lon":-87.75,"programs":["sota"],"count":7,"references":[{"code":"HR/AT-016","program":"sota","name":"Cerro Buena Vista","coordinates":[-87.5766,15.5731]},{"code":"HR/AT-018","program":"sota","name":"Montaña el Tiburón","coordinates":[-87.5661,15.6104]},{"code":"HR/AT-022","program":"sota","name":"Montaña El Tiburón 2","coordinates":[-87.5161,15.6395]},{"code":"HR/AT-037","program":"sota","name":"Cerro La Esperanza de Santiago","coordinates":[-87.5214,15.6968]},{"code":"HR/AT-039","program":"sota","name":"Cerro Las Hicoteas","coordinates":[-87.6403,15.6684]},{"code":"HR/AT-041","program":"sota","name":"Montaña Villa Franca","coordinates":[-87.6651,15.6931]},{"code":"HR/AT-045","program":"sota","name":"Cerro El Naranjo","coordinates":[-87.6511,15.5876]}]}