{"lat":15.5,"lon":-88,"programs":["sota"],"count":5,"references":[{"code":"HR/CR-035","program":"sota","name":"Cerro La Gloria","coordinates":[-87.995,15.6092]},{"code":"HR/CR-037","program":"sota","name":"Cerro Las Flores","coordinates":[-87.955,15.7413]},{"code":"HR/CR-042","program":"sota","name":"Cerro Tres Palos","coordinates":[-87.9504,15.5184]},{"code":"HR/CR-045","program":"sota","name":"Cerro Campiza","coordinates":[-87.9859,15.5367]},{"code":"HR/CR-046","program":"sota","name":"Cerro El Naranjo","coordinates":[-87.9162,15.5554]}]}