{"lat":15.5,"lon":-87.5,"programs":["sota"],"count":9,"references":[{"code":"HR/AT-021","program":"sota","name":"Cerro Sorocón","coordinates":[-87.2544,15.5632]},{"code":"HR/AT-025","program":"sota","name":"Cerro Peña Blanca","coordinates":[-87.4819,15.6903]},{"code":"HR/AT-030","program":"sota","name":"Cerro El Ocotal 2","coordinates":[-87.3839,15.6657]},{"code":"HR/AT-031","program":"sota","name":"Cerro Pico de Botella","coordinates":[-87.374,15.7051]},{"code":"HR/AT-033","program":"sota","name":"Cerro San Antonio de Las Quebradas","coordinates":[-87.4483,15.691]},{"code":"HR/AT-035","program":"sota","name":"Cerro Pilares","coordinates":[-87.4981,15.5889]},{"code":"HR/AT-036","program":"sota","name":"Cerro Buena Vista","coordinates":[-87.2558,15.7086]},{"code":"HR/AT-042","program":"sota","name":"Cerro El Guayabo","coordinates":[-87.4659,15.5562]},{"code":"HR/AT-043","program":"sota","name":"Cerro La Leona","coordinates":[-87.3656,15.7487]}]}