{"lat":15.75,"lon":121,"programs":["sota"],"count":9,"references":[{"code":"DU2/NV-005","program":"sota","name":"Mount Dalimonoc","coordinates":[121.2427,15.975]},{"code":"DU2/NV-007","program":"sota","name":"Mount Susongdalaga","coordinates":[121.2294,15.9533]},{"code":"DU2/NV-009","program":"sota","name":"DU2/NV-009","coordinates":[121.2227,15.9766]},{"code":"DU2/NV-040","program":"sota","name":"DU2/NV-040","coordinates":[121.2435,15.9358]},{"code":"DU2/NV-041","program":"sota","name":"DU2/NV-041","coordinates":[121.2135,15.9358]},{"code":"DU3/NE-012","program":"sota","name":"Mount Olong Amo","coordinates":[121.1569,15.9608]},{"code":"DU3/NE-019","program":"sota","name":"Mount Maloyon","coordinates":[121.066,15.8741]},{"code":"DU3/NE-024","program":"sota","name":"Mount Balukbok","coordinates":[121.0669,15.835]},{"code":"DU3/NE-026","program":"sota","name":"Mount Pinaglorihan","coordinates":[121.0935,15.9833]}]}