{"lat":17,"lon":-88.75,"programs":["pota"],"count":5,"references":[{"code":"BZ-0070","program":"pota","name":"Runaway Creek Bird Sanctuary","coordinates":[-88.6516,17.2041]},{"code":"BZ-0002","program":"pota","name":"Five Blues Lakes National Park","coordinates":[-88.5805,17.138]},{"code":"BZ-0004","program":"pota","name":"Blue Hole National Park","coordinates":[-88.6745,17.1534]},{"code":"BZ-0066","program":"pota","name":"Nohoch Chen Archeological Reserve","coordinates":[-88.6506,17.2083]},{"code":"BZ-0014","program":"pota","name":"Billy Barquedier Nature Park","coordinates":[-88.637,17.092]}]}