{"lat":17.25,"lon":102.75,"programs":["pota"],"count":8,"references":[{"code":"TH-0362","program":"pota","name":"Nong Prajak Park","coordinates":[102.78,17.4203]},{"code":"TH-0364","program":"pota","name":"Wang Matcha Nong Bua Park","coordinates":[102.809,17.4017]},{"code":"TH-0365","program":"pota","name":"Nong SIM Public Recreation Site","coordinates":[102.805,17.4195]},{"code":"TH-0416","program":"pota","name":"Thung Sri Muang Park","coordinates":[102.786,17.4102]},{"code":"TH-0418","program":"pota","name":"Nonsung-Namkham Town Municipality Public Park","coordinates":[102.874,17.275]},{"code":"TH-0458","program":"pota","name":"Nong Takai Reservoir Water Management Area","coordinates":[102.84,17.3862]},{"code":"TH-0585","program":"pota","name":"Nong Dae Public Park Prefectural Park","coordinates":[102.798,17.464]},{"code":"TH-0587","program":"pota","name":"Ban Chan Reservoir Water Management Area Water Management Area","coordinates":[102.795,17.351]}]}