{"lat":18,"lon":-66.25,"programs":["pota","sota"],"count":20,"references":[{"code":"PR-0018","program":"pota","name":"Bosque Estatal de Carite State Forest","coordinates":[-66.0357,18.091]},{"code":"PR-0063","program":"pota","name":"Yeyesa Planadas Nature Reserve","coordinates":[-66.2199,18.0795]},{"code":"PR-0078","program":"pota","name":"Las Piedras del Collado Nature Reserve","coordinates":[-66.2302,18.093]},{"code":"PR-0085","program":"pota","name":"Sistema de Cuevas y Cavernas de Aguas Buenas Nature Reserve","coordinates":[-66.1133,18.2243]},{"code":"KP4/CC-012","program":"sota","name":"Aibonito South","coordinates":[-66.2328,18.0959]},{"code":"KP4/CC-015","program":"sota","name":"Cerro Viento Caliente","coordinates":[-66.211,18.1744]},{"code":"KP4/CC-016","program":"sota","name":"Cerro la Tiza","coordinates":[-66.1843,18.2413]},{"code":"KP4/CC-020","program":"sota","name":"S058","coordinates":[-66.1755,18.2148]},{"code":"KP4/CC-021","program":"sota","name":"Cerro de los Cielos","coordinates":[-66.2253,18.0547]},{"code":"KP4/CC-035","program":"sota","name":"Cerro Plana","coordinates":[-66.21,18.1533]},{"code":"KP4/CC-042","program":"sota","name":"KP4/CC-042","coordinates":[-66.0488,18.2467]},{"code":"KP4/CE-004","program":"sota","name":"Cerro La Santa South","coordinates":[-66.049,18.1079]},{"code":"KP4/CE-005","program":"sota","name":"Cerro de la Tabla","coordinates":[-66.125,18.0516]},{"code":"KP4/CE-006","program":"sota","name":"S063","coordinates":[-66.1503,18.0421]},{"code":"KP4/CE-007","program":"sota","name":"Cerro Tumbado","coordinates":[-66.0951,18.0219]},{"code":"KP4/CE-008","program":"sota","name":"Cerro Las Piñas","coordinates":[-66.0804,18.1524]},{"code":"KP4/CE-009","program":"sota","name":"Cerro Yaurel","coordinates":[-66.0529,18.0381]},{"code":"KP4/CE-022","program":"sota","name":"Cerro Avispa","coordinates":[-66.1915,18.0789]},{"code":"KP4/CE-026","program":"sota","name":"KP4/CE-026","coordinates":[-66.1818,18.0348]},{"code":"KP4/CE-029","program":"sota","name":"Cerro Boca del Infierno","coordinates":[-66.0519,18.0057]}]}