{"lat":18,"lon":-66,"programs":["pota","sota"],"count":9,"references":[{"code":"PR-0009","program":"pota","name":"Centro Vacacional Punta Santiago State Park","coordinates":[-65.7538,18.1613]},{"code":"PR-0051","program":"pota","name":"Reserva Natural de Humacao Nature Reserve","coordinates":[-65.7723,18.1506]},{"code":"KP4/CE-010","program":"sota","name":"Yabucoa Mtn","coordinates":[-65.869,18.028]},{"code":"KP4/CE-011","program":"sota","name":"Cerro La Pandura","coordinates":[-65.8999,18.0323]},{"code":"KP4/CE-012","program":"sota","name":"S044","coordinates":[-65.9414,18.041]},{"code":"KP4/CE-015","program":"sota","name":"Las Piedras","coordinates":[-65.8382,18.1912]},{"code":"KP4/CE-016","program":"sota","name":"Gurabo South","coordinates":[-65.9745,18.2282]},{"code":"KP4/CE-024","program":"sota","name":"Cerro La Torrecilla","coordinates":[-65.9854,18.0449]},{"code":"KP4/CE-027","program":"sota","name":"Cerro Viviana","coordinates":[-65.928,18.1471]}]}