{"lat":18.25,"lon":120.75,"programs":["sota"],"count":12,"references":[{"code":"DU2/AP-014","program":"sota","name":"DU2/AP-014","coordinates":[120.9989,18.4237]},{"code":"DU2/IN-001","program":"sota","name":"Mount Nagdubaduban","coordinates":[120.9231,18.258]},{"code":"DU2/IN-003","program":"sota","name":"Mount Mukmukoroya","coordinates":[120.9358,18.2766]},{"code":"DU2/IN-009","program":"sota","name":"Mount Linao","coordinates":[120.9127,18.3535]},{"code":"DU2/IN-010","program":"sota","name":"Mount Pao","coordinates":[120.8749,18.413]},{"code":"DU2/IN-015","program":"sota","name":"DU2/IN-015","coordinates":[120.8495,18.36]},{"code":"DU2/IN-016","program":"sota","name":"DU2/IN-016","coordinates":[120.8599,18.4328]},{"code":"DU2/IN-019","program":"sota","name":"Mount Quebrada","coordinates":[120.8074,18.4863]},{"code":"DU2/IN-028","program":"sota","name":"Mount Masadsadoc","coordinates":[120.766,18.2741]},{"code":"DU2/IN-030","program":"sota","name":"DU2/IN-030","coordinates":[120.7708,18.3234]},{"code":"DU2/IN-040","program":"sota","name":"DU2/IN-040","coordinates":[120.7614,18.4198]},{"code":"DU2/IN-046","program":"sota","name":"DU2/IN-046","coordinates":[120.7547,18.3732]}]}