{"lat":18.25,"lon":-70.5,"programs":["pota","sota"],"count":21,"references":[{"code":"DO-0005","program":"pota","name":"Loma Barbacoa Scientific Reserve","coordinates":[-70.3386,18.453]},{"code":"DO-0028","program":"pota","name":"Luis Quin National Park","coordinates":[-70.4019,18.4833]},{"code":"DO-0032","program":"pota","name":"Máximo Gómez National Park","coordinates":[-70.2676,18.3912]},{"code":"DO-0048","program":"pota","name":"Don Rafael Herrera Cabral Natural Monument","coordinates":[-70.3174,18.2914]},{"code":"DO-0141","program":"pota","name":"Cerro de Bocanigua Forest Reserve","coordinates":[-70.4417,18.2967]},{"code":"HI/CA-001","program":"sota","name":"Loma de la Valvacoa","coordinates":[-70.3322,18.4519]},{"code":"HI/CA-002","program":"sota","name":"La Palma","coordinates":[-70.4161,18.4705]},{"code":"HI/CA-003","program":"sota","name":"Loma El Plan de Jiguey","coordinates":[-70.3544,18.47]},{"code":"HI/CA-005","program":"sota","name":"Cañada de la Vaca","coordinates":[-70.3747,18.4537]},{"code":"HI/CA-006","program":"sota","name":"Loma Rodriguez","coordinates":[-70.3099,18.4363]},{"code":"HI/CA-007","program":"sota","name":"Loma Los Guayuyos","coordinates":[-70.385,18.4158]},{"code":"HI/CA-009","program":"sota","name":"Loma Los Pinos","coordinates":[-70.396,18.4055]},{"code":"HI/CA-015","program":"sota","name":"Corte Nuevo - El Manaclar","coordinates":[-70.2735,18.4876]},{"code":"HI/CA-017","program":"sota","name":"Loma El Morro","coordinates":[-70.3425,18.4246]},{"code":"HI/CA-025","program":"sota","name":"Loma El Mogote","coordinates":[-70.3153,18.4042]},{"code":"HI/CA-033","program":"sota","name":"Loma La Laguria","coordinates":[-70.2996,18.3967]},{"code":"HI/CA-035","program":"sota","name":"Loma de los Ranchos (Pico Ranchita)","coordinates":[-70.49,18.4114]},{"code":"HI/CA-050","program":"sota","name":"Loma de las Tablas","coordinates":[-70.433,18.3033]},{"code":"HI/CA-051","program":"sota","name":"Loma de Guayabo","coordinates":[-70.2659,18.3927]},{"code":"HI/CA-058","program":"sota","name":"Cerro Bocanigua","coordinates":[-70.4489,18.3061]},{"code":"HI/CA-059","program":"sota","name":"Loma Arroyo Mingo (Pico Mingo)","coordinates":[-70.4503,18.2842]}]}