{"lat":18.25,"lon":-66.25,"programs":["pota","sota"],"count":21,"references":[{"code":"PR-0014","program":"pota","name":"San Juan National Historic Site","coordinates":[-66.122,18.469]},{"code":"PR-0030","program":"pota","name":"San Patricio State Forest","coordinates":[-66.0944,18.4105]},{"code":"PR-0032","program":"pota","name":"Urbano del Nuevo Milenio State Forest","coordinates":[-66.0428,18.3827]},{"code":"PR-0034","program":"pota","name":"Parque Luis Munoz Rivera State Park","coordinates":[-66.0903,18.464]},{"code":"PR-0035","program":"pota","name":"Parque Nacional Isla de Cabras State Park","coordinates":[-66.1363,18.4709]},{"code":"PR-0036","program":"pota","name":"Parque Julio E. Monagas State Park","coordinates":[-66.1408,18.4093]},{"code":"PR-0037","program":"pota","name":"Parque Lineal Enrique Marti Coll State Park","coordinates":[-66.0608,18.4315]},{"code":"PR-0038","program":"pota","name":"Parque Plaza La Libertad State Park","coordinates":[-66.0664,18.4548]},{"code":"PR-0039","program":"pota","name":"Parque Plaza Las Nereidas State Park","coordinates":[-66.0743,18.4567]},{"code":"PR-0045","program":"pota","name":"Parque Nacional Balneario Punta Salinas State Park","coordinates":[-66.1857,18.4738]},{"code":"PR-0059","program":"pota","name":"Silvestre del Embalse La Plata Wildlife Refuge","coordinates":[-66.2354,18.3384]},{"code":"PR-0069","program":"pota","name":"Cano Martin Pena Nature Reserve","coordinates":[-66.0769,18.4379]},{"code":"PR-0070","program":"pota","name":"Estuarina Laguna del Condado Nature Reserve","coordinates":[-66.0814,18.4585]},{"code":"PR-0071","program":"pota","name":"La Cienaga Las Cucharillas Nature Reserve","coordinates":[-66.1348,18.436]},{"code":"PR-0081","program":"pota","name":"Caparra Archeological Site National Historic Site","coordinates":[-66.1143,18.4052]},{"code":"PR-0084","program":"pota","name":"Arrecife de Isla Verde Marine Reserve","coordinates":[-66.0151,18.4453]},{"code":"PR-0091","program":"pota","name":"Parque Lineal Adolfo Dones Ecological Park","coordinates":[-66.0232,18.4138]},{"code":"KP4/CC-022","program":"sota","name":"Cerro Marquesa","coordinates":[-66.1126,18.2796]},{"code":"KP4/CC-040","program":"sota","name":"KP4/CC-040","coordinates":[-66.2397,18.3102]},{"code":"KP4/CE-018","program":"sota","name":"Cupey South","coordinates":[-66.0571,18.3147]},{"code":"KP4/CE-020","program":"sota","name":"Caguas North","coordinates":[-66.0266,18.2678]}]}