{"lat":18.25,"lon":-67,"programs":["pota"],"count":5,"references":[{"code":"PR-0003","program":"pota","name":"Río Camuy Cave State Park","coordinates":[-66.8225,18.3458]},{"code":"PR-0021","program":"pota","name":"Bosque Estatal de Guajataca State Forest","coordinates":[-66.9653,18.4184]},{"code":"PR-0055","program":"pota","name":"Refugio de Vida Silvestre Embalse Guajataca Wildlife Refuge","coordinates":[-66.9268,18.3759]},{"code":"PR-0080","program":"pota","name":"Caguana Indigenous Ceremonial Center National Historic Site","coordinates":[-66.7784,18.2954]},{"code":"PR-0083","program":"pota","name":"Finca Nolla Nature Reserve","coordinates":[-66.8502,18.4892]}]}