{"lat":18.25,"lon":-63.25,"programs":["iota","pota"],"count":5,"references":[{"code":"NA-022","program":"iota","name":"ANGUILLA","coordinates":[-63.190000535,18.40999985]},{"code":"AI-0001","program":"pota","name":"Fountain Cavern National Park","coordinates":[-63.0353,18.2517]},{"code":"AI-0002","program":"pota","name":"Big Spring Historic Site","coordinates":[-63.0074,18.2572]},{"code":"AI-0004","program":"pota","name":"Shoal Bay-Island Harbour Marine Park","coordinates":[-63.0082,18.2605]},{"code":"AI-0005","program":"pota","name":"Prickly Pear Marine Park","coordinates":[-63.1865,18.2676]}]}