{"lat":18.25,"lon":-66,"programs":["gma","pota","sota"],"count":14,"references":[{"code":"XKP4/CE-014","program":"gma","name":"S037","coordinates":[-65.9431,18.2801]},{"code":"PR-0001","program":"pota","name":"El Yunque National Forest","coordinates":[-65.7853,18.3011]},{"code":"PR-0027","program":"pota","name":"Bosque Estatal de Piñones State Forest","coordinates":[-65.9572,18.4424]},{"code":"PR-0040","program":"pota","name":"Parque Acuatico Infantil State Park","coordinates":[-65.9952,18.4496]},{"code":"PR-0048","program":"pota","name":"Rio De La Mina National Wild and Scenic River","coordinates":[-65.7855,18.3013]},{"code":"PR-0049","program":"pota","name":"Rio Icacos National Wild and Scenic River","coordinates":[-65.785,18.262]},{"code":"PR-0050","program":"pota","name":"Rio Mameyes National Wild and Scenic River","coordinates":[-65.7502,18.3267]},{"code":"PR-0075","program":"pota","name":"Rio Espiritu Santo Nature Reserve","coordinates":[-65.811,18.4013]},{"code":"KP4/CE-001","program":"sota","name":"El Yunque","coordinates":[-65.7914,18.3104]},{"code":"KP4/CE-002","program":"sota","name":"El Toro","coordinates":[-65.8292,18.2722]},{"code":"KP4/CE-003","program":"sota","name":"Pico del Este","coordinates":[-65.7588,18.2688]},{"code":"KP4/CE-021","program":"sota","name":"KP4/CE-021","coordinates":[-65.8131,18.2831]},{"code":"KP4/CE-025","program":"sota","name":"Chuchilla de Hato Nuevo","coordinates":[-65.9394,18.2781]},{"code":"KP4/CE-028","program":"sota","name":"KP4/CE-028","coordinates":[-65.9334,18.3076]}]}