{"lat":18.5,"lon":-70,"programs":["pota"],"count":6,"references":[{"code":"DO-0128","program":"pota","name":"Zoológico Nacional Arq. Manuel Valverde Podestá Park","coordinates":[-69.9277,18.5084]},{"code":"DO-0012","program":"pota","name":"Sierra Prieta Biological Reserve","coordinates":[-69.9737,18.6595]},{"code":"DO-0021","program":"pota","name":"Humedales del Ozama National Park","coordinates":[-69.7747,18.5913]},{"code":"DO-0043","program":"pota","name":"Mirador del Norte National Park","coordinates":[-69.9427,18.5227]},{"code":"DO-0163","program":"pota","name":"Mirador Manantiales del Norte Park","coordinates":[-69.9711,18.5167]},{"code":"DO-0164","program":"pota","name":"Mirador Manantiales del Cachón de la Rubia Park","coordinates":[-69.8551,18.5247]}]}