{"lat":18.5,"lon":-70.25,"programs":["pota","sota"],"count":12,"references":[{"code":"DO-0147","program":"pota","name":"Loma Novillero Forest Reserve","coordinates":[-70.177,18.7036]},{"code":"HI/CA-026","program":"sota","name":"Loma Los Siete Picos","coordinates":[-70.1642,18.7358]},{"code":"HI/CA-030","program":"sota","name":"Loma Mariana Chica","coordinates":[-70.1397,18.6819]},{"code":"HI/CA-031","program":"sota","name":"Alto de Creston (Pico Ibarra)","coordinates":[-70.2191,18.5597]},{"code":"HI/CA-034","program":"sota","name":"Loma del Casabe","coordinates":[-70.2061,18.5754]},{"code":"HI/CA-036","program":"sota","name":"Loma Novillero (Pico Besimo)","coordinates":[-70.1833,18.7142]},{"code":"HI/CA-037","program":"sota","name":"Loma Cerro Martín (Pico Martín)","coordinates":[-70.2171,18.6392]},{"code":"HI/CA-042","program":"sota","name":"Loma Palos Prietos","coordinates":[-70.0972,18.6902]},{"code":"HI/CA-061","program":"sota","name":"Loma Los Jobos de Matúa","coordinates":[-70.088,18.6509]},{"code":"HI/CA-062","program":"sota","name":"Loma La Zarza","coordinates":[-70.0337,18.7319]},{"code":"HI/CA-064","program":"sota","name":"Pico El Naranjo","coordinates":[-70.0943,18.7316]},{"code":"HI/CA-066","program":"sota","name":"Loma Firme","coordinates":[-70.0388,18.6661]}]}