{"lat":18.5,"lon":-71.5,"programs":["pota","sota"],"count":10,"references":[{"code":"DO-0188","program":"pota","name":"La Fuente del Rodeo National Historic Site","coordinates":[-71.3061,18.5058]},{"code":"HI/VA-038","program":"sota","name":"Loma Monte Bonito","coordinates":[-71.3861,18.5964]},{"code":"HI/VA-049","program":"sota","name":"Judea","coordinates":[-71.4592,18.7461]},{"code":"HI/VA-059","program":"sota","name":"El Pozo","coordinates":[-71.3603,18.7275]},{"code":"HI/VA-062","program":"sota","name":"Loma Sucia","coordinates":[-71.3381,18.5919]},{"code":"HI/VA-064","program":"sota","name":"Loma Jayaco","coordinates":[-71.3206,18.7364]},{"code":"HI/VA-067","program":"sota","name":"Loma El Mogote","coordinates":[-71.4017,18.6531]},{"code":"HI/VA-072","program":"sota","name":"Las Petacas","coordinates":[-71.44,18.5717]},{"code":"HI/VA-074","program":"sota","name":"El Novillo (Primer Toro)","coordinates":[-71.2972,18.5764]},{"code":"HI/VA-079","program":"sota","name":"La Lomita","coordinates":[-71.4444,18.6906]}]}