{"lat":18.75,"lon":-70.25,"programs":["pota","sota"],"count":15,"references":[{"code":"DO-0100","program":"pota","name":"Ing. Juan Ulises García Bonnelly o Loma la Guardaraya National Park","coordinates":[-70.1833,18.8667]},{"code":"HI/CA-028","program":"sota","name":"Loma Rancho de Yagua (Pico Palmetico)","coordinates":[-70.2075,18.7658]},{"code":"HI/CA-032","program":"sota","name":"Loma Las Cabinas","coordinates":[-70.2484,18.8501]},{"code":"HI/CA-040","program":"sota","name":"Loma La Naviza (Pico Naviza)","coordinates":[-70.022,18.9621]},{"code":"HI/CA-043","program":"sota","name":"Loma de Juan Blasina","coordinates":[-70.1367,18.7733]},{"code":"HI/CA-044","program":"sota","name":"Loma La Cuaba","coordinates":[-70.2079,18.9652]},{"code":"HI/CA-045","program":"sota","name":"Loma El Rayo","coordinates":[-70.1596,18.8775]},{"code":"HI/CA-048","program":"sota","name":"Loma Mata Hombre","coordinates":[-70.1194,18.7501]},{"code":"HI/CA-056","program":"sota","name":"Loma Cansa Mancebo (Pico Yamasá)","coordinates":[-70.096,18.8064]},{"code":"HI/CA-057","program":"sota","name":"Loma La Mina","coordinates":[-70.217,18.9233]},{"code":"HI/CA-060","program":"sota","name":"Loma El Mogote","coordinates":[-70.0469,18.9605]},{"code":"HI/CA-065","program":"sota","name":"Loma de Marcelo","coordinates":[-70.0743,18.797]},{"code":"HI/CA-067","program":"sota","name":"Loma del Morro","coordinates":[-70.0673,18.8612]},{"code":"HI/CA-071","program":"sota","name":"Loma Tartajuana","coordinates":[-70.0847,18.8216]},{"code":"HI/CA-072","program":"sota","name":"Loma El Mogote","coordinates":[-70.007,18.809]}]}