{"lat":18.75,"lon":-70,"programs":["iota","pota","sota"],"count":5,"references":[{"code":"NA-122","program":"iota","name":"DOMINICAN REPUBLIC&#039;S COASTAL ISLANDS","coordinates":[-69.935001375,18.75]},{"code":"DO-0186","program":"pota","name":"Templo de Nuestra Señora de Aguas Santas National Monument","coordinates":[-69.7725,18.8482]},{"code":"HI/CA-049","program":"sota","name":"Loma de Lovatón","coordinates":[-69.8126,18.8726]},{"code":"HI/CA-053","program":"sota","name":"Loma Jengibre ( Pico Viuda)","coordinates":[-69.9218,18.9016]},{"code":"HI/CA-055","program":"sota","name":"Loma Colorada","coordinates":[-69.7918,18.8911]}]}