{"lat":19,"lon":-71,"programs":["pota","sota"],"count":11,"references":[{"code":"DO-0015","program":"pota","name":"Armando Bermúdez National Park","coordinates":[-70.8634,19.0673]},{"code":"DO-0095","program":"pota","name":"Alto Bao Forest Reserve","coordinates":[-70.9246,19.2054]},{"code":"HI/CI-001","program":"sota","name":"Pico Duarte","coordinates":[-70.9979,19.023]},{"code":"HI/CI-002","program":"sota","name":"Loma La Rucilla","coordinates":[-70.9582,19.0457]},{"code":"HI/CI-003","program":"sota","name":"Loma El Palero de Felipe","coordinates":[-70.8922,19.0011]},{"code":"HI/CI-004","program":"sota","name":"Loma El Mortero","coordinates":[-70.9503,19.0744]},{"code":"HI/CI-006","program":"sota","name":"Loma El Corniado","coordinates":[-70.9886,19.2331]},{"code":"HI/CI-009","program":"sota","name":"Loma Parte Bellaca(La Guardarraya)","coordinates":[-70.9128,19.1778]},{"code":"HI/CI-012","program":"sota","name":"Cerro Prieto","coordinates":[-70.8064,19.2006]},{"code":"HI/CI-015","program":"sota","name":"El Tuerto","coordinates":[-70.7593,19.1815]},{"code":"HI/CI-018","program":"sota","name":"Pico Las Carreras","coordinates":[-70.8781,19.2436]}]}