{"lat":19,"lon":-70.5,"programs":["pota","sota"],"count":6,"references":[{"code":"DO-0004","program":"pota","name":"Las Neblinas Scientific Reserve","coordinates":[-70.4866,19.0125]},{"code":"DO-0120","program":"pota","name":"Carretera El Abanico - Constanza Protected Landscape","coordinates":[-70.4834,19.0345]},{"code":"HI/CI-042","program":"sota","name":"Loma El Diviso","coordinates":[-70.2732,19.0216]},{"code":"HI/CI-044","program":"sota","name":"Loma de Yujo","coordinates":[-70.3482,19.0125]},{"code":"HI/CI-050","program":"sota","name":"Loma Ceiba-Rio Grande-Mameyes","coordinates":[-70.3714,19.0469]},{"code":"HI/CI-062","program":"sota","name":"Loma Cojoba (Comedero)","coordinates":[-70.2789,19.0733]}]}