{"lat":19.25,"lon":-81.5,"programs":["pota"],"count":17,"references":[{"code":"KY-0041","program":"pota","name":"Governor Michael Gore  Bird Sanctuary, National Wildlife Management Area","coordinates":[-81.3083,19.2773]},{"code":"KY-0001","program":"pota","name":"Pedro St. James Castle National Historic Site","coordinates":[-81.291,19.2668]},{"code":"KY-0003","program":"pota","name":"Dart Family Recreation Site","coordinates":[-81.3916,19.2809]},{"code":"KY-0004","program":"pota","name":"Airport Park Recreation Park","coordinates":[-81.365,19.2924]},{"code":"KY-0009","program":"pota","name":"Consuelo's Beach National Historic Site","coordinates":[-81.3882,19.2687]},{"code":"KY-0010","program":"pota","name":"Heroes Square/Centennial Park National Historic Site","coordinates":[-81.3817,19.2964]},{"code":"KY-0014","program":"pota","name":"Smith Barcadere Multiple Use Area","coordinates":[-81.3911,19.2771]},{"code":"KY-0025","program":"pota","name":"Prospect Fort Monument Historic Site","coordinates":[-81.3395,19.2747]},{"code":"KY-0030","program":"pota","name":"North Sound Gardens Park Multiple Use Area","coordinates":[-81.2976,19.3033]},{"code":"KY-0031","program":"pota","name":"The Careenage at Newlands Barcadere National Historic Trail","coordinates":[-81.2979,19.3033]},{"code":"KY-0013","program":"pota","name":"Kaibo Multiple Use Area","coordinates":[-81.2752,19.3554]},{"code":"KY-0024","program":"pota","name":"Cayman Kai Public Beach Coastal & Marine Park","coordinates":[-81.2665,19.3695]},{"code":"KY-0027","program":"pota","name":"Rum Point National Historic trail National Historic Trail","coordinates":[-81.2594,19.363]},{"code":"KY-0002","program":"pota","name":"Garvin Park, Coastal Park","coordinates":[-81.3806,19.3736]},{"code":"KY-0011","program":"pota","name":"Cayman Turtle Centre National Historic Site","coordinates":[-81.4166,19.3802]},{"code":"KY-0028","program":"pota","name":"Governors Beach Multiple Use Area","coordinates":[-81.3815,19.341]},{"code":"KY-0036","program":"pota","name":"Public Beach Recreation Park Recreation Park","coordinates":[-81.3821,19.3491]}]}