{"lat":19.5,"lon":-70.5,"programs":["pota","sota"],"count":5,"references":[{"code":"DO-0003","program":"pota","name":"La Salcedoa Scientific Reserve","coordinates":[-70.3529,19.5186]},{"code":"DO-0054","program":"pota","name":"Lagunas Cabarete y Goleta Natural Monument","coordinates":[-70.4302,19.7197]},{"code":"HI/CI-049","program":"sota","name":"Loma Arroyo Grande","coordinates":[-70.3492,19.5728]},{"code":"HI/CI-053","program":"sota","name":"Loma Del Manguito","coordinates":[-70.3683,19.5836]},{"code":"HI/CI-056","program":"sota","name":"Loma Hoyo Mango Fresco","coordinates":[-70.4531,19.705]}]}