{"lat":19.5,"lon":-71.25,"programs":["pota","sota"],"count":9,"references":[{"code":"DO-0148","program":"pota","name":"Río Cana Forest Reserve","coordinates":[-71.1828,19.5094]},{"code":"DO-0114","program":"pota","name":"Loma del Flaco José Francisco Peña Gómez Natural Monument","coordinates":[-71.0506,19.7041]},{"code":"DO-0155","program":"pota","name":"Vía Panorámica Entrada de Mao Protected Landscape","coordinates":[-71.0466,19.5152]},{"code":"HI/NO-065","program":"sota","name":"Loma de los Guayacanes","coordinates":[-71.0463,19.7123]},{"code":"HI/NO-066","program":"sota","name":"Firme de la Cordillera","coordinates":[-71.0684,19.7383]},{"code":"HI/NO-067","program":"sota","name":"Arroyo de Agua","coordinates":[-71.0631,19.7172]},{"code":"HI/NO-070","program":"sota","name":"Loma Naranjo","coordinates":[-71.076,19.7193]},{"code":"HI/NO-077","program":"sota","name":"Loma Grande - Cerro Gordo Los Quemados","coordinates":[-71.1486,19.5141]},{"code":"HI/NO-079","program":"sota","name":"Loma Laguna Seiba","coordinates":[-71.1143,19.5082]}]}