{"lat":19.75,"lon":-71,"programs":["pota","sota"],"count":5,"references":[{"code":"DO-0075","program":"pota","name":"Bahía de Luperón Wildlife Refuge","coordinates":[-70.9252,19.9004]},{"code":"HI/CI-046","program":"sota","name":"Avispas (Loma Los Mates)","coordinates":[-70.7925,19.7744]},{"code":"HI/CI-057","program":"sota","name":"Loma San Cristobal","coordinates":[-70.7631,19.8144]},{"code":"HI/CI-059","program":"sota","name":"Loma El Guaconejo","coordinates":[-70.8253,19.8044]},{"code":"HI/CI-061","program":"sota","name":"Loma La Culebra","coordinates":[-70.9989,19.8844]}]}