{"lat":2.25,"lon":103,"programs":["sota"],"count":5,"references":[{"code":"9M2/JO-005","program":"sota","name":"Gunung Bekok","coordinates":[103.181,2.3869]},{"code":"9M2/JO-006","program":"sota","name":"Bukit Marong","coordinates":[103.1952,2.3748]},{"code":"9M2/JO-009","program":"sota","name":"Bukit Merbak","coordinates":[103.1977,2.4363]},{"code":"9M2/JO-010","program":"sota","name":"Bukit Keliring","coordinates":[103.1843,2.4703]},{"code":"9M2/JO-011","program":"sota","name":"Bukit Gaut","coordinates":[103.2385,2.463]}]}