{"lat":2.25,"lon":102.25,"programs":["pota","sota"],"count":5,"references":[{"code":"MY-0021","program":"pota","name":"Melaka, Bukit Sedanan State Park","coordinates":[102.349,2.41145]},{"code":"9M2/ME-001","program":"sota","name":"Bukit Batu Lebar","coordinates":[102.4414,2.408]},{"code":"9M2/ME-002","program":"sota","name":"Bukit Sedanan","coordinates":[102.3654,2.417]},{"code":"9M2/ME-004","program":"sota","name":"Bukit Panchor","coordinates":[102.2581,2.3656]},{"code":"9M2/NS-024","program":"sota","name":"Bukit Bemban","coordinates":[102.4301,2.4472]}]}