{"lat":2.75,"lon":102,"programs":["sota"],"count":10,"references":[{"code":"9M2/NS-003","program":"sota","name":"Gunung Telapa Buruk","coordinates":[102.0687,2.8409]},{"code":"9M2/NS-007","program":"sota","name":"Bukit Runtoh","coordinates":[102.1269,2.8971]},{"code":"9M2/NS-013","program":"sota","name":"Bukit Batu Elam","coordinates":[102.176,2.9495]},{"code":"9M2/NS-014","program":"sota","name":"Bukit Kering","coordinates":[102.2055,2.8349]},{"code":"9M2/NS-015","program":"sota","name":"Bukit Pasong","coordinates":[102.2385,2.9031]},{"code":"9M2/NS-017","program":"sota","name":"Bukit Pati Bual","coordinates":[102.0978,2.7532]},{"code":"9M2/NS-021","program":"sota","name":"Bukit Tinggi","coordinates":[102.0218,2.9659]},{"code":"9M2/NS-022","program":"sota","name":"Bukit Kubur Gamat","coordinates":[102.2358,2.8522]},{"code":"9M2/NS-026","program":"sota","name":"Bukit Baginda","coordinates":[102.2275,2.8772]},{"code":"9M2/NS-030","program":"sota","name":"Bukit Besar","coordinates":[102.2034,2.7642]}]}