{"lat":20.5,"lon":-103.5,"programs":["pota","sota"],"count":12,"references":[{"code":"MX-0086","program":"pota","name":"Los Colomos State Recreation Area","coordinates":[-103.396,20.7101]},{"code":"MX-0087","program":"pota","name":"Gonzalez Gallo State Recreation Area","coordinates":[-103.353,20.6494]},{"code":"MX-0088","program":"pota","name":"Agua Azul State Recreation Site","coordinates":[-103.35,20.6595]},{"code":"MX-0246","program":"pota","name":"Parque Metropolitano de Guadajara State Park","coordinates":[-103.438,20.6712]},{"code":"MX-0247","program":"pota","name":"Parque Natural Huentitan State Park","coordinates":[-103.316,20.7243]},{"code":"MX-0248","program":"pota","name":"Parque Alcalde State Park","coordinates":[-103.351,20.6891]},{"code":"MX-0249","program":"pota","name":"Parque Montenegro State Park","coordinates":[-103.314,20.5725]},{"code":"MX-0314","program":"pota","name":"Ixtépete Archeological Reserve","coordinates":[-103.44,20.6302]},{"code":"MX-0316","program":"pota","name":"El Grillo National Park","coordinates":[-103.366,20.7366]},{"code":"XE1/JL-262","program":"sota","name":"XE1/JL-262","coordinates":[-103.4395,20.50063]},{"code":"XE1/JL-275","program":"sota","name":"XE1/JL-275","coordinates":[-103.47572,20.59832]},{"code":"XE1/JL-388","program":"sota","name":"XE1/JL-388","coordinates":[-103.36507,20.60049]}]}