{"lat":20.75,"lon":-156.75,"programs":["pota","sota"],"count":6,"references":[{"code":"US-6410","program":"pota","name":"Iao Valley State Preserve","coordinates":[-156.551,20.8877]},{"code":"KH6/MA-005","program":"sota","name":"Puu Kukui","coordinates":[-156.5864,20.8903]},{"code":"KH6/MA-006","program":"sota","name":"Hanaula","coordinates":[-156.557,20.8488]},{"code":"KH6/MA-008","program":"sota","name":"Kapilau Ridge","coordinates":[-156.5485,20.8668]},{"code":"KH6/MA-009","program":"sota","name":"Lihau","coordinates":[-156.5985,20.8517]},{"code":"KH6/MA-010","program":"sota","name":"Halepohaku","coordinates":[-156.5813,20.8431]}]}