{"lat":21.25,"lon":-78,"programs":["pota"],"count":5,"references":[{"code":"CU-0310","program":"pota","name":"Centro histórico de Camagüey World Heritage Site","coordinates":[-77.917,21.3813]},{"code":"CU-0422","program":"pota","name":"Parque Camilo Cienfuegos Provincial Park","coordinates":[-77.9182,21.3628]},{"code":"CU-0423","program":"pota","name":"Parque Casino Campestre Provincial Recreation Area","coordinates":[-77.9114,21.3764]},{"code":"CU-0426","program":"pota","name":"Museo Ferroviario National Heritage Site","coordinates":[-77.9157,21.3892]},{"code":"CU-0533","program":"pota","name":"Las Clavellinas Historic Site","coordinates":[-77.7739,21.4191]}]}