{"lat":21.75,"lon":-80.25,"programs":["pota"],"count":5,"references":[{"code":"CU-0304","program":"pota","name":"Topes de Collantes Nature Park","coordinates":[-80.053,21.8896]},{"code":"CU-0468","program":"pota","name":"Valle de Yaguanabo Natural Features Reserve","coordinates":[-80.1916,21.8918]},{"code":"CU-0470","program":"pota","name":"Cueva Martín Infierno Nature and Landscape Complex","coordinates":[-80.1524,21.8939]},{"code":"CU-0475","program":"pota","name":"Aguacate -Boca de Carrera Natural Features Reserve","coordinates":[-80.0783,21.9164]},{"code":"CU-0478","program":"pota","name":"Loma la Ventana National Recreation Trail","coordinates":[-80.2126,21.9972]}]}