{"lat":22,"lon":120.75,"programs":["pota","sota"],"count":13,"references":[{"code":"TW-0032","program":"pota","name":"Xuhai-Guanyinbi National Nature Reserve","coordinates":[120.894,22.2]},{"code":"TW-0058","program":"pota","name":"Shuangliou National Forest","coordinates":[120.797,22.21]},{"code":"BV/PI-028","program":"sota","name":"女仍山 (Nǚ Réng Shān)","coordinates":[120.7847,22.195]},{"code":"BV/PI-031","program":"sota","name":"老佛山 (Lǎo Fú Shān)","coordinates":[120.7921,22.0389]},{"code":"BV/PI-032","program":"sota","name":"BV/PI-032","coordinates":[120.8131,22.2306]},{"code":"BV/PI-034","program":"sota","name":"BV/PI-034","coordinates":[120.8161,22.1788]},{"code":"BV/PI-035","program":"sota","name":"四林格山 (Sì Lín Gé Shān)","coordinates":[120.8032,22.0834]},{"code":"BV/PI-036","program":"sota","name":"BV/PI-036","coordinates":[120.8415,22.1671]},{"code":"BV/PI-037","program":"sota","name":"萬里得山 (Wàn Lǐ Dé Shān)","coordinates":[120.8417,22.0681]},{"code":"BV/PI-039","program":"sota","name":"BV/PI-039","coordinates":[120.7608,22.0502]},{"code":"BV/PI-040","program":"sota","name":"BV/PI-040","coordinates":[120.8561,22.011]},{"code":"BV/PI-041","program":"sota","name":"虱母山 (Shī Mǔ Shān)","coordinates":[120.7542,22.1126]},{"code":"BV/PI-043","program":"sota","name":"南勢湖山 (Nán Shì Hú Shān)","coordinates":[120.7625,22.0817]}]}