{"lat":22,"lon":113.5,"programs":["iota","pota"],"count":6,"references":[{"code":"AS-075","program":"iota","name":"MACAU group","coordinates":[113.599998475,22.170000075]},{"code":"MO-0001","program":"pota","name":"中国澳门松山市政公園 Regional Park","coordinates":[113.553,22.1989]},{"code":"MO-0002","program":"pota","name":"中国澳门大潭山郊野公園 Country Park","coordinates":[113.57,22.159]},{"code":"MO-0003","program":"pota","name":"中国澳门路環山頂公園 Mountain Park","coordinates":[113.564,22.1231]},{"code":"MO-0004","program":"pota","name":"中国澳门黑沙海灘公園 Coastal Park","coordinates":[113.571,22.121]},{"code":"MO-0005","program":"pota","name":"中国澳门水塘公園 Recreation Park","coordinates":[113.555,22.1998]}]}