{"lat":22,"lon":-79.25,"programs":["pota"],"count":5,"references":[{"code":"CU-0341","program":"pota","name":"Lebrije Forest Reserve","coordinates":[-79.1681,22.0349]},{"code":"CU-0498","program":"pota","name":"Lomas de la Canoa Flora Reserve","coordinates":[-79.1042,22.2286]},{"code":"CU-0499","program":"pota","name":"Cueva La Chucha Yaguajay Archeological Reserve","coordinates":[-79.0806,22.2081]},{"code":"CU-0508","program":"pota","name":"Lebrije Resource Management Area","coordinates":[-79.1525,22.0396]},{"code":"CU-0563","program":"pota","name":"Lagos de Mayajigua Geopark","coordinates":[-79.0705,22.2288]}]}