{"lat":22.75,"lon":120.75,"programs":["pota","sota"],"count":25,"references":[{"code":"TW-0018","program":"pota","name":"Taitung Hongye Village Taitung Cycas National Nature Reserve","coordinates":[120.936,22.89]},{"code":"BV/KA-021","program":"sota","name":"出雲山 (Chū Yún Shān)","coordinates":[120.8292,22.9753]},{"code":"BV/KA-023","program":"sota","name":"BV/KA-023","coordinates":[120.8414,22.9897]},{"code":"BV/KA-026","program":"sota","name":"石穗頭 (Shí Suì Tóu)","coordinates":[120.8336,22.8997]},{"code":"BV/KA-027","program":"sota","name":"BV/KA-027","coordinates":[120.8292,22.9207]},{"code":"BV/KA-029","program":"sota","name":"遙拜山 (Yáo Bài Shān)","coordinates":[120.8543,22.8645]},{"code":"BV/KA-030","program":"sota","name":"BV/KA-030","coordinates":[120.8411,22.86]},{"code":"BV/KA-031","program":"sota","name":"歡喜山 (Huān Xǐ Shān)","coordinates":[120.8247,22.8664]},{"code":"BV/KA-032","program":"sota","name":"烏山 (Wū Shān)","coordinates":[120.7872,22.8742]},{"code":"BV/KA-038","program":"sota","name":"BV/KA-038","coordinates":[120.7656,22.9117]},{"code":"BV/PI-003","program":"sota","name":"BV/PI-003","coordinates":[120.7874,22.8307]},{"code":"BV/PI-005","program":"sota","name":"BV/PI-005","coordinates":[120.7604,22.8012]},{"code":"BV/PI-010","program":"sota","name":"BV/PI-010","coordinates":[120.8569,22.7514]},{"code":"BV/TT-003","program":"sota","name":"美奈北山 (Měi Nài Běi Shān)","coordinates":[120.9961,22.9856]},{"code":"BV/TT-009","program":"sota","name":"小禿山 (Xiǎo Tū Shān)","coordinates":[120.9682,22.9489]},{"code":"BV/TT-010","program":"sota","name":"BV/TT-010","coordinates":[120.8547,22.8825]},{"code":"BV/TT-011","program":"sota","name":"王霸邊浦山 (Wáng Bà Biān Pǔ Shān)","coordinates":[120.9008,22.8042]},{"code":"BV/TT-012","program":"sota","name":"嘉代山 (Jiā Dài  Shān)","coordinates":[120.9867,22.9274]},{"code":"BV/TT-014","program":"sota","name":"和原山北峰 (Hé Yuán Shān Běi Fēng )","coordinates":[120.9283,22.9922]},{"code":"BV/TT-019","program":"sota","name":"小屋山南峰 (Xiǎo Wū Shān Nán Fēng )","coordinates":[120.9533,22.7947]},{"code":"BV/TT-020","program":"sota","name":"小屋山 (Xiǎo Wū Shān)","coordinates":[120.9668,22.8045]},{"code":"BV/TT-025","program":"sota","name":"肯都爾山 (Kěn Dōu ěr Shān)","coordinates":[120.9694,22.7708]},{"code":"BV/TT-028","program":"sota","name":"盆盆山 (Pén Pén Shān)","coordinates":[120.9908,22.8339]},{"code":"BV/TT-041","program":"sota","name":"BV/TT-041","coordinates":[120.902,22.9417]},{"code":"BV/TT-043","program":"sota","name":"BV/TT-043","coordinates":[120.942,22.8369]}]}