{"lat":22.75,"lon":120.5,"programs":["pota","sota"],"count":14,"references":[{"code":"TW-0041","program":"pota","name":"Maolin Scenic Site","coordinates":[120.62,22.89]},{"code":"BV/KA-040","program":"sota","name":"京大山 (Jīng Dà Shān)","coordinates":[120.7208,22.8819]},{"code":"BV/KA-045","program":"sota","name":"鳴海山 (Míng Hǎi Shān)","coordinates":[120.6903,22.955]},{"code":"BV/KA-047","program":"sota","name":"大津山 (Dà Jīn Shān)","coordinates":[120.691,22.8654]},{"code":"BV/KA-048","program":"sota","name":"吉田山 (Jí Tián Shān)","coordinates":[120.7324,22.9631]},{"code":"BV/KA-051","program":"sota","name":"大原山 (Dà Yuán Shān)","coordinates":[120.6714,22.9831]},{"code":"BV/KA-055","program":"sota","name":"BV/KA-055","coordinates":[120.6233,22.9778]},{"code":"BV/KA-056","program":"sota","name":"BV/KA-056","coordinates":[120.5794,22.9667]},{"code":"BV/KA-057","program":"sota","name":"月光山 (Yuè Guāng Shān)","coordinates":[120.545,22.9348]},{"code":"BV/KA-058","program":"sota","name":"黍頂山 (Shǔ Dǐng Shān)","coordinates":[120.5958,22.9072]},{"code":"BV/PI-004","program":"sota","name":"BV/PI-004","coordinates":[120.7487,22.826]},{"code":"BV/PI-019","program":"sota","name":"尾寮山 (Wěi Liáo Shān)","coordinates":[120.6761,22.8572]},{"code":"BV/PI-020","program":"sota","name":"德文山 (Dé Wén Shān)","coordinates":[120.6923,22.764]},{"code":"BV/PI-025","program":"sota","name":"BV/PI-025","coordinates":[120.6572,22.81]}]}