{"lat":23,"lon":121.25,"programs":["pota","sota"],"count":11,"references":[{"code":"TW-0022","program":"pota","name":"Nan-ao Broad-leaved Forest National Nature Reserve","coordinates":[121.447,23.15]},{"code":"BV/HL-053","program":"sota","name":"成廣澳山 (Chéng Guǎng ào Shān )","coordinates":[121.3383,23.1904]},{"code":"BV/HL-055","program":"sota","name":"BV/HL-055","coordinates":[121.347,23.2111]},{"code":"BV/HL-065","program":"sota","name":"BV/HL-065","coordinates":[121.3173,23.2159]},{"code":"BV/TT-032","program":"sota","name":"麻荖漏山 (Má Lǎo Lòu Shān)","coordinates":[121.3221,23.1397]},{"code":"BV/TT-039","program":"sota","name":"新港山 (Xīn Gǎng Shān)","coordinates":[121.3219,23.1181]},{"code":"BV/TT-055","program":"sota","name":"BV/TT-055","coordinates":[121.3617,23.1753]},{"code":"BV/TT-060","program":"sota","name":"加只來山 (Jiā Zhǐ Lái Shān)","coordinates":[121.3191,23.0729]},{"code":"BV/TT-068","program":"sota","name":"都歷山 (Dōu Lì Shān)","coordinates":[121.3028,23.0142]},{"code":"BV/TT-069","program":"sota","name":"BV/TT-069","coordinates":[121.3081,23.0244]},{"code":"BV/TT-070","program":"sota","name":"BV/TT-070","coordinates":[121.3142,23.0372]}]}