{"lat":23.75,"lon":121.25,"programs":["pota","sota"],"count":20,"references":[{"code":"TW-0060","program":"pota","name":"Chihnan National Forest","coordinates":[121.499,23.91]},{"code":"BV/HL-017","program":"sota","name":"望台山 (Wàng Tái Shān )","coordinates":[121.3292,23.9436]},{"code":"BV/HL-019","program":"sota","name":"大安山 (Dà'ān Shān )","coordinates":[121.3132,23.8185]},{"code":"BV/HL-021","program":"sota","name":"大檜山 (Dà Guì Shān )","coordinates":[121.384,23.9225]},{"code":"BV/HL-027","program":"sota","name":"南二子山 (Nán èr Z iShān )","coordinates":[121.3261,23.8631]},{"code":"BV/HL-028","program":"sota","name":"二子山 (èr Zi Shān )","coordinates":[121.3296,23.879]},{"code":"BV/HL-031","program":"sota","name":"木瓜山 (Mù Guā Shān )","coordinates":[121.4451,23.9134]},{"code":"BV/HL-032","program":"sota","name":"BV/HL-032","coordinates":[121.3622,23.9322]},{"code":"BV/HL-038","program":"sota","name":"BV/HL-038","coordinates":[121.4135,23.9193]},{"code":"BV/HL-041","program":"sota","name":"BV/HL-041","coordinates":[121.3482,23.7998]},{"code":"BV/HL-046","program":"sota","name":"BV/HL-046","coordinates":[121.3889,23.7617]},{"code":"BV/HL-047","program":"sota","name":"千古寒山 (Qiān Gǔ Hán Shān )","coordinates":[121.3812,23.8751]},{"code":"BV/HL-048","program":"sota","name":"白葉山 (Bái Yè Shān )","coordinates":[121.4975,23.9983]},{"code":"BV/HL-051","program":"sota","name":"BV/HL-051","coordinates":[121.3531,23.8339]},{"code":"BV/HL-064","program":"sota","name":"烏帽子山 (Wū Mào Zi Shān )","coordinates":[121.4544,23.9775]},{"code":"BV/NA-018","program":"sota","name":"能高山南峰 (Néng Gāo Shān Nán Fēng)","coordinates":[121.2781,23.9656]},{"code":"BV/NA-023","program":"sota","name":"能高山 (Néng Gāo Shān)","coordinates":[121.2597,23.9911]},{"code":"BV/NA-026","program":"sota","name":"BV/NA-026","coordinates":[121.275,23.9517]},{"code":"BV/NA-028","program":"sota","name":"白石山 (Bá Shí Shān )","coordinates":[121.2751,23.9076]},{"code":"BV/NA-029","program":"sota","name":"安東軍山 (ān Dōng Jūn Shān)","coordinates":[121.2656,23.8728]}]}