{"lat":23.75,"lon":121,"programs":["iota","sota"],"count":17,"references":[{"code":"AS-155","program":"iota","name":"TAIWAN&#039;S COASTAL ISLANDS","coordinates":[121.084999085,23.75]},{"code":"BV/NA-017","program":"sota","name":"卓社大山 (Zhuō Shè Dà Shān)","coordinates":[121.1153,23.8342]},{"code":"BV/NA-021","program":"sota","name":"干卓萬山 (Gàn Zhuō Wàn Shān)","coordinates":[121.1392,23.8761]},{"code":"BV/NA-024","program":"sota","name":"BV/NA-024","coordinates":[121.1856,23.8519]},{"code":"BV/NA-037","program":"sota","name":"卡社大山 (Kǎ Shè Dà Shān)","coordinates":[121.2206,23.7817]},{"code":"BV/NA-043","program":"sota","name":"草山 (Cǎo Shān)","coordinates":[121.2401,23.8211]},{"code":"BV/NA-046","program":"sota","name":"BV/NA-046","coordinates":[121.2131,23.8306]},{"code":"BV/NA-047","program":"sota","name":"帖鹿桑山 (Tiē Lù Sāng Shān)","coordinates":[121.1282,23.7576]},{"code":"BV/NA-048","program":"sota","name":"麻平暮山 (Má Píng Mù Shān)","coordinates":[121.2008,23.9833]},{"code":"BV/NA-050","program":"sota","name":"尖台山 (Jiān Tái Shān)","coordinates":[121.1525,23.9231]},{"code":"BV/NA-051","program":"sota","name":"BV/NA-051","coordinates":[121.222,23.9967]},{"code":"BV/NA-058","program":"sota","name":"BV/NA-058","coordinates":[121.0096,23.8701]},{"code":"BV/NA-059","program":"sota","name":"BV/NA-059","coordinates":[121.0716,23.8974]},{"code":"BV/NA-063","program":"sota","name":"BV/NA-063","coordinates":[121.053,23.9699]},{"code":"BV/NA-065","program":"sota","name":"水頭谷 (Shuǐ Tóu Gǔ)","coordinates":[121.0234,23.9004]},{"code":"BV/NA-066","program":"sota","name":"高峰山 (Gāo Fēng Shān)","coordinates":[121.117,23.9891]},{"code":"BV/NA-069","program":"sota","name":"BV/NA-069","coordinates":[121.1184,23.9526]}]}