{"lat":24.75,"lon":121.5,"programs":["pota","sota"],"count":17,"references":[{"code":"TW-0013","program":"pota","name":"Hapen National Nature Reserve","coordinates":[121.513,24.77]},{"code":"TW-0015","program":"pota","name":"Pinglin Taiwan Keteleeria National Nature Reserve","coordinates":[121.72,24.9]},{"code":"TW-0046","program":"pota","name":"Neidong National Forest","coordinates":[121.524,24.82]},{"code":"BV/NT-005","program":"sota","name":"霧門山 (Wù Mén Shān)","coordinates":[121.5672,24.7972]},{"code":"BV/NT-006","program":"sota","name":"西阿玉山 (Xī ā Yù Shān)","coordinates":[121.592,24.7875]},{"code":"BV/NT-007","program":"sota","name":"中阿玉山 (Zhōng ā Yù Shān)","coordinates":[121.6211,24.8111]},{"code":"BV/NT-008","program":"sota","name":"烘爐地山 (Hōng Lú De Shān)","coordinates":[121.6964,24.8347]},{"code":"BV/NT-009","program":"sota","name":"BV/NT-009","coordinates":[121.6663,24.8152]},{"code":"BV/NT-011","program":"sota","name":"拔刀爾山 (Bá Dāo ěr Shān)","coordinates":[121.5142,24.8525]},{"code":"BV/NT-016","program":"sota","name":"三角崙山 (Sānjiǎo Lúnshān)","coordinates":[121.7298,24.8591]},{"code":"BV/NT-021","program":"sota","name":"大桶山 (Dà Tǒng Shān)","coordinates":[121.5631,24.8761]},{"code":"BV/NT-023","program":"sota","name":"呂奔山 (Lǚ Bēn Shān)","coordinates":[121.6058,24.8633]},{"code":"BV/NT-026","program":"sota","name":"火燒寮山 (Huǒ Shāo Liáo Shān)","coordinates":[121.7182,24.9745]},{"code":"BV/NT-031","program":"sota","name":"直潭山 (Zhí Tán Shān)","coordinates":[121.5677,24.9208]},{"code":"BV/NT-035","program":"sota","name":"二格山 (Èr Gé Shān)","coordinates":[121.6196,24.9672]},{"code":"BV/NT-039","program":"sota","name":"皇帝殿東峰 (Huáng Dì Diàn East Peak)","coordinates":[121.6881,24.9953]},{"code":"BV/NT-044","program":"sota","name":"九紀山 (Jiǔ Jì Shān)","coordinates":[121.6081,24.9178]}]}