{"lat":25,"lon":55.75,"programs":["pota","sota"],"count":6,"references":[{"code":"AE-0047","program":"pota","name":"Jebel Buhais Archeological Reserve","coordinates":[55.7979,25.0201]},{"code":"AE-0050","program":"pota","name":"محمية حزام غابات المنتثر Al Muntather Greenbelt Protected Area","coordinates":[55.7599,25.1909]},{"code":"AE-0051","program":"pota","name":"Al Briddi Protected Area","coordinates":[55.9448,25.2466]},{"code":"AE-0076","program":"pota","name":"Lemdynah Protected Area","coordinates":[55.9671,25.0227]},{"code":"AE-0113","program":"pota","name":"Mleiha National Park","coordinates":[55.8321,25.1289]},{"code":"A6/SH-015","program":"sota","name":"Jabal Mulayḩah","coordinates":[55.8369,25.1478]}]}