{"lat":25,"lon":56,"programs":["pota","sota"],"count":35,"references":[{"code":"AE-0061","program":"pota","name":"Wadi Sahm Petroglyph Archeological Reserve","coordinates":[56.2094,25.1127]},{"code":"AE-0081","program":"pota","name":"Al Hayl Fort Historic Site","coordinates":[56.2272,25.0847]},{"code":"AE-0083","program":"pota","name":"Al Riham National Geologic Trail","coordinates":[56.215,25.1108]},{"code":"AE-0084","program":"pota","name":"Saham-Al Hayl National Geologic Trail","coordinates":[56.2138,25.0965]},{"code":"AE-0092","program":"pota","name":"Bithnah Fort Historic Site","coordinates":[56.2381,25.1866]},{"code":"AE-0093","program":"pota","name":"Farfar Ruins National Heritage Area","coordinates":[56.235,25.1395]},{"code":"A6/FU-007","program":"sota","name":"Jabal Ḩayl","coordinates":[56.2278,25.0578]},{"code":"A6/FU-008","program":"sota","name":"Jabal Mimdūk","coordinates":[56.1864,25.1406]},{"code":"A6/FU-012","program":"sota","name":"Jabal Buta","coordinates":[56.2239,25.1117]},{"code":"A6/FU-015","program":"sota","name":"Jabal Sījī","coordinates":[56.1236,25.2444]},{"code":"A6/RK-007","program":"sota","name":"A6/RK-007","coordinates":[56.17,25.1042]},{"code":"A6/RK-009","program":"sota","name":"A6/RK-009","coordinates":[56.1591,25.1259]},{"code":"A6/RK-010","program":"sota","name":"Jabal Samāḩ","coordinates":[56.1708,25.1258]},{"code":"A6/RK-011","program":"sota","name":"A6/RK-011","coordinates":[56.1183,25.0739]},{"code":"A6/RK-013","program":"sota","name":"A6/RK-013","coordinates":[56.1417,25.0892]},{"code":"A6/RK-014","program":"sota","name":"Jabal Najdayn","coordinates":[56.1725,25.1814]},{"code":"A6/RK-015","program":"sota","name":"Jabal Mazārī‘","coordinates":[56.1394,25.1319]},{"code":"A6/RK-016","program":"sota","name":"A6/RK-016","coordinates":[56.1744,25.0275]},{"code":"A6/RK-018","program":"sota","name":"Jabal Khānah","coordinates":[56.1009,25.0663]},{"code":"A6/RK-019","program":"sota","name":"Jabal Bulaydah","coordinates":[56.1769,25.2186]},{"code":"A6/RK-020","program":"sota","name":"A6/RK-020","coordinates":[56.0772,25.02]},{"code":"A6/RK-022","program":"sota","name":"A6/RK-022","coordinates":[56.09,25.0525]},{"code":"A6/RK-023","program":"sota","name":"A6/RK-023","coordinates":[56.1386,25.0356]},{"code":"A6/RK-025","program":"sota","name":"A6/RK-025","coordinates":[56.1306,25.2064]},{"code":"A6/RK-026","program":"sota","name":"Jabal Dārah","coordinates":[56.0839,25.1172]},{"code":"A6/RK-027","program":"sota","name":"A6/RK-027","coordinates":[56.115,25.0144]},{"code":"A6/RK-029","program":"sota","name":"A6/RK-029","coordinates":[56.0992,25.0244]},{"code":"A6/RK-030","program":"sota","name":"Jabal Kuwayzī","coordinates":[56.1253,25.145]},{"code":"A6/RK-031","program":"sota","name":"A6/RK-031","coordinates":[56.0583,25.0175]},{"code":"A6/RK-033","program":"sota","name":"Jabal Sharab","coordinates":[56.0342,25.0128]},{"code":"A6/RK-035","program":"sota","name":"Jabal Ḩālah","coordinates":[56.0414,25.0689]},{"code":"A6/RK-040","program":"sota","name":"Jabal al Ḩasan","coordinates":[56.0928,25.1461]},{"code":"A6/RK-043","program":"sota","name":"Jabal Silḩū Bilḩū","coordinates":[56.0675,25.1514]},{"code":"A6/RK-044","program":"sota","name":"A6/RK-044","coordinates":[56.0664,25.1153]},{"code":"A6/SH-001","program":"sota","name":"A6/SH-001","coordinates":[56.2114,25.0478]}]}