{"lat":25.25,"lon":56.25,"programs":["iota","pota","sota"],"count":17,"references":[{"code":"AS-124","program":"iota","name":"GULF OF OMAN group","coordinates":[56.344999315,25.295000075]},{"code":"AE-0068","program":"pota","name":"Al-'Iqqah Marine Protected Area","coordinates":[56.3635,25.4887]},{"code":"AE-0071","program":"pota","name":"Al Bidiya Marine Protected Area","coordinates":[56.3646,25.4225]},{"code":"AE-0072","program":"pota","name":"Wadi Wurrayah Biosphere Reserve","coordinates":[56.2543,25.4436]},{"code":"AE-0085","program":"pota","name":"Ain Ghamour National Scenic Trail","coordinates":[56.3479,25.2713]},{"code":"AE-0058","program":"pota","name":"Nahwa Archaelogical Center Historic Site","coordinates":[56.2828,25.2698]},{"code":"AE-0060","program":"pota","name":"Wadi Shie Archeological Reserve","coordinates":[56.3184,25.3522]},{"code":"A6/FU-018","program":"sota","name":"A6/FU-018","coordinates":[56.2764,25.4236]},{"code":"A6/FU-025","program":"sota","name":"Jabal ‘Aqqah","coordinates":[56.3336,25.4844]},{"code":"A6/FU-028","program":"sota","name":"A6/FU-028","coordinates":[56.295,25.4397]},{"code":"A6/FU-032","program":"sota","name":"Jabal Badīyah","coordinates":[56.3422,25.4593]},{"code":"A6/FU-038","program":"sota","name":"Jabal Shi‘āb ash Shaybah","coordinates":[56.3042,25.4007]},{"code":"A6/SH-003","program":"sota","name":"Jabal Şihā’","coordinates":[56.2768,25.3384]},{"code":"A6/SH-008","program":"sota","name":"A6/SH-008","coordinates":[56.2932,25.2769]},{"code":"A6/SH-010","program":"sota","name":"A6/SH-010","coordinates":[56.3097,25.3325]},{"code":"A6/SH-011","program":"sota","name":"Jabal al ‘Uwayyin","coordinates":[56.3233,25.3606]},{"code":"A6/SH-014","program":"sota","name":"Jabal Khawr Fakkān","coordinates":[56.3658,25.3342]}]}