{"lat":25.75,"lon":117.25,"programs":["pota"],"count":9,"references":[{"code":"CN-0611","program":"pota","name":"福建永安北陵风景区 Mountain Park","coordinates":[117.322,25.9615]},{"code":"CN-0633","program":"pota","name":"福建永安龟山公园 Regional Park","coordinates":[117.361,25.9859]},{"code":"CN-0634","program":"pota","name":"福建永安北塔公园 Regional Park","coordinates":[117.364,25.9918]},{"code":"CN-0635","program":"pota","name":"福建永安虎形山登山公园 Mountain Park","coordinates":[117.338,25.9699]},{"code":"CN-0636","program":"pota","name":"福建永安南塔公园 Regional Park","coordinates":[117.359,25.9674]},{"code":"CN-0637","program":"pota","name":"福建永安将军山森林公园 Regional Park","coordinates":[117.372,25.9556]},{"code":"CN-0638","program":"pota","name":"福建永安南山公园 Regional Park","coordinates":[117.358,25.9458]},{"code":"CN-0639","program":"pota","name":"福建永安城南公园 Regional Park","coordinates":[117.362,25.9406]},{"code":"CN-1101","program":"pota","name":"福建九龙竹海国家森林公园 National Forest","coordinates":[117.455,25.9789]}]}