{"lat":26.5,"lon":127.75,"programs":["pota","sota"],"count":6,"references":[{"code":"JP-0218","program":"pota","name":"Okinawa Kinen National Government Park","coordinates":[127.88,26.6919]},{"code":"JP-1783","program":"pota","name":"Nago Chuo Prefectural Park","coordinates":[127.992,26.5878]},{"code":"JA6/ON-004","program":"sota","name":"Yaedake","coordinates":[127.9284,26.6355]},{"code":"JA6/ON-021","program":"sota","name":"JA6/ON-021","coordinates":[127.9378,26.6706]},{"code":"JA6/ON-024","program":"sota","name":"Kochiyayama","coordinates":[127.971,26.5228]},{"code":"JA6/ON-049","program":"sota","name":"Gusukuyama","coordinates":[127.8071,26.7198]}]}