{"lat":27,"lon":-80.25,"programs":["pota"],"count":5,"references":[{"code":"US-0241","program":"pota","name":"Hobe Sound National Wildlife Refuge","coordinates":[-80.1119,27.0369]},{"code":"US-1887","program":"pota","name":"Jonathan Dickinson State Park","coordinates":[-80.1013,27.0035]},{"code":"US-3655","program":"pota","name":"Seabranch Preserve State Park","coordinates":[-80.1695,27.1305]},{"code":"US-3657","program":"pota","name":"St. Lucie Inlet Preserve State Park","coordinates":[-80.1502,27.1438]},{"code":"US-6284","program":"pota","name":"Atlantic Ridge Preserve State Park","coordinates":[-80.2413,27.1031]}]}