{"lat":28,"lon":-17,"programs":["pota"],"count":5,"references":[{"code":"ES-1741","program":"pota","name":"Montaña de Tejina Natura 2000","coordinates":[-16.7534,28.1892]},{"code":"ES-1745","program":"pota","name":"Barranco de Erques Natura 2000","coordinates":[-16.7818,28.1629]},{"code":"ES-1755","program":"pota","name":"Barranco de Niágara Natura 2000","coordinates":[-16.7658,28.1931]},{"code":"ES-2318","program":"pota","name":"Franja marina Teno-Rasca Natura 2000","coordinates":[-16.8918,28.1932]},{"code":"ES-2369","program":"pota","name":"Espacio marino de La Gomera-Teno Natura 2000","coordinates":[-16.976,28.1717]}]}