{"lat":28,"lon":-16.75,"programs":["gma","pota","sota","wwbota"],"count":28,"references":[{"code":"EC8/TF-009","program":"gma","name":"Le Catedral","coordinates":[-16.63472,28.2225]},{"code":"ES-0219","program":"pota","name":"Corona Forestal Nature Park","coordinates":[-16.5383,28.2488]},{"code":"ES-1732","program":"pota","name":"Montaña Roja Natura 2000","coordinates":[-16.5485,28.0294]},{"code":"ES-1733","program":"pota","name":"Malpaís de la Rasca Natura 2000","coordinates":[-16.6933,28.0012]},{"code":"ES-1734","program":"pota","name":"Barranco del Infierno Natura 2000","coordinates":[-16.7238,28.1272]},{"code":"ES-1738","program":"pota","name":"Montañas de Ifara y Los Riscos Natura 2000","coordinates":[-16.528,28.0913]},{"code":"ES-1739","program":"pota","name":"Roque de Jama Natura 2000","coordinates":[-16.6435,28.0892]},{"code":"ES-1756","program":"pota","name":"Barranco de Orchilla Natura 2000","coordinates":[-16.6085,28.1113]},{"code":"ES-2366","program":"pota","name":"Rasca y Guaza Natura 2000","coordinates":[-16.6942,28.0328]},{"code":"ES-2372","program":"pota","name":"Sebadales del sur de Tenerife Natura 2000","coordinates":[-16.5868,28.0209]},{"code":"ES-2380","program":"pota","name":"Montaña de Guaza Natural Monument","coordinates":[-16.6964,28.0424]},{"code":"ES-2381","program":"pota","name":"Caldera del Rey Natural Monument","coordinates":[-16.7157,28.0814]},{"code":"ES-2382","program":"pota","name":"Derriscaderos Natural Monument","coordinates":[-16.5227,28.1065]},{"code":"ES-2383","program":"pota","name":"Montana Colorada Natural Monument","coordinates":[-16.6089,28.1434]},{"code":"ES-2384","program":"pota","name":"La Montaña Amarilla Natural Monument","coordinates":[-16.6353,28.0111]},{"code":"ES-2386","program":"pota","name":"Montaña Pelada Natural Monument","coordinates":[-16.5199,28.0644]},{"code":"ES-2393","program":"pota","name":"Piña de mar de Granadilla Natura 2000","coordinates":[-16.5072,28.0739]},{"code":"EA8/TF-002","program":"sota","name":"Guajara","coordinates":[-16.6118,28.2169]},{"code":"EA8/TF-003","program":"sota","name":"Roque de la Grieta","coordinates":[-16.5866,28.2276]},{"code":"EA8/TF-004","program":"sota","name":"El Sombrero","coordinates":[-16.667,28.2072]},{"code":"EA8/TF-005","program":"sota","name":"Montaña del Cedro","coordinates":[-16.6987,28.2258]},{"code":"EA8/TF-006","program":"sota","name":"Colorados de Chinoia","coordinates":[-16.692,28.2176]},{"code":"EA8/TF-010","program":"sota","name":"Roque del Conde","coordinates":[-16.6984,28.1043]},{"code":"EA8/TF-014","program":"sota","name":"Roque de Jama","coordinates":[-16.643,28.0886]},{"code":"EA8/TF-016","program":"sota","name":"Guaza","coordinates":[-16.6909,28.0513]},{"code":"EA8/TF-019","program":"sota","name":"Rojar","coordinates":[-16.5489,28.0271]},{"code":"B/EA-0135","program":"wwbota","name":"Defensa Costera La Mareta","coordinates":[-16.577178,28.030368]},{"code":"B/EA-0136","program":"wwbota","name":"Bunker Montaña Bocinero","coordinates":[-16.540891,28.032238]}]}