{"lat":28,"lon":129.25,"programs":["gma","pota","sota"],"count":13,"references":[{"code":"XJA6/KG-141","program":"gma","name":"Oohama","coordinates":[129.2681,28.1567]},{"code":"XJA6/KG-190","program":"gma","name":"Kakeromajima","coordinates":[129.2674,28.1587]},{"code":"JP-0031","program":"pota","name":"Amamigunto National Park","coordinates":[129.309,28.2426]},{"code":"JA6/KG-072","program":"sota","name":"Aminoko","coordinates":[129.3638,28.189]},{"code":"JA6/KG-077","program":"sota","name":"Yuidake","coordinates":[129.3134,28.1837]},{"code":"JA6/KG-082","program":"sota","name":"JA6/KG-082","coordinates":[129.3291,28.1971]},{"code":"JA6/KG-099","program":"sota","name":"Kiyanmayama","coordinates":[129.3318,28.1531]},{"code":"JA6/KG-109","program":"sota","name":"JA6/KG-109","coordinates":[129.3049,28.2404]},{"code":"JA6/KG-131","program":"sota","name":"JA6/KG-131","coordinates":[129.2757,28.1018]},{"code":"JA6/KG-134","program":"sota","name":"Kaitsuuzaki","coordinates":[129.3745,28.1233]},{"code":"JA6/KG-137","program":"sota","name":"Morozumi","coordinates":[129.3442,28.0973]},{"code":"JA6/KG-154","program":"sota","name":"Kanengodake","coordinates":[129.4311,28.2142]},{"code":"JA6/KG-190","program":"sota","name":"Kakeromajima","coordinates":[129.2674,28.1587]}]}