{"lat":28.25,"lon":129.25,"programs":["sota"],"count":5,"references":[{"code":"JA6/KG-029","program":"sota","name":"Yuwandake","coordinates":[129.3211,28.2961]},{"code":"JA6/KG-062","program":"sota","name":"Ogawadake","coordinates":[129.3333,28.3354]},{"code":"JA6/KG-076","program":"sota","name":"Takabachiyama","coordinates":[129.4195,28.2892]},{"code":"JA6/KG-083","program":"sota","name":"Matsunagayama","coordinates":[129.4659,28.3258]},{"code":"JA6/KG-106","program":"sota","name":"Ashiken","coordinates":[129.2525,28.2904]}]}