{"lat":28.5,"lon":-14,"programs":["pota","sota"],"count":14,"references":[{"code":"ES-0216","program":"pota","name":"Corralejo Nature Park","coordinates":[-13.8317,28.691]},{"code":"ES-1678","program":"pota","name":"Malpaís de la Arena Nature Monument","coordinates":[-13.9203,28.6392]},{"code":"ES-2292","program":"pota","name":"Costa del norte de Fuerteventura Natura 2000","coordinates":[-13.9496,28.7291]},{"code":"EA8/FU-003","program":"sota","name":"Aceitunal","coordinates":[-13.9584,28.5471]},{"code":"EA8/FU-005","program":"sota","name":"Tindaya","coordinates":[-13.9766,28.5964]},{"code":"EA8/FU-008","program":"sota","name":"Montaña de la Muda","coordinates":[-13.9592,28.572]},{"code":"EA8/FU-010","program":"sota","name":"Cuchilos","coordinates":[-13.9665,28.5135]},{"code":"EA8/FU-016","program":"sota","name":"Montaña del Ecanfraga","coordinates":[-13.8889,28.6202]},{"code":"EA8/FU-017","program":"sota","name":"Montaña de Enmedio","coordinates":[-13.9511,28.5841]},{"code":"EA8/FU-018","program":"sota","name":"Morro Tabaiba","coordinates":[-13.9441,28.5917]},{"code":"EA8/FU-031","program":"sota","name":"Montaña del Arena","coordinates":[-13.929,28.6338]},{"code":"EA8/FU-036","program":"sota","name":"Montaña de Caima","coordinates":[-13.8689,28.6252]},{"code":"EA8/FU-039","program":"sota","name":"Roja","coordinates":[-13.8417,28.637]},{"code":"EA8/FU-042","program":"sota","name":"Calderón Hondo","coordinates":[-13.921,28.6987]}]}