{"lat":29,"lon":-13.5,"programs":["pota","sota"],"count":5,"references":[{"code":"ES-1691","program":"pota","name":"La Corona Natura 2000","coordinates":[-13.4488,29.1814]},{"code":"ES-1694","program":"pota","name":"Los Jameos Natura 2000","coordinates":[-13.4259,29.1518]},{"code":"ES-2036","program":"pota","name":"Lanzarote Biosphere Reserve","coordinates":[-13.4726,29.0215]},{"code":"EA8/LA-003","program":"sota","name":"Corona","coordinates":[-13.4838,29.1867]},{"code":"EA8/LA-020","program":"sota","name":"Montaña Tinamala","coordinates":[-13.4839,29.0603]}]}