{"lat":29.25,"lon":-13.75,"programs":["pota","sota"],"count":6,"references":[{"code":"ES-1689","program":"pota","name":"Islotes del norte de Lanzarote y Famara Natura 2000","coordinates":[-13.5328,29.2979]},{"code":"ES-1966","program":"pota","name":"Geoparque LANZAROTE Y ARCHIPIÉLAGO CHINIJO Geopark","coordinates":[-13.5151,29.3216]},{"code":"EA8/LA-022","program":"sota","name":"Alegranza","coordinates":[-13.5232,29.3896]},{"code":"EA8/LA-023","program":"sota","name":"Agujas Grandes","coordinates":[-13.5034,29.2524]},{"code":"EA8/LA-024","program":"sota","name":"Montaña Clara","coordinates":[-13.5348,29.2988]},{"code":"EA8/LA-025","program":"sota","name":"Montaña Lobos","coordinates":[-13.5039,29.3925]}]}