{"lat":29.5,"lon":-83,"programs":["pota"],"count":8,"references":[{"code":"US-1865","program":"pota","name":"Fanning Springs State Park","coordinates":[-82.9355,29.5893]},{"code":"US-3640","program":"pota","name":"Nature Coast State Trail","coordinates":[-82.924,29.5824]},{"code":"US-6286","program":"pota","name":"Andrews Wildlife Management Area","coordinates":[-82.9392,29.5333]},{"code":"US-8688","program":"pota","name":"Lindsey State Conservation Area","coordinates":[-82.9441,29.6986]},{"code":"US-8696","program":"pota","name":"Purvis Landing, Otter Springs, Shingle Lndg State Conservation Area","coordinates":[-82.9431,29.6441]},{"code":"US-8706","program":"pota","name":"Sunnyvale State Conservation Area","coordinates":[-82.9986,29.5139]},{"code":"US-10554","program":"pota","name":"Suwannee Street State Conservation Area","coordinates":[-82.9359,29.7458]},{"code":"US-10593","program":"pota","name":"New Pine Landing State Conservation Area","coordinates":[-82.9729,29.5236]}]}