{"lat":3,"lon":101.5,"programs":["pota","sota"],"count":8,"references":[{"code":"MY-0175","program":"pota","name":"Hutan Simpan Ayer Hitam National Park","coordinates":[101.63,3.02484]},{"code":"MY-0154","program":"pota","name":"Permaisuri Lake Recreation Park","coordinates":[101.72,3.09682]},{"code":"MY-0164","program":"pota","name":"Taman Tasik Titiwangsa Recreation Park","coordinates":[101.707,3.17803]},{"code":"9M2/KL-001","program":"sota","name":"Bukit Besi","coordinates":[101.7305,3.0708]},{"code":"9M2/KL-003","program":"sota","name":"Bukit Kiara","coordinates":[101.636,3.1585]},{"code":"9M2/SE-021","program":"sota","name":"Bukit Tabur West","coordinates":[101.7388,3.2369]},{"code":"9M2/SE-022","program":"sota","name":"Bukit Batu Caves","coordinates":[101.6911,3.2421]},{"code":"9M2/SE-023","program":"sota","name":"Bukit Lanjan","coordinates":[101.612,3.1776]}]}