{"lat":3.25,"lon":101.75,"programs":["sota"],"count":6,"references":[{"code":"9M2/PH-020","program":"sota","name":"Gunung Nuang","coordinates":[101.8997,3.266]},{"code":"9M2/PH-022","program":"sota","name":"Gunung Lentang Legong","coordinates":[101.8684,3.2704]},{"code":"9M2/PH-030","program":"sota","name":"Bukit Tinggi","coordinates":[101.8428,3.3888]},{"code":"9M2/SE-002","program":"sota","name":"Gunung Hulu Kali","coordinates":[101.7834,3.4328]},{"code":"9M2/SE-004","program":"sota","name":"Bukit Tunggul","coordinates":[101.7766,3.4611]},{"code":"9M2/SE-008","program":"sota","name":"Bukit Medang","coordinates":[101.8099,3.4679]}]}