{"lat":3.75,"lon":97.25,"programs":["sota"],"count":8,"references":[{"code":"YBS/AC-004","program":"sota","name":"Bur Karang Putih","coordinates":[97.2549,3.7893]},{"code":"YBS/AC-023","program":"sota","name":"YBS/AC-023","coordinates":[97.3222,3.7781]},{"code":"YBS/AC-025","program":"sota","name":"Bur Pantan Dedalu","coordinates":[97.3557,3.7889]},{"code":"YBS/AC-028","program":"sota","name":"YBS/AC-028","coordinates":[97.3811,3.7594]},{"code":"YBS/AC-030","program":"sota","name":"Bur Tetinggi","coordinates":[97.2719,3.9219]},{"code":"YBS/AC-033","program":"sota","name":"YBS/AC-033","coordinates":[97.3562,3.8153]},{"code":"YBS/AC-036","program":"sota","name":"Bur Blang Dedep","coordinates":[97.4351,3.7921]},{"code":"YBS/AC-048","program":"sota","name":"YBS/AC-048","coordinates":[97.4045,3.8486]}]}