{"lat":30.25,"lon":-104,"programs":["sota"],"count":14,"references":[{"code":"W5T/DN-010","program":"sota","name":"Paisano Peak","coordinates":[-103.7758,30.3069]},{"code":"W5T/DN-011","program":"sota","name":"6020","coordinates":[-103.7604,30.2915]},{"code":"W5T/PU-001","program":"sota","name":"North Twin Mountains","coordinates":[-103.8277,30.4185]},{"code":"W5T/PU-002","program":"sota","name":"South Twin Mountains","coordinates":[-103.8415,30.4051]},{"code":"W5T/PU-003","program":"sota","name":"Puertacitas Mountains HP","coordinates":[-103.9328,30.4527]},{"code":"W5T/PU-004","program":"sota","name":"Mitre Peak","coordinates":[-103.7874,30.4632]},{"code":"W5T/PU-005","program":"sota","name":"Crenshaw Mountain","coordinates":[-103.8253,30.3615]},{"code":"W5T/PU-006","program":"sota","name":"5970","coordinates":[-103.828,30.496]},{"code":"W5T/PU-007","program":"sota","name":"Castle Rock","coordinates":[-103.8169,30.4464]},{"code":"W5T/PU-008","program":"sota","name":"The Haystack","coordinates":[-103.7704,30.4119]},{"code":"W5T/PU-009","program":"sota","name":"Antelope Peak","coordinates":[-103.8037,30.4586]},{"code":"W5T/PU-011","program":"sota","name":"5642","coordinates":[-103.7769,30.4941]},{"code":"W5T/PU-014","program":"sota","name":"5430","coordinates":[-103.7925,30.4406]},{"code":"W5T/PU-019","program":"sota","name":"5700","coordinates":[-103.7545,30.4401]}]}