{"lat":30.25,"lon":-83,"programs":["pota"],"count":15,"references":[{"code":"US-1919","program":"pota","name":"Stephen Foster Folk Culture Center State Park","coordinates":[-82.7674,30.3316]},{"code":"US-8682","program":"pota","name":"Allardt State Conservation Area","coordinates":[-82.9967,30.4074]},{"code":"US-8691","program":"pota","name":"Mattair Springs State Conservation Area","coordinates":[-82.9038,30.3828]},{"code":"US-8705","program":"pota","name":"Stephen Foster State Conservation Area","coordinates":[-82.769,30.3242]},{"code":"US-8707","program":"pota","name":"Sugar Creek State Conservation Area","coordinates":[-82.9411,30.4004]},{"code":"US-8708","program":"pota","name":"Swift Creek State Conservation Area","coordinates":[-82.8163,30.342]},{"code":"US-8716","program":"pota","name":"Woods Ferry State Conservation Area","coordinates":[-82.8554,30.3434]},{"code":"US-10552","program":"pota","name":"Fox Trail State Conservation Area","coordinates":[-82.9635,30.4136]},{"code":"US-10559","program":"pota","name":"Camp Branch State Conservation Area","coordinates":[-82.8789,30.3781]},{"code":"US-10592","program":"pota","name":"Big Pine Tract State Conservation Area","coordinates":[-82.7689,30.3242]},{"code":"US-10601","program":"pota","name":"Suwannee Springs Park State Conservation Area","coordinates":[-82.9355,30.3932]},{"code":"US-10602","program":"pota","name":"Linville State Conservation Area","coordinates":[-82.929,30.379]},{"code":"US-10603","program":"pota","name":"Rocky Creek State Conservation Area","coordinates":[-82.8364,30.3397]},{"code":"US-10604","program":"pota","name":"Blue Sink State Conservation Area","coordinates":[-82.8085,30.3353]},{"code":"US-10620","program":"pota","name":"Jerry Branch State Conservation Area","coordinates":[-82.8597,30.3687]}]}