{"lat":30.5,"lon":117,"programs":["pota"],"count":5,"references":[{"code":"CN-0344","program":"pota","name":"安徽安庆秦潭湖公园 Wetland Management District","coordinates":[117.139,30.5402]},{"code":"CN-0347","program":"pota","name":"安徽安庆菱湖公园 Park","coordinates":[117.048,30.5205]},{"code":"CN-0348","program":"pota","name":"安徽安庆康熙河景观带 Regional Park","coordinates":[117.102,30.5292]},{"code":"CN-0349","program":"pota","name":"安徽安庆莲湖公园 Park","coordinates":[117.056,30.5183]},{"code":"CN-0350","program":"pota","name":"安徽铜陵旗山汉武文化生态园 Park","coordinates":[117.24,30.7021]}]}