{"lat":30.5,"lon":-98.75,"programs":["gma","sota"],"count":6,"references":[{"code":"K5T/EF-003","program":"gma","name":"Packsaddle Mountain","coordinates":[-98.5094986,30.62730026]},{"code":"W5T/NT-026","program":"sota","name":"Cedar Mountain","coordinates":[-98.6541,30.5176]},{"code":"W5T/NT-029","program":"sota","name":"Riley Mountains HP","coordinates":[-98.6485,30.6094]},{"code":"W5T/NT-030","program":"sota","name":"Packsaddle Mountain","coordinates":[-98.5095,30.6273]},{"code":"W5T/NT-031","program":"sota","name":"Sharp Mountain","coordinates":[-98.6456,30.6888]},{"code":"W5T/NT-032","program":"sota","name":"Walker Peak","coordinates":[-98.5998,30.5563]}]}