{"lat":30.5,"lon":-104,"programs":["pota","sota"],"count":10,"references":[{"code":"US-0816","program":"pota","name":"Fort Davis National Historic Site","coordinates":[-103.903,30.5952]},{"code":"US-3003","program":"pota","name":"Davis Mountains State Park","coordinates":[-103.929,30.5991]},{"code":"W5T/DE-001","program":"sota","name":"Black Mountain","coordinates":[-103.9818,30.7227]},{"code":"W5T/DE-016","program":"sota","name":"Casket Mountain","coordinates":[-103.9232,30.6438]},{"code":"W5T/DE-017","program":"sota","name":"6177","coordinates":[-103.8799,30.7209]},{"code":"W5T/DE-020","program":"sota","name":"Arabella Mountain","coordinates":[-103.9955,30.6224]},{"code":"W5T/DE-023","program":"sota","name":"5212","coordinates":[-103.7802,30.7107]},{"code":"W5T/PU-010","program":"sota","name":"Musquiz Benchmark","coordinates":[-103.779,30.5077]},{"code":"W5T/PU-013","program":"sota","name":"Hend Benchmark","coordinates":[-103.7528,30.5476]},{"code":"W5T/PU-015","program":"sota","name":"5415","coordinates":[-103.8335,30.5209]}]}