{"lat":30.75,"lon":120,"programs":["pota"],"count":16,"references":[{"code":"CN-0106","program":"pota","name":"浙江湖州-西山漾湿地公园 Wetland Reserve","coordinates":[120.161,30.8635]},{"code":"CN-0107","program":"pota","name":"浙江湖州-湖州长岛公园 Regional Park","coordinates":[120.099,30.8905]},{"code":"CN-0117","program":"pota","name":"浙江湖州余家漾公园 Regional Park","coordinates":[120.154,30.8638]},{"code":"CN-0118","program":"pota","name":"浙江湖州长田漾湿地公园 Regional Park","coordinates":[120.088,30.9342]},{"code":"CN-0119","program":"pota","name":"浙江湖州飞英公园 Regional Park","coordinates":[120.102,30.8758]},{"code":"CN-0121","program":"pota","name":"浙江湖州潘家廊 Regional Park","coordinates":[120.12,30.8695]},{"code":"CN-0122","program":"pota","name":"浙江湖州山水清音景区 Regional Park","coordinates":[120.06,30.8899]},{"code":"CN-0123","program":"pota","name":"浙江湖州仁皇山风景区 Mountain Park","coordinates":[120.065,30.8955]},{"code":"CN-0137","program":"pota","name":"浙江湖州莲花庄公园 Regional Park","coordinates":[120.1,30.8595]},{"code":"CN-0159","program":"pota","name":"浙江湖州菱湖湿地公园 Wetland Reserve","coordinates":[120.114,30.7548]},{"code":"CN-0229","program":"pota","name":"浙江湖州湖州梁希森林公园 Forest Reserve","coordinates":[120.071,30.7939]},{"code":"CN-0310","program":"pota","name":"浙江湖州钱山漾遗址 National Historic Site","coordinates":[120.143,30.8153]},{"code":"CN-0974","program":"pota","name":"浙江湖州东苕溪水云绿道 Regional Park","coordinates":[120.105,30.8437]},{"code":"CN-0975","program":"pota","name":"浙江湖州金盖山风景区 Scenic Site","coordinates":[120.091,30.8051]},{"code":"CN-0976","program":"pota","name":"浙江湖州月亮广场 Regional Park","coordinates":[120.101,30.9557]},{"code":"CN-0977","program":"pota","name":"浙江湖州小梅港体育公园 Regional Park","coordinates":[120.098,30.9051]}]}