{"lat":31,"lon":120.5,"programs":["pota"],"count":6,"references":[{"code":"CN-0402","program":"pota","name":"江苏苏州东太湖生态园 Wetland Reserve","coordinates":[120.594,31.1503]},{"code":"CN-0604","program":"pota","name":"江苏苏州胜地生态公园 Regional Park","coordinates":[120.651,31.0828]},{"code":"CN-0647","program":"pota","name":"江苏苏州尹山湖运动公园 Regional Park","coordinates":[120.679,31.2369]},{"code":"CN-1005","program":"pota","name":"江苏苏州石湖 Regional Park","coordinates":[120.594,31.244]},{"code":"CN-1007","program":"pota","name":"江苏苏州温泉营地 Regional Park","coordinates":[120.584,31.0812]},{"code":"CN-1103","program":"pota","name":"江苏上方山国家森林公园 National Forest","coordinates":[120.579,31.2459]}]}