{"lat":31.25,"lon":130,"programs":["pota","sota"],"count":6,"references":[{"code":"JP-1763","program":"pota","name":"Bounoma Prefectural Nature Park","coordinates":[130.123,31.4217]},{"code":"JA6/KG-047","program":"sota","name":"Nomadake","coordinates":[130.1582,31.4045]},{"code":"JA6/KG-081","program":"sota","name":"Jinnoo","coordinates":[130.2242,31.3291]},{"code":"JA6/KG-086","program":"sota","name":"Kusanodake","coordinates":[130.2473,31.3042]},{"code":"JA6/KG-112","program":"sota","name":"Nishinooka","coordinates":[130.1819,31.3791]},{"code":"JA6/KG-175","program":"sota","name":"Banyayama","coordinates":[130.2458,31.2741]}]}