{"lat":31.25,"lon":130.25,"programs":["pota","sota"],"count":11,"references":[{"code":"JP-1772","program":"pota","name":"Fukiagehama Kaihin Prefectural Park","coordinates":[130.283,31.4365]},{"code":"JA6/KG-039","program":"sota","name":"Kinpouzan","coordinates":[130.3829,31.4677]},{"code":"JA6/KG-048","program":"sota","name":"Kumagatake","coordinates":[130.4639,31.4553]},{"code":"JA6/KG-049","program":"sota","name":"Kamaduka","coordinates":[130.4776,31.4259]},{"code":"JA6/KG-059","program":"sota","name":"Oosaka","coordinates":[130.4294,31.4706]},{"code":"JA6/KG-069","program":"sota","name":"Nagaoyama","coordinates":[130.2674,31.3803]},{"code":"JA6/KG-078","program":"sota","name":"Kuratayama","coordinates":[130.302,31.3398]},{"code":"JA6/KG-098","program":"sota","name":"Sagayamadake","coordinates":[130.353,31.3112]},{"code":"JA6/KG-103","program":"sota","name":"Kunimidake","coordinates":[130.3345,31.2944]},{"code":"JA6/KG-130","program":"sota","name":"Nakadake","coordinates":[130.3571,31.4316]},{"code":"JA6/KG-197","program":"sota","name":"Tategami","coordinates":[130.4467,31.492]}]}