{"lat":31.25,"lon":131.25,"programs":["gma","sota"],"count":6,"references":[{"code":"XJA6/MZ-126","program":"gma","name":"Sanbonmatsu","coordinates":[131.346,31.492]},{"code":"JA6/MZ-111","program":"sota","name":"Takahatayama","coordinates":[131.3357,31.4437]},{"code":"JA6/MZ-128","program":"sota","name":"Kameizan","coordinates":[131.3035,31.4937]},{"code":"JA6/MZ-135","program":"sota","name":"Fudatate","coordinates":[131.3323,31.3729]},{"code":"JA6/MZ-136","program":"sota","name":"Banya","coordinates":[131.3728,31.4837]},{"code":"JA6/MZ-163","program":"sota","name":"Sanbonmatsu","coordinates":[131.3437,31.4902]}]}