{"lat":31.5,"lon":-110.25,"programs":["pota","sota"],"count":9,"references":[{"code":"US-10514","program":"pota","name":"San Pedro Riparian BLM National Conservation Area","coordinates":[-110.134,31.5834]},{"code":"US-10518","program":"pota","name":"Tombstone Courthouse State Historical Park","coordinates":[-110.07,31.7127]},{"code":"W7A/CO-112","program":"sota","name":"5724","coordinates":[-110.0085,31.591]},{"code":"W7A/CO-133","program":"sota","name":"Tombstone Hills","coordinates":[-110.0672,31.6693]},{"code":"W7A/CO-143","program":"sota","name":"Government Benchmark","coordinates":[-110.0452,31.6586]},{"code":"W7A/CO-151","program":"sota","name":"Three Brothers Hills, The","coordinates":[-110.1294,31.7097]},{"code":"W7A/CO-153","program":"sota","name":"Dome, The","coordinates":[-110.1178,31.7112]},{"code":"W7A/CO-170","program":"sota","name":"4628","coordinates":[-110.1684,31.6465]},{"code":"W7A/CO-171","program":"sota","name":"4568","coordinates":[-110.1852,31.6422]}]}