{"lat":31.5,"lon":-111.5,"programs":["pota","sota"],"count":8,"references":[{"code":"US-11981","program":"pota","name":"Arivaca Lake State Wildlife Area","coordinates":[-111.254,31.5259]},{"code":"W7A/PE-031","program":"sota","name":"Colorado Benchmark","coordinates":[-111.2621,31.712]},{"code":"W7A/PE-033","program":"sota","name":"5132","coordinates":[-111.2706,31.7286]},{"code":"W7A/PE-043","program":"sota","name":"San Luis Mountains HP","coordinates":[-111.4025,31.5098]},{"code":"W7A/PE-051","program":"sota","name":"4692","coordinates":[-111.3941,31.5694]},{"code":"W7A/PE-054","program":"sota","name":"Las Guijas Mountains (HP)","coordinates":[-111.3684,31.6386]},{"code":"W7A/PE-060","program":"sota","name":"El Cerro","coordinates":[-111.3838,31.5831]},{"code":"W7A/SC-033","program":"sota","name":"Fraguita Peak","coordinates":[-111.3329,31.5069]}]}