{"lat":31.5,"lon":-111,"programs":["pota","sota"],"count":13,"references":[{"code":"US-4429","program":"pota","name":"Coronado National Forest","coordinates":[-110.76,31.7375]},{"code":"W7A/AE-014","program":"sota","name":"Mount Wrightson","coordinates":[-110.8483,31.6961]},{"code":"W7A/AE-027","program":"sota","name":"Mount Hopkins","coordinates":[-110.8846,31.6891]},{"code":"W7A/SC-001","program":"sota","name":"Josephine Peak","coordinates":[-110.8418,31.6809]},{"code":"W7A/SC-006","program":"sota","name":"6467","coordinates":[-110.8355,31.6124]},{"code":"W7A/SC-017","program":"sota","name":"San Cayetano Peak","coordinates":[-110.9624,31.5337]},{"code":"W7A/SC-022","program":"sota","name":"Elephant Head","coordinates":[-110.9391,31.7245]},{"code":"W7A/SC-026","program":"sota","name":"Grosvenor Hills","coordinates":[-110.8995,31.5452]},{"code":"W7A/SC-028","program":"sota","name":"5397","coordinates":[-110.8883,31.5672]},{"code":"W7A/SC-034","program":"sota","name":"5301","coordinates":[-110.9043,31.5776]},{"code":"W7A/SC-040","program":"sota","name":"5020","coordinates":[-110.8757,31.5501]},{"code":"W7A/SC-044","program":"sota","name":"4773","coordinates":[-110.9274,31.5856]},{"code":"W7A/SC-048","program":"sota","name":"5012","coordinates":[-110.9424,31.6751]}]}