{"lat":31.75,"lon":130.75,"programs":["pota","sota"],"count":9,"references":[{"code":"JP-0029","program":"pota","name":"Kirishima-Kinkowan National Park","coordinates":[130.877,31.9211]},{"code":"JP-1752","program":"pota","name":"Mochio Sekinoo Prefectural Nature Park","coordinates":[130.987,31.762]},{"code":"JP-2023","program":"pota","name":"Hinamoridai Kenmin Fureai no Mori Prefectural Park","coordinates":[130.94,31.9319]},{"code":"JA6/KG-003","program":"sota","name":"Kirishimayama (Karakunidake)","coordinates":[130.8616,31.9342]},{"code":"JA6/KG-009","program":"sota","name":"Kurinodake","coordinates":[130.7917,31.9546]},{"code":"JA6/KG-153","program":"sota","name":"Daira","coordinates":[130.878,31.7672]},{"code":"JA6/MZ-011","program":"sota","name":"Kirishimayama (Takachihonomine)","coordinates":[130.9189,31.8862]},{"code":"JA6/MZ-071","program":"sota","name":"Iimoriyama","coordinates":[130.7964,31.9817]},{"code":"JA6/MZ-140","program":"sota","name":"Hinamoridake","coordinates":[130.9094,31.9494]}]}