{"lat":31.75,"lon":-105,"programs":["pota","sota"],"count":9,"references":[{"code":"US-9757","program":"pota","name":"Butterfield Overland National Historic Trail","coordinates":[-104.827,31.896]},{"code":"US-0035","program":"pota","name":"Guadalupe Mountains National Park","coordinates":[-104.861,31.9475]},{"code":"W5T/GU-001","program":"sota","name":"Guadalupe Peak","coordinates":[-104.8608,31.8914]},{"code":"W5T/GU-002","program":"sota","name":"Bush Mountain","coordinates":[-104.8801,31.9296]},{"code":"W5T/GU-003","program":"sota","name":"Shumard Peak","coordinates":[-104.8744,31.9076]},{"code":"W5T/GU-004","program":"sota","name":"Hunter Peak","coordinates":[-104.8304,31.9139]},{"code":"W5T/GU-016","program":"sota","name":"Patterson Hills","coordinates":[-104.9094,31.7984]},{"code":"W5T/GU-017","program":"sota","name":"5065","coordinates":[-104.9101,31.8348]},{"code":"W5T/GU-018","program":"sota","name":"7916","coordinates":[-104.8335,31.9669]}]}