{"lat":31.75,"lon":35,"programs":["pota"],"count":11,"references":[{"code":"IL-0035","program":"pota","name":"Castel National Park","coordinates":[35.14,31.7974]},{"code":"IL-0062","program":"pota","name":"Sataf National Park","coordinates":[35.1117,31.7656]},{"code":"IL-0075","program":"pota","name":"Rabin Park National Park","coordinates":[35.0232,31.7923]},{"code":"IL-0076","program":"pota","name":"Kfira Nature Reserve National Park","coordinates":[35.0886,31.8316]},{"code":"IL-0077","program":"pota","name":"Neve Ilan Forest National Park","coordinates":[35.047,31.8109]},{"code":"IL-0078","program":"pota","name":"Einot Telem National Park","coordinates":[35.1723,31.8046]},{"code":"IL-0079","program":"pota","name":"Jerusalem Forest National Park","coordinates":[35.1688,31.7764]},{"code":"IL-0082","program":"pota","name":"Tzuba National Park","coordinates":[35.1285,31.7846]},{"code":"IL-0083","program":"pota","name":"Har Tayasim Nature Reserve","coordinates":[35.091,31.7742]},{"code":"IL-0084","program":"pota","name":"Judean Mountains National Park","coordinates":[35.093,31.8199]},{"code":"IL-0085","program":"pota","name":"Nahal Soreq Nature Reserve","coordinates":[35.0613,31.7553]}]}