{"lat":31.75,"lon":130.5,"programs":["gma","sota"],"count":14,"references":[{"code":"XJA6/KG-054","program":"gma","name":"Chayagaoka","coordinates":[130.6062,31.91]},{"code":"JA6/KG-028","program":"sota","name":"Eboshidake","coordinates":[130.6061,31.8749]},{"code":"JA6/KG-031","program":"sota","name":"Nagaodake","coordinates":[130.6347,31.8464]},{"code":"JA6/KG-033","program":"sota","name":"Yadomedake","coordinates":[130.5614,31.8591]},{"code":"JA6/KG-036","program":"sota","name":"Nakadake","coordinates":[130.5823,31.9026]},{"code":"JA6/KG-037","program":"sota","name":"Kunimidake","coordinates":[130.6368,31.9278]},{"code":"JA6/KG-067","program":"sota","name":"Kamite","coordinates":[130.5334,31.8389]},{"code":"JA6/KG-079","program":"sota","name":"Makurodake","coordinates":[130.5089,31.7662]},{"code":"JA6/KG-089","program":"sota","name":"JA6/KG-089","coordinates":[130.5418,31.9889]},{"code":"JA6/KG-095","program":"sota","name":"JA6/KG-095","coordinates":[130.5137,31.7766]},{"code":"JA6/KG-163","program":"sota","name":"Sengandake","coordinates":[130.5148,31.8089]},{"code":"JA6/KG-195","program":"sota","name":"Kaibukioka","coordinates":[130.6337,31.8882]},{"code":"JA6/KG-198","program":"sota","name":"JA6/KG-198","coordinates":[130.5033,31.7927]},{"code":"JA6/KG-199","program":"sota","name":"JA6/KG-199","coordinates":[130.5046,31.8029]}]}