{"lat":32,"lon":-110.25,"programs":["gma","sota"],"count":10,"references":[{"code":"XW7A/CO-109","program":"gma","name":"Johnny Lyon Hills","coordinates":[-110.23190308,32.13909912]},{"code":"W7A/CO-049","program":"sota","name":"Mae West Peaks West","coordinates":[-110.1254,32.0981]},{"code":"W7A/CO-050","program":"sota","name":"Lime Peak","coordinates":[-110.0945,32.112]},{"code":"W7A/CO-102","program":"sota","name":"Adams Peak","coordinates":[-110.1157,32.0339]},{"code":"W7A/CO-116","program":"sota","name":"Keith Peak","coordinates":[-110.2217,32.116]},{"code":"W7A/CO-123","program":"sota","name":"Behind The House Hill","coordinates":[-110.0937,32.0172]},{"code":"W7A/CO-125","program":"sota","name":"Gunnison Hills North","coordinates":[-110.0046,32.0723]},{"code":"W7A/CO-135","program":"sota","name":"Kelsey Benchmark","coordinates":[-110.2171,32.2348]},{"code":"W7A/CO-138","program":"sota","name":"Steele Hills","coordinates":[-110.0265,32.189]},{"code":"W7A/CO-177","program":"sota","name":"Johnny Lyon Hills","coordinates":[-110.2331,32.1361]}]}