{"lat":32,"lon":130,"programs":["pota","sota"],"count":8,"references":[{"code":"JP-1760","program":"pota","name":"Akune Prefectural Nature Park","coordinates":[130.176,32.1054]},{"code":"JA6/KG-101","program":"sota","name":"Oonakadake","coordinates":[130.1576,32.1587]},{"code":"JA6/KG-104","program":"sota","name":"Kasayama","coordinates":[130.226,32.1097]},{"code":"JA6/KG-170","program":"sota","name":"Yamadono","coordinates":[130.1626,32.1163]},{"code":"JA6/KG-200","program":"sota","name":"Maki","coordinates":[130.1879,32.1522]},{"code":"JA6/KM-075","program":"sota","name":"Gongenyama","coordinates":[130.0278,32.2342]},{"code":"JA6/KM-118","program":"sota","name":"Oodaira","coordinates":[130.0682,32.244]},{"code":"JA6/KM-131","program":"sota","name":"JA6/KM-131","coordinates":[130.02,32.2137]}]}