{"lat":32,"lon":130.25,"programs":["pota","sota"],"count":11,"references":[{"code":"JP-1735","program":"pota","name":"Minamata Koiki Prefectural Park","coordinates":[130.379,32.2016]},{"code":"JA6/KG-030","program":"sota","name":"Yahazudake","coordinates":[130.4007,32.1229]},{"code":"JA6/KG-034","program":"sota","name":"Satodayama","coordinates":[130.4289,32.1137]},{"code":"JA6/KG-053","program":"sota","name":"Kurodayama","coordinates":[130.4905,32.0715]},{"code":"JA6/KG-152","program":"sota","name":"Tsuchitoriyama","coordinates":[130.4594,32.0437]},{"code":"JA6/KG-196","program":"sota","name":"Heishirou","coordinates":[130.3982,32.031]},{"code":"JA6/KM-041","program":"sota","name":"Onidake","coordinates":[130.4636,32.1357]},{"code":"JA6/KM-049","program":"sota","name":"JA6/KM-049","coordinates":[130.4825,32.206]},{"code":"JA6/KM-054","program":"sota","name":"Niougiyama","coordinates":[130.4969,32.1811]},{"code":"JA6/KM-128","program":"sota","name":"Kumajinyama","coordinates":[130.4326,32.218]},{"code":"JA6/KM-135","program":"sota","name":"Akibayama","coordinates":[130.4194,32.2174]}]}