{"lat":32,"lon":-107.75,"programs":["pota","sota"],"count":7,"references":[{"code":"US-2713","program":"pota","name":"Rock Hound State Park","coordinates":[-107.612,32.186]},{"code":"W5N/FL-001","program":"sota","name":"Florida Mountains (HP)","coordinates":[-107.6229,32.1265]},{"code":"W5N/FL-002","program":"sota","name":"Gym Peak","coordinates":[-107.6048,32.066]},{"code":"W5N/FL-003","program":"sota","name":"7104","coordinates":[-107.6398,32.0675]},{"code":"W5N/FL-004","program":"sota","name":"South Peak","coordinates":[-107.6418,32.0551]},{"code":"W5N/FL-006","program":"sota","name":"Dragon Ridge","coordinates":[-107.6476,32.1606]},{"code":"W5N/FL-008","program":"sota","name":"Little Florida Mountains (HP)","coordinates":[-107.6051,32.1929]}]}