{"lat":32.25,"lon":-64.75,"programs":["iota","pota"],"count":15,"references":[{"code":"NA-005","program":"iota","name":"BERMUDA ISLANDS","coordinates":[-64.75,32.334999085]},{"code":"BM-0003","program":"pota","name":"Alexandra Battery Park","coordinates":[-64.6644,32.3803]},{"code":"BM-0006","program":"pota","name":"Blue Hole Park","coordinates":[-64.7097,32.3501]},{"code":"BM-0007","program":"pota","name":"Clearwater Beach Park","coordinates":[-64.6603,32.3552]},{"code":"BM-0008","program":"pota","name":"Coney Island Park","coordinates":[-64.7153,32.3585]},{"code":"BM-0009","program":"pota","name":"Cooper's Island Nature Reserve","coordinates":[-64.657,32.352]},{"code":"BM-0010","program":"pota","name":"Ferry Point Park","coordinates":[-64.7112,32.3657]},{"code":"BM-0011","program":"pota","name":"Fort St. Catherine Park","coordinates":[-64.6745,32.3905]},{"code":"BM-0012","program":"pota","name":"Gates Fort Park","coordinates":[-64.6633,32.3791]},{"code":"BM-0014","program":"pota","name":"Great Head Park","coordinates":[-64.6503,32.3681]},{"code":"BM-0016","program":"pota","name":"John Smith's Bay Park","coordinates":[-64.7132,32.3189]},{"code":"BM-0017","program":"pota","name":"Little Head Park","coordinates":[-64.6527,32.3712]},{"code":"BM-0018","program":"pota","name":"Paget Island Park","coordinates":[-64.6604,32.3752]},{"code":"BM-0024","program":"pota","name":"Tobacco Bay Park","coordinates":[-64.6783,32.3894]},{"code":"BM-0025","program":"pota","name":"Walsingham Nature Reserve","coordinates":[-64.7107,32.3502]}]}