{"lat":32.25,"lon":-111,"programs":["pota","sota"],"count":10,"references":[{"code":"US-1055","program":"pota","name":"Catalina State Park","coordinates":[-110.925,32.4212]},{"code":"W7A/AW-001","program":"sota","name":"Mount Lemmon","coordinates":[-110.7883,32.443]},{"code":"W7A/AW-018","program":"sota","name":"Window Peak","coordinates":[-110.8554,32.3759]},{"code":"W7A/PE-001","program":"sota","name":"Cathedral Rock","coordinates":[-110.8431,32.3867]},{"code":"W7A/PE-003","program":"sota","name":"Samaniego Peak","coordinates":[-110.8175,32.4695]},{"code":"W7A/PE-005","program":"sota","name":"Kimball, Mount","coordinates":[-110.8789,32.3773]},{"code":"W7A/PE-009","program":"sota","name":"Prominent Point","coordinates":[-110.8965,32.3653]},{"code":"W7A/PE-013","program":"sota","name":"Table Mountain","coordinates":[-110.9079,32.3823]},{"code":"W7A/PE-030","program":"sota","name":"Pusch Peak","coordinates":[-110.939,32.372]},{"code":"W7A/PE-126","program":"sota","name":"5420","coordinates":[-110.7663,32.351]}]}