{"lat":32.25,"lon":131.5,"programs":["sota"],"count":12,"references":[{"code":"JA6/MZ-087","program":"sota","name":"Tsutsujiyama","coordinates":[131.5043,32.4574]},{"code":"JA6/MZ-097","program":"sota","name":"Komazeyama","coordinates":[131.5302,32.4923]},{"code":"JA6/MZ-104","program":"sota","name":"Sarumatsuko","coordinates":[131.5034,32.4875]},{"code":"JA6/MZ-114","program":"sota","name":"JA6/MZ-114","coordinates":[131.5347,32.4441]},{"code":"JA6/MZ-121","program":"sota","name":"Karamatsuyama","coordinates":[131.6157,32.4908]},{"code":"JA6/MZ-122","program":"sota","name":"Hinodaira","coordinates":[131.5694,32.3779]},{"code":"JA6/MZ-129","program":"sota","name":"Tatiyama","coordinates":[131.5263,32.4027]},{"code":"JA6/MZ-133","program":"sota","name":"Toomiyama","coordinates":[131.7069,32.4891]},{"code":"JA6/MZ-166","program":"sota","name":"JA6/MZ-166","coordinates":[131.5419,32.356]},{"code":"JA6/MZ-167","program":"sota","name":"Goroyama","coordinates":[131.5465,32.469]},{"code":"JA6/MZ-173","program":"sota","name":"Taninoyama","coordinates":[131.7172,32.4953]},{"code":"JA6/MZ-181","program":"sota","name":"Komenoyama","coordinates":[131.6639,32.4201]}]}