{"lat":32.25,"lon":131,"programs":["pota","sota"],"count":17,"references":[{"code":"JP-1734","program":"pota","name":"Okukuma Prefectural Nature Park","coordinates":[131.095,32.3172]},{"code":"JA6/MZ-002","program":"sota","name":"Ichifusayama","coordinates":[131.101,32.3117]},{"code":"JA6/MZ-008","program":"sota","name":"Shiratoriyama","coordinates":[131.0138,32.4626]},{"code":"JA6/MZ-009","program":"sota","name":"Eshiroyama (Tsunodake)","coordinates":[131.0761,32.3705]},{"code":"JA6/MZ-013","program":"sota","name":"Ishidouyama","coordinates":[131.1677,32.3002]},{"code":"JA6/MZ-015","program":"sota","name":"Sanpoudake","coordinates":[131.1955,32.3746]},{"code":"JA6/MZ-017","program":"sota","name":"Ozakiyama","coordinates":[131.1889,32.423]},{"code":"JA6/MZ-021","program":"sota","name":"Matsuotouge","coordinates":[131.2455,32.4446]},{"code":"JA6/MZ-023","program":"sota","name":"Ishinitayama","coordinates":[131.1484,32.4112]},{"code":"JA6/MZ-025","program":"sota","name":"Sanboutouge","coordinates":[131.0919,32.4492]},{"code":"JA6/MZ-028","program":"sota","name":"Shiro","coordinates":[131.1628,32.362]},{"code":"JA6/MZ-032","program":"sota","name":"Tenpouzan","coordinates":[131.1818,32.2533]},{"code":"JA6/MZ-035","program":"sota","name":"Eboshidake","coordinates":[131.2266,32.2751]},{"code":"JA6/MZ-064","program":"sota","name":"JA6/MZ-064","coordinates":[131.0542,32.267]},{"code":"JA6/MZ-139","program":"sota","name":"JA6/MZ-139","coordinates":[131.1901,32.3409]},{"code":"JA6/MZ-142","program":"sota","name":"Kuronita","coordinates":[131.0701,32.2808]},{"code":"JA6/MZ-143","program":"sota","name":"JA6/MZ-143","coordinates":[131.216,32.3277]}]}