{"lat":32.25,"lon":-111.5,"programs":["pota","sota"],"count":12,"references":[{"code":"US-4434","program":"pota","name":"Ironwood Forest National Monument","coordinates":[-111.467,32.4342]},{"code":"W7A/PE-070","program":"sota","name":"Silver Bell Peak","coordinates":[-111.4924,32.4084]},{"code":"W7A/PE-078","program":"sota","name":"Ragged Top","coordinates":[-111.4898,32.4497]},{"code":"W7A/PE-081","program":"sota","name":"Waterman Peak","coordinates":[-111.4735,32.3495]},{"code":"W7A/PE-090","program":"sota","name":"3475","coordinates":[-111.4814,32.3425]},{"code":"W7A/PE-092","program":"sota","name":"3433","coordinates":[-111.4943,32.3683]},{"code":"W7A/PE-097","program":"sota","name":"Wolcott Peak","coordinates":[-111.4827,32.4446]},{"code":"W7A/PE-101","program":"sota","name":"Dos Titos South","coordinates":[-111.4476,32.2717]},{"code":"W7A/PE-108","program":"sota","name":"3036","coordinates":[-111.4416,32.3409]},{"code":"W7A/PE-110","program":"sota","name":"Pan Quemado","coordinates":[-111.3971,32.3345]},{"code":"W7A/PE-114","program":"sota","name":"Laughing Leos Hill","coordinates":[-111.4194,32.3241]},{"code":"W7A/PE-123","program":"sota","name":"Backyard Hill","coordinates":[-111.3769,32.3328]}]}