{"lat":32.5,"lon":-109.5,"programs":["pota","sota"],"count":7,"references":[{"code":"US-12160","program":"pota","name":"Hot Well Dunes BLM Recreation Management Area","coordinates":[-109.441,32.5205]},{"code":"W7A/GM-082","program":"sota","name":"Whitlock Mountains HP","coordinates":[-109.4076,32.6508]},{"code":"W7A/GM-086","program":"sota","name":"Javelina Peak","coordinates":[-109.3959,32.5813]},{"code":"W7A/GM-088","program":"sota","name":"5585","coordinates":[-109.4116,32.6309]},{"code":"W7A/GM-104","program":"sota","name":"5184","coordinates":[-109.4022,32.6094]},{"code":"W7A/GM-111","program":"sota","name":"Seely Benchmark","coordinates":[-109.2838,32.6888]},{"code":"W7A/GM-116","program":"sota","name":"Dry Mountain","coordinates":[-109.4735,32.6881]}]}