{"lat":32.5,"lon":-111.5,"programs":["pota","sota"],"count":7,"references":[{"code":"US-1065","program":"pota","name":"Picacho Peak State Park","coordinates":[-111.401,32.6461]},{"code":"W7A/AW-048","program":"sota","name":"Newman Peak","coordinates":[-111.4004,32.7187]},{"code":"W7A/PN-051","program":"sota","name":"South Newman","coordinates":[-111.4064,32.7063]},{"code":"W7A/PN-077","program":"sota","name":"Picacho Peak","coordinates":[-111.4007,32.6352]},{"code":"W7A/PN-106","program":"sota","name":"Cerro Prieto","coordinates":[-111.4258,32.5234]},{"code":"W7A/PN-120","program":"sota","name":"Rotten Benchmark","coordinates":[-111.4914,32.5585]},{"code":"W7A/PN-122","program":"sota","name":"2428","coordinates":[-111.4681,32.5509]}]}