{"lat":32.5,"lon":131.5,"programs":["sota"],"count":16,"references":[{"code":"JA6/MZ-006","program":"sota","name":"Ookueyama","coordinates":[131.5134,32.7378]},{"code":"JA6/MZ-014","program":"sota","name":"Oninomeyama","coordinates":[131.5284,32.7026]},{"code":"JA6/MZ-030","program":"sota","name":"Enokitouge","coordinates":[131.5578,32.6943]},{"code":"JA6/MZ-074","program":"sota","name":"Mukabakiyama","coordinates":[131.5723,32.6259]},{"code":"JA6/MZ-086","program":"sota","name":"Enodake","coordinates":[131.656,32.6561]},{"code":"JA6/MZ-116","program":"sota","name":"Kirikoyama","coordinates":[131.5506,32.5972]},{"code":"JA6/MZ-118","program":"sota","name":"Shimoniwatani","coordinates":[131.5727,32.5149]},{"code":"JA6/MZ-132","program":"sota","name":"Nagai","coordinates":[131.7117,32.6365]},{"code":"JA6/MZ-152","program":"sota","name":"JA6/MZ-152","coordinates":[131.588,32.6295]},{"code":"JA6/MZ-158","program":"sota","name":"Takahirayama","coordinates":[131.6264,32.6015]},{"code":"JA6/MZ-159","program":"sota","name":"Futagoyama","coordinates":[131.6151,32.5031]},{"code":"JA6/MZ-160","program":"sota","name":"Kaminiwaya","coordinates":[131.5658,32.5298]},{"code":"JA6/MZ-168","program":"sota","name":"Ootani","coordinates":[131.6219,32.539]},{"code":"JA6/MZ-174","program":"sota","name":"Atagoyama","coordinates":[131.6644,32.5585]},{"code":"JA6/MZ-176","program":"sota","name":"Akamizu","coordinates":[131.7056,32.5091]},{"code":"JA6/MZ-192","program":"sota","name":"Hasegauchi","coordinates":[131.6355,32.6916]}]}