{"lat":32.5,"lon":34.75,"programs":["pota"],"count":5,"references":[{"code":"IL-0003","program":"pota","name":"Caesarea National Park","coordinates":[34.8929,32.5001]},{"code":"IL-0033","program":"pota","name":"Nahal Mearot Nature Reserve","coordinates":[34.964,32.6707]},{"code":"IL-0036","program":"pota","name":"Dor HaBonim Beach Nature Reserve","coordinates":[34.9198,32.6419]},{"code":"IL-0065","program":"pota","name":"Maagan Michael Coast and Sea Reserve","coordinates":[34.9174,32.5638]},{"code":"IL-0068","program":"pota","name":"Horshan Mountain Reserve","coordinates":[34.9757,32.5723]}]}