{"lat":32.75,"lon":-110.5,"programs":["sota"],"count":10,"references":[{"code":"W7A/GM-014","program":"sota","name":"Cobre Grande Mountain","coordinates":[-110.2926,32.967]},{"code":"W7A/GM-033","program":"sota","name":"6807","coordinates":[-110.2688,32.969]},{"code":"W7A/GM-050","program":"sota","name":"Grand Reef Summit","coordinates":[-110.2944,32.8874]},{"code":"W7A/GM-074","program":"sota","name":"5818","coordinates":[-110.2825,32.9103]},{"code":"W7A/GM-079","program":"sota","name":"Quartz Hill","coordinates":[-110.2607,32.8482]},{"code":"W7A/GM-084","program":"sota","name":"Sixtysix Peak","coordinates":[-110.4409,32.7918]},{"code":"W7A/GM-087","program":"sota","name":"Imperial Mountain","coordinates":[-110.3396,32.9382]},{"code":"W7A/GM-097","program":"sota","name":"Lookout Mountain","coordinates":[-110.4471,32.9985]},{"code":"W7A/PN-002","program":"sota","name":"Little Table Mountain","coordinates":[-110.4909,32.7987]},{"code":"W7A/PN-007","program":"sota","name":"Bluebird Peak","coordinates":[-110.4703,32.782]}]}