{"lat":32.75,"lon":130.5,"programs":["pota","sota"],"count":12,"references":[{"code":"JP-1728","program":"pota","name":"Kinpozan Prefectural Nature Park","coordinates":[130.643,32.8167]},{"code":"JP-1729","program":"pota","name":"Shotaizan Prefectural Nature Park","coordinates":[130.514,32.9788]},{"code":"JP-1737","program":"pota","name":"Honmyojiyama Ryokuchi Prefectural Park","coordinates":[130.676,32.8221]},{"code":"JP-1738","program":"pota","name":"Mannichiyama Ryokuchi Prefectural Park","coordinates":[130.682,32.791]},{"code":"JA6/KM-043","program":"sota","name":"Kumanodake","coordinates":[130.6223,32.8444]},{"code":"JA6/KM-045","program":"sota","name":"Kinbouzan","coordinates":[130.639,32.814]},{"code":"JA6/KM-061","program":"sota","name":"Tsutsugatake","coordinates":[130.5274,32.9846]},{"code":"JA6/KM-078","program":"sota","name":"Kunimiyama","coordinates":[130.6372,32.9455]},{"code":"JA6/KM-080","program":"sota","name":"Matugadaira","coordinates":[130.6165,32.935]},{"code":"JA6/KM-090","program":"sota","name":"Menoyama","coordinates":[130.6657,32.9754]},{"code":"JA6/KM-092","program":"sota","name":"Gongensan","coordinates":[130.6303,32.7888]},{"code":"JA6/KM-105","program":"sota","name":"Sannodake","coordinates":[130.6315,32.8548]}]}