{"lat":32.75,"lon":-17,"programs":["pota","sota"],"count":10,"references":[{"code":"PT-0291","program":"pota","name":"Parque Natural da Madeira Nature Park","coordinates":[-17,32.75]},{"code":"PT-0292","program":"pota","name":"PARQUE FLORESTAL DO CHAO DOS LOUROS Forest Reserve","coordinates":[-16.992,32.772]},{"code":"PT-0300","program":"pota","name":"Rocha do Navio Nature Reserve","coordinates":[-16.8737,32.8093]},{"code":"PT-0307","program":"pota","name":"Laurissilva Protected Landscape","coordinates":[-16.9977,32.7587]},{"code":"PT-0309","program":"pota","name":"Ilheu da Viuva Protected Area","coordinates":[-16.8681,32.812]},{"code":"CT3/MI-001","program":"sota","name":"Pico Ruivo de Santana","coordinates":[-16.943,32.759]},{"code":"CT3/MI-005","program":"sota","name":"Pico Casado","coordinates":[-16.9833,32.7563]},{"code":"CT3/MI-007","program":"sota","name":"Queimadas","coordinates":[-16.9961,32.782]},{"code":"CT3/MI-009","program":"sota","name":"Pico da Coroa","coordinates":[-16.7917,32.7564]},{"code":"CT3/MI-011","program":"sota","name":"Pico Penha de Aguia","coordinates":[-16.8415,32.7792]}]}