{"lat":33,"lon":131,"programs":["sota"],"count":10,"references":[{"code":"JA6/KM-037","program":"sota","name":"Oogiyama","coordinates":[131.0171,33.1042]},{"code":"JA6/KM-040","program":"sota","name":"Kurobuchi","coordinates":[131.0015,33.14]},{"code":"JA6/KM-101","program":"sota","name":"Kameishiyama","coordinates":[131.064,33.1948]},{"code":"JA6/KM-104","program":"sota","name":"JA6/KM-104","coordinates":[131.0358,33.1049]},{"code":"JA6/OT-001","program":"sota","name":"Kujyuurenzan (Nakadake)","coordinates":[131.249,33.086]},{"code":"JA6/OT-007","program":"sota","name":"Kuroiwasan","coordinates":[131.207,33.1066]},{"code":"JA6/OT-008","program":"sota","name":"Waitazan","coordinates":[131.1643,33.1399]},{"code":"JA6/OT-020","program":"sota","name":"Haneyama","coordinates":[131.1306,33.2313]},{"code":"JA6/OT-032","program":"sota","name":"Aoyasan","coordinates":[131.2047,33.2441]},{"code":"JA6/OT-100","program":"sota","name":"Kujyurenzan(Mimatayama)","coordinates":[131.2465,33.104]}]}