{"lat":33,"lon":130.5,"programs":["sota"],"count":10,"references":[{"code":"JA6/FO-038","program":"sota","name":"Tobikatayama","coordinates":[130.5903,33.159]},{"code":"JA6/KM-047","program":"sota","name":"Nishidake","coordinates":[130.7288,33.0939]},{"code":"JA6/KM-050","program":"sota","name":"Medake","coordinates":[130.6799,33.1714]},{"code":"JA6/KM-071","program":"sota","name":"Yurugidake","coordinates":[130.7062,33.0539]},{"code":"JA6/KM-072","program":"sota","name":"Mitsuoyama","coordinates":[130.6504,33.0814]},{"code":"JA6/KM-079","program":"sota","name":"Miikeyama","coordinates":[130.5047,33.0284]},{"code":"JA6/KM-088","program":"sota","name":"Aitani","coordinates":[130.5816,33.0539]},{"code":"JA6/KM-125","program":"sota","name":"Nakadake","coordinates":[130.6104,33.0536]},{"code":"JA6/KM-143","program":"sota","name":"Takenoyama","coordinates":[130.6736,33.1025]},{"code":"JA6/KM-144","program":"sota","name":"Hikodake","coordinates":[130.6837,33.0654]}]}