{"lat":33,"lon":-117,"programs":["sota"],"count":10,"references":[{"code":"W6/CT-135","program":"sota","name":"Angel Mountain","coordinates":[-116.7717,33.2131]},{"code":"W6/CT-149","program":"sota","name":"Pine Mountain","coordinates":[-116.8592,33.2347]},{"code":"W6/CT-157","program":"sota","name":"Black Mountain","coordinates":[-116.8082,33.1599]},{"code":"W6/CT-164","program":"sota","name":"Rodriguez Mountain","coordinates":[-116.903,33.2341]},{"code":"W6/CT-173","program":"sota","name":"Corral Mountain","coordinates":[-116.7809,33.1323]},{"code":"W6/CT-204","program":"sota","name":"Bear Ridge","coordinates":[-116.9836,33.1976]},{"code":"W6/SC-187","program":"sota","name":"Woodson Mountain","coordinates":[-116.9706,33.0087]},{"code":"W6/SC-277","program":"sota","name":"Starvation Mountain","coordinates":[-116.9889,33.0535]},{"code":"W6/SC-300","program":"sota","name":"1930","coordinates":[-116.9986,33.0328]},{"code":"W6/SC-440","program":"sota","name":"Orosco Ridge","coordinates":[-116.8845,33.1033]}]}