{"lat":33,"lon":-111,"programs":["sota"],"count":14,"references":[{"code":"W7A/GI-021","program":"sota","name":"El Capitan Mountain","coordinates":[-110.7562,33.2001]},{"code":"W7A/GI-086","program":"sota","name":"Old Baldy","coordinates":[-110.799,33.227]},{"code":"W7A/GI-102","program":"sota","name":"Pasadera Mountain","coordinates":[-110.8343,33.2148]},{"code":"W7A/GI-107","program":"sota","name":"5058","coordinates":[-110.8634,33.2158]},{"code":"W7A/GI-122","program":"sota","name":"4676","coordinates":[-110.7998,33.0824]},{"code":"W7A/GI-123","program":"sota","name":"Tam O'Shanter Peak","coordinates":[-110.815,33.0888]},{"code":"W7A/GI-130","program":"sota","name":"4500","coordinates":[-110.8323,33.1097]},{"code":"W7A/GI-131","program":"sota","name":"Tornado Peak","coordinates":[-110.7848,33.0553]},{"code":"W7A/PN-019","program":"sota","name":"Scott Mountain","coordinates":[-110.9527,33.1955]},{"code":"W7A/PN-023","program":"sota","name":"Troy Mountain","coordinates":[-110.9255,33.1557]},{"code":"W7A/PN-031","program":"sota","name":"4700","coordinates":[-110.9662,33.2378]},{"code":"W7A/PN-038","program":"sota","name":"4515","coordinates":[-110.8872,33.1335]},{"code":"W7A/PN-066","program":"sota","name":"3620","coordinates":[-110.972,33.043]},{"code":"W7A/PN-112","program":"sota","name":"2620","coordinates":[-110.9933,33.0989]}]}