{"lat":33,"lon":133,"programs":["pota","sota"],"count":11,"references":[{"code":"JP-1669","program":"pota","name":"Irino Prefectural Nature Park","coordinates":[133.014,33.0201]},{"code":"JP-1674","program":"pota","name":"Okitsu Prefectural Nature Park","coordinates":[133.223,33.1548]},{"code":"JP-1684","program":"pota","name":"Tosa Seinan Daikibo Prefectural Park","coordinates":[133.016,33.0242]},{"code":"JA5/KC-090","program":"sota","name":"Hotokegamori","coordinates":[133.0291,33.1108]},{"code":"JA5/KC-094","program":"sota","name":"Gozaishonomine","coordinates":[133.1507,33.1773]},{"code":"JA5/KC-113","program":"sota","name":"Mukawayama","coordinates":[133.2167,33.2027]},{"code":"JA5/KC-116","program":"sota","name":"Doumaeyama","coordinates":[133.0848,33.1756]},{"code":"JA5/KC-118","program":"sota","name":"Kashiwagi","coordinates":[133.1532,33.2163]},{"code":"JA5/KC-181","program":"sota","name":"JA5/KC-181","coordinates":[133.1331,33.1853]},{"code":"JA5/KC-194","program":"sota","name":"Misakiyama","coordinates":[133.215,33.1564]},{"code":"JA5/KC-198","program":"sota","name":"Yanagigasakoyama","coordinates":[133.0332,33.2087]}]}