{"lat":33,"lon":131.25,"programs":["pota","sota"],"count":17,"references":[{"code":"JP-1743","program":"pota","name":"Jinkakuji Serikawa Prefectural Nature Park","coordinates":[131.456,33.0543]},{"code":"JA6/OT-002","program":"sota","name":"Kujyuurenzan (Taisenzan)","coordinates":[131.2807,33.095]},{"code":"JA6/OT-005","program":"sota","name":"Kujyuurenzan (Takatsukayama)","coordinates":[131.2929,33.1059]},{"code":"JA6/OT-010","program":"sota","name":"Oogawara","coordinates":[131.3117,33.1498]},{"code":"JA6/OT-012","program":"sota","name":"Kuenohirayama","coordinates":[131.2578,33.182]},{"code":"JA6/OT-015","program":"sota","name":"JA6/OT-015","coordinates":[131.2801,33.1743]},{"code":"JA6/OT-018","program":"sota","name":"Kurakiyama","coordinates":[131.3783,33.2433]},{"code":"JA6/OT-023","program":"sota","name":"Noinedake","coordinates":[131.2901,33.2237]},{"code":"JA6/OT-026","program":"sota","name":"Tokisan","coordinates":[131.3575,33.1631]},{"code":"JA6/OT-031","program":"sota","name":"Hidaira","coordinates":[131.4704,33.0711]},{"code":"JA6/OT-036","program":"sota","name":"Kamegadake","coordinates":[131.394,33.039]},{"code":"JA6/OT-037","program":"sota","name":"Takatsuka","coordinates":[131.4097,33.153]},{"code":"JA6/OT-072","program":"sota","name":"Oota","coordinates":[131.476,33.1549]},{"code":"JA6/OT-101","program":"sota","name":"Kujyurenzan(Hiijidake)","coordinates":[131.2728,33.1122]},{"code":"JA6/OT-104","program":"sota","name":"Shirogatake","coordinates":[131.3741,33.2289]},{"code":"JA6/OT-105","program":"sota","name":"JA6/OT-105","coordinates":[131.3963,33.2281]},{"code":"JA6/OT-109","program":"sota","name":"Miyakeyama","coordinates":[131.3806,33.0232]}]}