{"lat":33.25,"lon":-111.5,"programs":["pota","sota"],"count":25,"references":[{"code":"US-1061","program":"pota","name":"Lost Dutchman State Park","coordinates":[-111.482,33.4639]},{"code":"W7A/MN-015","program":"sota","name":"Tortilla Mountain","coordinates":[-111.3215,33.482]},{"code":"W7A/MN-033","program":"sota","name":"Malapais Mountain","coordinates":[-111.3687,33.4879]},{"code":"W7A/MN-103","program":"sota","name":"Battleship Mountain","coordinates":[-111.3987,33.4995]},{"code":"W7A/PN-021","program":"sota","name":"Superstition Peak","coordinates":[-111.4008,33.411]},{"code":"W7A/PN-022","program":"sota","name":"Superstition Peak, North","coordinates":[-111.4487,33.4393]},{"code":"W7A/PN-028","program":"sota","name":"4869","coordinates":[-111.4092,33.4238]},{"code":"W7A/PN-033","program":"sota","name":"Coffee Flat Mountain","coordinates":[-111.2879,33.4241]},{"code":"W7A/PN-047","program":"sota","name":"Music Mountain","coordinates":[-111.3124,33.4553]},{"code":"W7A/PN-052","program":"sota","name":"Fremont Peak","coordinates":[-111.3666,33.4139]},{"code":"W7A/PN-053","program":"sota","name":"Bluff Spring Mountain","coordinates":[-111.3515,33.4324]},{"code":"W7A/PN-057","program":"sota","name":"4003","coordinates":[-111.3895,33.4367]},{"code":"W7A/PN-060","program":"sota","name":"3826","coordinates":[-111.3468,33.4198]},{"code":"W7A/PN-073","program":"sota","name":"3521","coordinates":[-111.3049,33.3907]},{"code":"W7A/PN-075","program":"sota","name":"3461","coordinates":[-111.3301,33.3704]},{"code":"W7A/PN-079","program":"sota","name":"Black Top Mesa","coordinates":[-111.3779,33.4531]},{"code":"W7A/PN-083","program":"sota","name":"3205","coordinates":[-111.3195,33.3839]},{"code":"W7A/PN-090","program":"sota","name":"3061","coordinates":[-111.2792,33.3611]},{"code":"W7A/PN-091","program":"sota","name":"Dromedary Peak","coordinates":[-111.2539,33.2533]},{"code":"W7A/PN-104","program":"sota","name":"2753","coordinates":[-111.3612,33.3734]},{"code":"W7A/PN-105","program":"sota","name":"Comet Peak","coordinates":[-111.269,33.294]},{"code":"W7A/PN-141","program":"sota","name":"Weavers Needle","coordinates":[-111.3708,33.433]},{"code":"W7A/PN-143","program":"sota","name":"Buzzard Roost","coordinates":[-111.2732,33.3809]},{"code":"W7A/PN-144","program":"sota","name":"3356","coordinates":[-111.3,33.3761]},{"code":"W7A/PN-148","program":"sota","name":"Turk's Cap","coordinates":[-111.3964,33.3906]}]}