{"lat":33.25,"lon":132.75,"programs":["pota","sota"],"count":20,"references":[{"code":"JP-1657","program":"pota","name":"Shikoku Karst(Ehime) Prefectural Nature Park","coordinates":[132.968,33.482]},{"code":"JA5/EH-010","program":"sota","name":"JA5/EH-010","coordinates":[132.8738,33.4978]},{"code":"JA5/EH-023","program":"sota","name":"Amatsutsumiyama","coordinates":[132.8068,33.4535]},{"code":"JA5/EH-031","program":"sota","name":"Togigozenyama","coordinates":[132.7701,33.2789]},{"code":"JA5/EH-032","program":"sota","name":"Nagayama","coordinates":[132.8361,33.2944]},{"code":"JA5/EH-035","program":"sota","name":"Gozaishozan","coordinates":[132.7558,33.344]},{"code":"JA5/EH-061","program":"sota","name":"Yuzuriha","coordinates":[132.7605,33.2613]},{"code":"JA5/EH-143","program":"sota","name":"Kusatsudoko","coordinates":[132.7732,33.4836]},{"code":"JA5/EH-148","program":"sota","name":"Doigoe","coordinates":[132.7615,33.3766]},{"code":"JA5/KC-020","program":"sota","name":"Azounomine","coordinates":[132.8658,33.4722]},{"code":"JA5/KC-034","program":"sota","name":"Sanbougatsuji","coordinates":[132.9054,33.4121]},{"code":"JA5/KC-038","program":"sota","name":"Jizouyama","coordinates":[132.8938,33.3122]},{"code":"JA5/KC-041","program":"sota","name":"Gotouyama","coordinates":[132.9819,33.414]},{"code":"JA5/KC-059","program":"sota","name":"Saragamori","coordinates":[132.8495,33.4246]},{"code":"JA5/KC-066","program":"sota","name":"JA5/KC-066","coordinates":[132.9292,33.2619]},{"code":"JA5/KC-074","program":"sota","name":"Satsugamine","coordinates":[132.9965,33.3754]},{"code":"JA5/KC-076","program":"sota","name":"Yatsugamori","coordinates":[132.9038,33.3855]},{"code":"JA5/KC-080","program":"sota","name":"Kawanoji","coordinates":[132.9315,33.3735]},{"code":"JA5/KC-165","program":"sota","name":"Tsuchimori","coordinates":[132.9688,33.3683]},{"code":"JA5/KC-167","program":"sota","name":"JA5/KC-167","coordinates":[132.9119,33.2871]}]}