{"lat":33.25,"lon":-106,"programs":["sota"],"count":6,"references":[{"code":"W5N/SC-001","program":"sota","name":"Sierra Blanca Peak","coordinates":[-105.8089,33.3745]},{"code":"W5N/SC-004","program":"sota","name":"Nogal Peak","coordinates":[-105.8037,33.4975]},{"code":"W5N/SC-012","program":"sota","name":"9148","coordinates":[-105.7726,33.4828]},{"code":"W5N/SC-016","program":"sota","name":"North Black Mountain","coordinates":[-105.8866,33.3]},{"code":"W5N/SC-037","program":"sota","name":"Godfrey Peak","coordinates":[-105.9584,33.4695]},{"code":"W5N/SC-047","program":"sota","name":"South Godfrey Hills","coordinates":[-105.996,33.3863]}]}