{"lat":33.25,"lon":-117.25,"programs":["sota"],"count":11,"references":[{"code":"W6/CT-206","program":"sota","name":"Nielson Benchmark","coordinates":[-117.1254,33.4431]},{"code":"W6/CT-208","program":"sota","name":"2349","coordinates":[-117.1444,33.451]},{"code":"W6/CT-215","program":"sota","name":"Pala Mountain","coordinates":[-117.0423,33.3392]},{"code":"W6/CT-219","program":"sota","name":"2103","coordinates":[-117.1232,33.414]},{"code":"W6/CT-221","program":"sota","name":"2000","coordinates":[-117.1821,33.4798]},{"code":"W6/CT-227","program":"sota","name":"1844","coordinates":[-117.0984,33.3445]},{"code":"W6/CT-233","program":"sota","name":"Red Mountain","coordinates":[-117.191,33.4002]},{"code":"W6/CT-235","program":"sota","name":"Monserate Mountain","coordinates":[-117.1482,33.3722]},{"code":"W6/CT-238","program":"sota","name":"Lancaster Mountain","coordinates":[-117.1345,33.3222]},{"code":"W6/SC-432","program":"sota","name":"Mount Olympus","coordinates":[-117.1026,33.4111]},{"code":"W6/SC-445","program":"sota","name":"1715","coordinates":[-117.1176,33.3692]}]}