{"lat":33.25,"lon":130,"programs":["pota","sota"],"count":20,"references":[{"code":"JP-1710","program":"pota","name":"Tenzan Prefectural Nature Park","coordinates":[130.135,33.346]},{"code":"JP-1711","program":"pota","name":"Hachimandake Prefectural Nature Park","coordinates":[130.027,33.2823]},{"code":"JA6/SG-002","program":"sota","name":"Tenzan","coordinates":[130.1429,33.3389]},{"code":"JA6/SG-003","program":"sota","name":"Iwarayama","coordinates":[130.2496,33.4704]},{"code":"JA6/SG-005","program":"sota","name":"Tooriishiyama","coordinates":[130.1228,33.3759]},{"code":"JA6/SG-006","program":"sota","name":"Haganeyama","coordinates":[130.1757,33.4654]},{"code":"JA6/SG-007","program":"sota","name":"JA6/SG-007","coordinates":[130.0749,33.3607]},{"code":"JA6/SG-009","program":"sota","name":"Ukidake","coordinates":[130.0992,33.47]},{"code":"JA6/SG-011","program":"sota","name":"Hachimandake","coordinates":[130.0272,33.2824]},{"code":"JA6/SG-012","program":"sota","name":"Onnayama(Funayama)","coordinates":[130.0511,33.2895]},{"code":"JA6/SG-014","program":"sota","name":"Gongenyama","coordinates":[130.2386,33.4001]},{"code":"JA6/SG-015","program":"sota","name":"Tonboyama","coordinates":[130.0681,33.4726]},{"code":"JA6/SG-023","program":"sota","name":"Tokurendake","coordinates":[130.0398,33.2502]},{"code":"JA6/SG-029","program":"sota","name":"Futagoyama","coordinates":[130.1562,33.2584]},{"code":"JA6/SG-034","program":"sota","name":"Kagamiyama (Hirefuriyama)","coordinates":[130.0239,33.4294]},{"code":"JA6/SG-036","program":"sota","name":"Hikodake","coordinates":[130.1947,33.342]},{"code":"JA6/SG-037","program":"sota","name":"Shiraishiyama","coordinates":[130.1596,33.3737]},{"code":"JA6/SG-038","program":"sota","name":"Onnadake","coordinates":[130.1159,33.4749]},{"code":"JA6/SG-039","program":"sota","name":"Sudayama","coordinates":[130.2224,33.384]},{"code":"JA6/SG-052","program":"sota","name":"Yamasakiyama","coordinates":[130.1008,33.2747]}]}