{"lat":33.25,"lon":133,"programs":["pota","sota"],"count":18,"references":[{"code":"JP-1676","program":"pota","name":"Shikoku Karst(Kochi) Prefectural Nature Park","coordinates":[133.032,33.4456]},{"code":"JA5/KC-011","program":"sota","name":"Tengukogen","coordinates":[133.0154,33.4807]},{"code":"JA5/KC-025","program":"sota","name":"Torigatayama","coordinates":[133.067,33.4917]},{"code":"JA5/KC-026","program":"sota","name":"Irazuyama","coordinates":[133.0632,33.4408]},{"code":"JA5/KC-044","program":"sota","name":"Kakushoumori","coordinates":[133.1011,33.4428]},{"code":"JA5/KC-053","program":"sota","name":"Suzugamori","coordinates":[133.051,33.3563]},{"code":"JA5/KC-069","program":"sota","name":"Shirokidomori","coordinates":[133.0257,33.285]},{"code":"JA5/KC-073","program":"sota","name":"Morinokawayama","coordinates":[133.1759,33.3777]},{"code":"JA5/KC-082","program":"sota","name":"Ayugatouge","coordinates":[133.0773,33.3276]},{"code":"JA5/KC-087","program":"sota","name":"Shimomukeyama","coordinates":[133.1088,33.3989]},{"code":"JA5/KC-089","program":"sota","name":"Daishogongenyama","coordinates":[133.1493,33.3069]},{"code":"JA5/KC-093","program":"sota","name":"JA5/KC-093","coordinates":[133.1327,33.3985]},{"code":"JA5/KC-095","program":"sota","name":"JA5/KC-095","coordinates":[133.096,33.252]},{"code":"JA5/KC-099","program":"sota","name":"Yokoyama","coordinates":[133.1487,33.3577]},{"code":"JA5/KC-103","program":"sota","name":"Hiuchigamori","coordinates":[133.1977,33.2931]},{"code":"JA5/KC-168","program":"sota","name":"Naro","coordinates":[133.1134,33.3676]},{"code":"JA5/KC-179","program":"sota","name":"Sanpomori","coordinates":[133.1493,33.2669]},{"code":"JA5/KC-197","program":"sota","name":"Serikawayama","coordinates":[133.0699,33.3915]}]}