{"lat":33.5,"lon":133.25,"programs":["iota","pota","sota"],"count":18,"references":[{"code":"AS-076","program":"iota","name":"SHIKOKU ISLAND","coordinates":[133.43499756,33.625]},{"code":"AS-200","program":"iota","name":"Shikoku&#039;s Coastal Islands ","coordinates":[133.435,33.62]},{"code":"JP-1677","program":"pota","name":"Kitayama Prefectural Nature Park","coordinates":[133.486,33.6007]},{"code":"JP-1681","program":"pota","name":"Kuishiyama Jingamori Prefectural Nature Park","coordinates":[133.441,33.6867]},{"code":"JA5/KC-009","program":"sota","name":"Inamurayama","coordinates":[133.3593,33.747]},{"code":"JA5/KC-033","program":"sota","name":"Kyujyogataniyama","coordinates":[133.2827,33.7178]},{"code":"JA5/KC-036","program":"sota","name":"JA5/KC-036","coordinates":[133.4465,33.738]},{"code":"JA5/KC-045","program":"sota","name":"Oootodani","coordinates":[133.3855,33.7076]},{"code":"JA5/KC-051","program":"sota","name":"Toyamori","coordinates":[133.3984,33.6804]},{"code":"JA5/KC-061","program":"sota","name":"Koshikigadai","coordinates":[133.2932,33.6507]},{"code":"JA5/KC-065","program":"sota","name":"Tochuzan","coordinates":[133.3943,33.6394]},{"code":"JA5/KC-067","program":"sota","name":"Takabagamori","coordinates":[133.3384,33.6002]},{"code":"JA5/KC-110","program":"sota","name":"Myoukenyama","coordinates":[133.3103,33.5582]},{"code":"JA5/KC-122","program":"sota","name":"Ishidonomori","coordinates":[133.3981,33.513]},{"code":"JA5/KC-134","program":"sota","name":"JA5/KC-134","coordinates":[133.3304,33.5475]},{"code":"JA5/KC-140","program":"sota","name":"Karasumori","coordinates":[133.3695,33.5427]},{"code":"JA5/KC-147","program":"sota","name":"Kounomori","coordinates":[133.4967,33.5798]},{"code":"JA5/KC-170","program":"sota","name":"Nishimoriyama","coordinates":[133.4732,33.6984]}]}