{"lat":33.5,"lon":-111.75,"programs":["sota"],"count":13,"references":[{"code":"W7A/MN-059","program":"sota","name":"Dome Mountain","coordinates":[-111.5451,33.5025]},{"code":"W7A/MN-065","program":"sota","name":"3260","coordinates":[-111.5843,33.7427]},{"code":"W7A/MN-067","program":"sota","name":"Golden Dome","coordinates":[-111.5241,33.5284]},{"code":"W7A/MN-075","program":"sota","name":"Sheep Mesa","coordinates":[-111.568,33.7175]},{"code":"W7A/MN-086","program":"sota","name":"Stewart Mountain","coordinates":[-111.5581,33.5822]},{"code":"W7A/MN-088","program":"sota","name":"Usery Mountain","coordinates":[-111.6406,33.5003]},{"code":"W7A/MN-093","program":"sota","name":"Sugarloaf Mountain","coordinates":[-111.5304,33.6964]},{"code":"W7A/MN-098","program":"sota","name":"McDowell, Mount","coordinates":[-111.6936,33.5404]},{"code":"W7A/MN-101","program":"sota","name":"Lone Mountain","coordinates":[-111.6041,33.5095]},{"code":"W7A/MN-111","program":"sota","name":"2662","coordinates":[-111.5524,33.5337]},{"code":"W7A/MN-118","program":"sota","name":"Arizona Dam Butte","coordinates":[-111.6815,33.5503]},{"code":"W7A/MN-120","program":"sota","name":"Water Users Peak","coordinates":[-111.5519,33.5615]},{"code":"W7A/MN-139","program":"sota","name":"2140","coordinates":[-111.5065,33.5615]}]}