{"lat":33.5,"lon":-85.75,"programs":["pota","sota"],"count":5,"references":[{"code":"US-0158","program":"pota","name":"Mountain Longleaf National Wildlife Refuge","coordinates":[-85.7381,33.7119]},{"code":"US-3683","program":"pota","name":"Choccolocco Wildlife Management Area","coordinates":[-85.5899,33.7286]},{"code":"US-4595","program":"pota","name":"Choccolocco State Forest","coordinates":[-85.69,33.712]},{"code":"W4A/VR-001","program":"sota","name":"Morton Hill","coordinates":[-85.7387,33.6935]},{"code":"W4A/VR-002","program":"sota","name":"Big Oak Mountain","coordinates":[-85.7303,33.7381]}]}