{"lat":33.5,"lon":-105.75,"programs":["pota","sota"],"count":5,"references":[{"code":"US-8228","program":"pota","name":"Fort Stanton Snowy River National Conservation Area","coordinates":[-105.511,33.5145]},{"code":"W5N/SC-008","program":"sota","name":"Carrizo Peak","coordinates":[-105.7285,33.6924]},{"code":"W5N/SC-017","program":"sota","name":"Patos Mountain","coordinates":[-105.6795,33.7366]},{"code":"W5N/SC-018","program":"sota","name":"Tucson Mountain","coordinates":[-105.6362,33.644]},{"code":"W5N/SC-021","program":"sota","name":"Goat Mountain","coordinates":[-105.6564,33.6697]}]}