{"lat":33.5,"lon":134.25,"programs":["pota","sota"],"count":17,"references":[{"code":"JP-2097","program":"pota","name":"Kannourako Kaigan Ryokuchi Prefectural Park","coordinates":[134.294,33.5429]},{"code":"JA5/TS-039","program":"sota","name":"Hachirousan","coordinates":[134.4091,33.7421]},{"code":"JA5/TS-041","program":"sota","name":"Doukiriyama","coordinates":[134.3927,33.7183]},{"code":"JA5/TS-059","program":"sota","name":"Katayama","coordinates":[134.454,33.732]},{"code":"JA5/TS-062","program":"sota","name":"Jinno","coordinates":[134.333,33.6685]},{"code":"JA5/TS-071","program":"sota","name":"Shirosawa","coordinates":[134.4718,33.6938]},{"code":"JA5/TS-075","program":"sota","name":"Arase","coordinates":[134.3491,33.6769]},{"code":"JA5/TS-076","program":"sota","name":"Murayama","coordinates":[134.2732,33.6535]},{"code":"JA5/TS-077","program":"sota","name":"Suzugamine","coordinates":[134.2937,33.5814]},{"code":"JA5/TS-079","program":"sota","name":"Yanase","coordinates":[134.4968,33.7318]},{"code":"JA5/TS-107","program":"sota","name":"JA5/TS-107","coordinates":[134.3368,33.7305]},{"code":"JA5/TS-112","program":"sota","name":"Tamazushiyama","coordinates":[134.4777,33.7409]},{"code":"JA5/TS-118","program":"sota","name":"Ono","coordinates":[134.2518,33.5841]},{"code":"JA5/TS-120","program":"sota","name":"Dodoroyama","coordinates":[134.3971,33.6801]},{"code":"JA5/TS-124","program":"sota","name":"Dohyogamaru","coordinates":[134.3773,33.6606]},{"code":"JA5/TS-127","program":"sota","name":"Ooshima","coordinates":[134.4961,33.6339]},{"code":"JA5/TS-132","program":"sota","name":"Chinosaki","coordinates":[134.3529,33.5803]}]}