{"lat":33.5,"lon":-110.75,"programs":["sota"],"count":14,"references":[{"code":"W7A/AW-031","program":"sota","name":"Carol Spring Mountain","coordinates":[-110.5614,33.6604]},{"code":"W7A/GI-011","program":"sota","name":"Apache Peaks HP","coordinates":[-110.7427,33.5405]},{"code":"W7A/GI-024","program":"sota","name":"Timber Camp Mountain","coordinates":[-110.5943,33.6556]},{"code":"W7A/GI-033","program":"sota","name":"Sevenmile Mountains HP","coordinates":[-110.5833,33.5988]},{"code":"W7A/GI-056","program":"sota","name":"6140","coordinates":[-110.5645,33.581]},{"code":"W7A/GI-059","program":"sota","name":"Jackson Butte","coordinates":[-110.6136,33.6258]},{"code":"W7A/GI-070","program":"sota","name":"Chrome Butte","coordinates":[-110.6939,33.5043]},{"code":"W7A/GI-074","program":"sota","name":"Haystack Butte","coordinates":[-110.6372,33.7241]},{"code":"W7A/GI-077","program":"sota","name":"5659","coordinates":[-110.606,33.7335]},{"code":"W7A/GI-079","program":"sota","name":"5633","coordinates":[-110.5782,33.5574]},{"code":"W7A/GI-095","program":"sota","name":"Rock Springs Butte","coordinates":[-110.619,33.6056]},{"code":"W7A/GI-114","program":"sota","name":"Blackjack Mountain South","coordinates":[-110.7073,33.6706]},{"code":"W7A/GI-118","program":"sota","name":"4770","coordinates":[-110.5041,33.5765]},{"code":"W7A/GI-136","program":"sota","name":"4047","coordinates":[-110.716,33.7026]}]}