{"lat":33.5,"lon":-116.75,"programs":["sota"],"count":6,"references":[{"code":"W6/CT-016","program":"sota","name":"Thomas Mountain","coordinates":[-116.6826,33.6213]},{"code":"W6/CT-068","program":"sota","name":"Palm View Peak","coordinates":[-116.5911,33.6795]},{"code":"W6/CT-104","program":"sota","name":"Lookout Mountain","coordinates":[-116.5741,33.5532]},{"code":"W6/CT-105","program":"sota","name":"Baldy Mountain","coordinates":[-116.7159,33.6859]},{"code":"W6/CT-248","program":"sota","name":"Antsell Rock","coordinates":[-116.6414,33.73]},{"code":"W6/CT-249","program":"sota","name":"Apache Peak","coordinates":[-116.6267,33.7186]}]}