{"lat":33.75,"lon":133.25,"programs":["sota"],"count":13,"references":[{"code":"JA5/EH-002","program":"sota","name":"Higashiakaishiyama","coordinates":[133.375,33.8751]},{"code":"JA5/EH-003","program":"sota","name":"Kutsukakeyama","coordinates":[133.2703,33.8493]},{"code":"JA5/EH-004","program":"sota","name":"Ebirayama","coordinates":[133.4079,33.8857]},{"code":"JA5/EH-007","program":"sota","name":"Tsunakuriyama","coordinates":[133.32,33.8539]},{"code":"JA5/EH-009","program":"sota","name":"Akaboshiyama","coordinates":[133.4579,33.9194]},{"code":"JA5/EH-116","program":"sota","name":"Oosakai","coordinates":[133.3898,33.97]},{"code":"JA5/KC-003","program":"sota","name":"Sasagamine","coordinates":[133.2746,33.8281]},{"code":"JA5/KC-006","program":"sota","name":"Oozareyama","coordinates":[133.3944,33.8211]},{"code":"JA5/KC-010","program":"sota","name":"Higashimitsumoriyama","coordinates":[133.415,33.8399]},{"code":"JA5/KC-031","program":"sota","name":"Soutenzan","coordinates":[133.4802,33.8111]},{"code":"JA5/KC-153","program":"sota","name":"Kanmuriyama","coordinates":[133.31,33.8159]},{"code":"JA5/KC-154","program":"sota","name":"JA5/KC-154","coordinates":[133.2746,33.7547]},{"code":"JA5/KC-160","program":"sota","name":"Near Iwatsutsujiyama","coordinates":[133.488,33.7581]}]}