{"lat":33.75,"lon":132.5,"programs":["pota","sota"],"count":10,"references":[{"code":"JP-2018","program":"pota","name":"Ehime Forest Prefectural Park","coordinates":[132.74,33.7501]},{"code":"JA5/EH-114","program":"sota","name":"Oosatosan","coordinates":[132.6061,33.97]},{"code":"JA5/EH-115","program":"sota","name":"Kofuji","coordinates":[132.6714,33.8818]},{"code":"JA5/EH-117","program":"sota","name":"Takamatsuyama","coordinates":[132.6656,33.9658]},{"code":"JA5/EH-119","program":"sota","name":"Nishinotouge","coordinates":[132.5426,33.9846]},{"code":"JA5/EH-121","program":"sota","name":"Yurijima","coordinates":[132.531,33.8514]},{"code":"JA5/EH-122","program":"sota","name":"Yoneyama","coordinates":[132.5344,33.9291]},{"code":"JA5/EH-124","program":"sota","name":"Tsuwajijima","coordinates":[132.5061,33.9797]},{"code":"JA5/EH-126","program":"sota","name":"Tsurushima","coordinates":[132.6424,33.8906]},{"code":"JA5/EH-178","program":"sota","name":"Kyougamori","coordinates":[132.7111,33.8833]}]}