{"lat":33.75,"lon":134.5,"programs":["pota","sota"],"count":17,"references":[{"code":"JP-0145","program":"pota","name":"Muroto-Anan Kaigan Quasi-National Park","coordinates":[134.747,33.8353]},{"code":"JP-1639","program":"pota","name":"Higashisankei Prefectural Nature Park","coordinates":[134.511,33.9627]},{"code":"JP-1646","program":"pota","name":"Nanbu Kenko Undo Prefectural Park","coordinates":[134.603,33.8654]},{"code":"JP-2036","program":"pota","name":"Tokushima Prefectural Dejima Wild Bird Garden Prefectural Park","coordinates":[134.672,33.9594]},{"code":"JA5/TS-047","program":"sota","name":"Nakatsumineyama","coordinates":[134.5095,33.9624]},{"code":"JA5/TS-056","program":"sota","name":"Tairyuujiyama","coordinates":[134.5198,33.8741]},{"code":"JA5/TS-057","program":"sota","name":"Yahazuyama","coordinates":[134.5282,33.8041]},{"code":"JA5/TS-063","program":"sota","name":"Mitsuoyama","coordinates":[134.5708,33.8973]},{"code":"JA5/TS-070","program":"sota","name":"Ookageyama","coordinates":[134.5135,33.7527]},{"code":"JA5/TS-072","program":"sota","name":"Myoujinyama","coordinates":[134.6506,33.8052]},{"code":"JA5/TS-087","program":"sota","name":"Iiya","coordinates":[134.5653,33.9738]},{"code":"JA5/TS-117","program":"sota","name":"JA5/TS-117","coordinates":[134.5394,33.9292]},{"code":"JA5/TS-122","program":"sota","name":"Terano","coordinates":[134.5095,33.7661]},{"code":"JA5/TS-123","program":"sota","name":"JA5/TS-123","coordinates":[134.557,33.7742]},{"code":"JA5/TS-125","program":"sota","name":"JA5/TS-125","coordinates":[134.5473,33.7567]},{"code":"JA5/TS-126","program":"sota","name":"Tsunominejinja","coordinates":[134.6441,33.8948]},{"code":"JA5/TS-135","program":"sota","name":"Kumadani","coordinates":[134.586,33.9162]}]}