{"lat":33.75,"lon":-113,"programs":["sota"],"count":6,"references":[{"code":"W7A/AW-053","program":"sota","name":"Vulture Peak","coordinates":[-112.7949,33.8789]},{"code":"W7A/MN-058","program":"sota","name":"Twin Peaks West","coordinates":[-112.8261,33.9097]},{"code":"W7A/MN-066","program":"sota","name":"Quail Tank Mtn","coordinates":[-112.8645,33.8901]},{"code":"W7A/MN-076","program":"sota","name":"Black Mountain","coordinates":[-112.857,33.9613]},{"code":"W7A/MN-082","program":"sota","name":"Caballeros Peaks","coordinates":[-112.7846,33.8556]},{"code":"W7A/MN-154","program":"sota","name":"3043","coordinates":[-112.8983,33.9749]}]}