{"lat":33.75,"lon":135,"programs":["pota","sota"],"count":11,"references":[{"code":"JP-1571","program":"pota","name":"Shirasaki Kaigan Prefectural Nature Park","coordinates":[135.068,33.977]},{"code":"JP-1572","program":"pota","name":"Enju Kaigan Prefectural Nature Park","coordinates":[135.129,33.8903]},{"code":"JA/WK-074","program":"sota","name":"Chizukawa","coordinates":[135.1896,33.9563]},{"code":"JA/WK-081","program":"sota","name":"Wasayama","coordinates":[135.2435,33.9143]},{"code":"JA/WK-093","program":"sota","name":"Koshiroyama","coordinates":[135.1754,33.984]},{"code":"JA/WK-098","program":"sota","name":"Near Nishiyama","coordinates":[135.1039,33.9026]},{"code":"JA/WK-125","program":"sota","name":"Near Kaminakano","coordinates":[135.1749,33.9947]},{"code":"JA/WK-131","program":"sota","name":"Hinoyama","coordinates":[135.0632,33.8851]},{"code":"JA/WK-133","program":"sota","name":"Hebio","coordinates":[135.2296,33.9298]},{"code":"JA/WK-134","program":"sota","name":"Kasaneyama","coordinates":[135.0933,33.9625]},{"code":"JA/WK-137","program":"sota","name":"Kuroiwayama","coordinates":[135.1933,33.8545]}]}