{"lat":33.75,"lon":135.25,"programs":["gma","sota"],"count":26,"references":[{"code":"XJA/WK-091","program":"gma","name":"Kabui","coordinates":[135.3115,33.9662]},{"code":"JA/WK-024","program":"sota","name":"Seireisan","coordinates":[135.3932,33.9362]},{"code":"JA/WK-031","program":"sota","name":"Yahazudake","coordinates":[135.3554,33.9325]},{"code":"JA/WK-034","program":"sota","name":"Makiyama","coordinates":[135.4735,33.7856]},{"code":"JA/WK-041","program":"sota","name":"Sanrigamine","coordinates":[135.3863,33.8861]},{"code":"JA/WK-043","program":"sota","name":"Kawamata","coordinates":[135.3636,33.915]},{"code":"JA/WK-057","program":"sota","name":"Tose","coordinates":[135.4027,33.9852]},{"code":"JA/WK-064","program":"sota","name":"Takaoyama","coordinates":[135.4265,33.7758]},{"code":"JA/WK-071","program":"sota","name":"Mitsuboshiyama","coordinates":[135.4043,33.791]},{"code":"JA/WK-075","program":"sota","name":"Inugajyoyama","coordinates":[135.3116,33.948]},{"code":"JA/WK-085","program":"sota","name":"Kamiyama","coordinates":[135.2817,33.9444]},{"code":"JA/WK-090","program":"sota","name":"JA/WK-090","coordinates":[135.3682,33.974]},{"code":"JA/WK-092","program":"sota","name":"Takahatayama","coordinates":[135.355,33.8337]},{"code":"JA/WK-095","program":"sota","name":"Yokozato","coordinates":[135.3091,33.8357]},{"code":"JA/WK-097","program":"sota","name":"JA/WK-097","coordinates":[135.3312,33.8338]},{"code":"JA/WK-109","program":"sota","name":"Chojagamine","coordinates":[135.2591,33.974]},{"code":"JA/WK-111","program":"sota","name":"Dounoya","coordinates":[135.352,33.9552]},{"code":"JA/WK-112","program":"sota","name":"Near Nagahata","coordinates":[135.428,33.9122]},{"code":"JA/WK-113","program":"sota","name":"Mizugamoto","coordinates":[135.3343,33.9119]},{"code":"JA/WK-116","program":"sota","name":"Near Kamikosigata","coordinates":[135.3456,33.9679]},{"code":"JA/WK-117","program":"sota","name":"Nakanotaki","coordinates":[135.3828,33.9773]},{"code":"JA/WK-119","program":"sota","name":"Doi","coordinates":[135.4701,33.952]},{"code":"JA/WK-123","program":"sota","name":"Near Kabui","coordinates":[135.307,33.9623]},{"code":"JA/WK-124","program":"sota","name":"JA/WK-124","coordinates":[135.3254,33.8762]},{"code":"JA/WK-127","program":"sota","name":"Near Tamoto","coordinates":[135.3769,33.7888]},{"code":"JA/WK-132","program":"sota","name":"JA/WK-132","coordinates":[135.2517,33.8391]}]}