{"lat":33.75,"lon":-78.25,"programs":["wwbota"],"count":6,"references":[{"code":"B/US-0077","program":"wwbota","name":"Fort Caswell Battery McDonough (NC)","coordinates":[-78.01532,33.89263]},{"code":"B/US-0193","program":"wwbota","name":"Fort Caswell Battery Caswell (NC)","coordinates":[-78.01683,33.89262]},{"code":"B/US-0194","program":"wwbota","name":"Fort Caswell Battery Madison (NC)","coordinates":[-78.01841,33.89205]},{"code":"B/US-0195","program":"wwbota","name":"Fort Caswell Battery Swift (NC)","coordinates":[-78.02133,33.89099]},{"code":"B/US-0196","program":"wwbota","name":"Fort Caswell Battery Bagley (NC)","coordinates":[-78.02459,33.8908]},{"code":"B/US-0197","program":"wwbota","name":"Fort Caswell Battery Shipp (NC)","coordinates":[-78.0268,33.89097]}]}