{"lat":33.75,"lon":-111,"programs":["sota"],"count":18,"references":[{"code":"W7A/AW-011","program":"sota","name":"Aztec Peak","coordinates":[-110.9079,33.8121]},{"code":"W7A/AW-016","program":"sota","name":"Center Mountain","coordinates":[-110.9112,33.8501]},{"code":"W7A/AW-017","program":"sota","name":"McFadden Horse Mountain","coordinates":[-110.9439,33.88]},{"code":"W7A/AW-021","program":"sota","name":"McFadden Peak","coordinates":[-110.9659,33.9101]},{"code":"W7A/GI-001","program":"sota","name":"Carr Mountain","coordinates":[-110.9516,33.8187]},{"code":"W7A/GI-015","program":"sota","name":"Pine Mountain","coordinates":[-110.9888,33.9511]},{"code":"W7A/GI-023","program":"sota","name":"Jack Mountain","coordinates":[-110.9811,33.8565]},{"code":"W7A/GI-032","program":"sota","name":"Mustang Ridge","coordinates":[-110.7626,33.8568]},{"code":"W7A/GI-035","program":"sota","name":"Sombrero Peak","coordinates":[-110.783,33.8467]},{"code":"W7A/GI-036","program":"sota","name":"Brush Benchmark","coordinates":[-110.8322,33.9288]},{"code":"W7A/GI-037","program":"sota","name":"Castle Peak","coordinates":[-110.8386,33.9489]},{"code":"W7A/GI-043","program":"sota","name":"Gunsight Butte","coordinates":[-110.8573,33.944]},{"code":"W7A/GI-050","program":"sota","name":"6208","coordinates":[-110.7954,33.8722]},{"code":"W7A/GI-052","program":"sota","name":"6202","coordinates":[-110.8527,33.9581]},{"code":"W7A/GI-060","program":"sota","name":"6076","coordinates":[-110.9901,33.871]},{"code":"W7A/GI-071","program":"sota","name":"Cow Flat Mountain","coordinates":[-110.9182,33.9869]},{"code":"W7A/GI-075","program":"sota","name":"Double Buttes West","coordinates":[-110.7507,33.9419]},{"code":"W7A/GI-085","program":"sota","name":"Coon Creek Butte","coordinates":[-110.9027,33.7632]}]}