{"lat":33.75,"lon":136,"programs":["sota"],"count":12,"references":[{"code":"JA/ME-027","program":"sota","name":"JA/ME-027","coordinates":[136.0835,33.9876]},{"code":"JA/ME-033","program":"sota","name":"Maruoyama","coordinates":[136.039,33.9126]},{"code":"JA/ME-046","program":"sota","name":"Nishimata","coordinates":[136.1306,33.9608]},{"code":"JA/ME-058","program":"sota","name":"Higureyama","coordinates":[136.0063,33.932]},{"code":"JA/ME-062","program":"sota","name":"Ojyamine(Daijyamine)","coordinates":[136.1158,33.9313]},{"code":"JA/ME-071","program":"sota","name":"Nakamine","coordinates":[136.0155,33.9864]},{"code":"JA/ME-088","program":"sota","name":"Tsuchiba","coordinates":[136.0041,33.9975]},{"code":"JA/ME-113","program":"sota","name":"Gejyoyama","coordinates":[136.1337,33.9856]},{"code":"JA/ME-115","program":"sota","name":"Kiyomizudani","coordinates":[136.0875,33.966]},{"code":"JA/ME-116","program":"sota","name":"JA/ME-116","coordinates":[136.1206,33.9813]},{"code":"JA/ME-122","program":"sota","name":"Nikijima","coordinates":[136.1687,33.9566]},{"code":"JA/ME-131","program":"sota","name":"Ooeboshiyama","coordinates":[136.008,33.771]}]}