{"lat":33.75,"lon":133.5,"programs":["pota","sota"],"count":19,"references":[{"code":"JP-1654","program":"pota","name":"Kinshako Prefectural Nature Park","coordinates":[133.53,33.9342]},{"code":"JP-1666","program":"pota","name":"Shiragayama Prefectural Nature Park","coordinates":[133.698,33.8066]},{"code":"JA5/EH-026","program":"sota","name":"Shiozukamine","coordinates":[133.6757,33.9263]},{"code":"JA5/EH-050","program":"sota","name":"Madate","coordinates":[133.6134,33.9339]},{"code":"JA5/EH-139","program":"sota","name":"Suihamine","coordinates":[133.5393,33.9424]},{"code":"JA5/EH-142","program":"sota","name":"JA5/EH-142","coordinates":[133.6463,33.9711]},{"code":"JA5/KC-008","program":"sota","name":"Kuishiyama","coordinates":[133.58,33.8556]},{"code":"JA5/KC-012","program":"sota","name":"Tokiyama","coordinates":[133.5088,33.8359]},{"code":"JA5/KC-013","program":"sota","name":"Shiragayama","coordinates":[133.5907,33.816]},{"code":"JA5/KC-016","program":"sota","name":"Oomoriyama","coordinates":[133.5439,33.8789]},{"code":"JA5/KC-027","program":"sota","name":"JA5/KC-027","coordinates":[133.7017,33.8498]},{"code":"JA5/KC-030","program":"sota","name":"Nankou","coordinates":[133.7034,33.8301]},{"code":"JA5/KC-040","program":"sota","name":"Kamatakiyama","coordinates":[133.5318,33.7841]},{"code":"JA5/KC-155","program":"sota","name":"JA5/KC-155","coordinates":[133.528,33.8529]},{"code":"JA5/KC-163","program":"sota","name":"Saga","coordinates":[133.7378,33.8083]},{"code":"JA5/KC-177","program":"sota","name":"Hiura","coordinates":[133.684,33.7763]},{"code":"JA5/TS-029","program":"sota","name":"Tengudake","coordinates":[133.6968,33.9116]},{"code":"JA5/TS-030","program":"sota","name":"Sanmyou","coordinates":[133.7221,33.8886]},{"code":"JA5/TS-097","program":"sota","name":"Sanboujiyama","coordinates":[133.6608,33.8836]}]}