{"lat":33.75,"lon":-112,"programs":["sota"],"count":15,"references":[{"code":"W7A/AW-040","program":"sota","name":"Humboldt Mountain","coordinates":[-111.798,33.9814]},{"code":"W7A/AW-047","program":"sota","name":"Skull Mesa","coordinates":[-111.9054,33.9266]},{"code":"W7A/MN-013","program":"sota","name":"Kentuck Mountain","coordinates":[-111.784,33.9137]},{"code":"W7A/MN-016","program":"sota","name":"Butte Peak","coordinates":[-111.8605,33.8961]},{"code":"W7A/MN-017","program":"sota","name":"Quien Sabe Peak","coordinates":[-111.8815,33.936]},{"code":"W7A/MN-025","program":"sota","name":"Black Mesa","coordinates":[-111.979,33.9237]},{"code":"W7A/MN-026","program":"sota","name":"4660","coordinates":[-111.751,33.9268]},{"code":"W7A/MN-029","program":"sota","name":"Continental Mountain","coordinates":[-111.8917,33.88]},{"code":"W7A/MN-041","program":"sota","name":"Elephant Mountain","coordinates":[-111.9831,33.8956]},{"code":"W7A/MN-043","program":"sota","name":"Spur Cross Butte","coordinates":[-111.9099,33.9022]},{"code":"W7A/MN-050","program":"sota","name":"Granite Mountain","coordinates":[-111.8046,33.7834]},{"code":"W7A/MN-057","program":"sota","name":"Black Mountain","coordinates":[-111.9413,33.8154]},{"code":"W7A/MN-080","program":"sota","name":"Cahava Springs Mtn","coordinates":[-111.994,33.8427]},{"code":"W7A/MN-109","program":"sota","name":"Fawn Peak","coordinates":[-111.9926,33.8203]},{"code":"W7A/MN-150","program":"sota","name":"Sugarloaf Mountain","coordinates":[-111.9641,33.9116]}]}