{"lat":34,"lon":133,"programs":["sota"],"count":9,"references":[{"code":"JA5/EH-089","program":"sota","name":"Washigatouzan","coordinates":[133.0214,34.2391]},{"code":"JA5/EH-099","program":"sota","name":"Nenbutsuyama","coordinates":[133.0529,34.1747]},{"code":"JA5/EH-113","program":"sota","name":"Kirousan","coordinates":[133.0336,34.1202]},{"code":"JA5/EH-125","program":"sota","name":"Near Akoune","coordinates":[133.1631,34.236]},{"code":"JA5/EH-157","program":"sota","name":"Hokosan","coordinates":[133.0871,34.2128]},{"code":"JA5/EH-162","program":"sota","name":"Himemasayama","coordinates":[133.0483,34.1285]},{"code":"JA5/EH-166","program":"sota","name":"Takatoriyama","coordinates":[133.0773,34.1602]},{"code":"JA5/EH-171","program":"sota","name":"Todai","coordinates":[133.0982,34.1674]},{"code":"JA5/EH-172","program":"sota","name":"Tateyama","coordinates":[133.0211,34.1136]}]}