{"lat":34,"lon":-93.25,"programs":["pota"],"count":5,"references":[{"code":"US-7188","program":"pota","name":"Terre Noire State Natural Area","coordinates":[-93.171,34.088]},{"code":"US-7443","program":"pota","name":"DeGray Lower Lake State Recreation Area","coordinates":[-93.0978,34.1783]},{"code":"US-7523","program":"pota","name":"DeGray Wildlife Management Area","coordinates":[-93.1085,34.2366]},{"code":"US-9681","program":"pota","name":"Camden Expedition Scenic Highway State Trail","coordinates":[-93.0531,34.1141]},{"code":"US-11214","program":"pota","name":"Highway 7 Rec Area State Fish and Wildlife Area","coordinates":[-93.0458,34.1224]}]}