{"lat":34,"lon":-119,"programs":["pota","sota"],"count":15,"references":[{"code":"US-1166","program":"pota","name":"Leo Carrillo State Park","coordinates":[-118.934,34.046]},{"code":"US-3537","program":"pota","name":"Point Dume State Beach","coordinates":[-118.806,34]},{"code":"US-3549","program":"pota","name":"Robert H. Meyer Memorial State Beach","coordinates":[-118.875,34.0386]},{"code":"W6/CC-056","program":"sota","name":"Sandstone Peak","coordinates":[-118.932,34.1204]},{"code":"W6/CC-057","program":"sota","name":"Castro Peak","coordinates":[-118.7857,34.0857]},{"code":"W6/CT-207","program":"sota","name":"Simi Peak","coordinates":[-118.7808,34.2045]},{"code":"W6/CT-228","program":"sota","name":"1821","coordinates":[-118.7983,34.1772]},{"code":"W6/SC-219","program":"sota","name":"Triunfo Lookout","coordinates":[-118.9154,34.106]},{"code":"W6/SC-229","program":"sota","name":"2507","coordinates":[-118.8328,34.0738]},{"code":"W6/SC-237","program":"sota","name":"2450","coordinates":[-118.8452,34.1087]},{"code":"W6/SC-285","program":"sota","name":"Ladyface","coordinates":[-118.773,34.135]},{"code":"W6/SC-292","program":"sota","name":"Clarks Peak","coordinates":[-118.9638,34.0834]},{"code":"W6/SC-311","program":"sota","name":"1838","coordinates":[-118.9141,34.0712]},{"code":"W6/SC-318","program":"sota","name":"Conejo Mountain","coordinates":[-118.9843,34.1883]},{"code":"W6/SC-354","program":"sota","name":"1338","coordinates":[-118.9478,34.199]}]}