{"lat":34,"lon":135.5,"programs":["pota","sota"],"count":20,"references":[{"code":"JP-0139","program":"pota","name":"Koya-Ryujin Quasi-National Park","coordinates":[135.56,34.0765]},{"code":"JP-1573","program":"pota","name":"Jogamori Hokodai Prefectural Nature Park","coordinates":[135.508,34.0363]},{"code":"JP-1989","program":"pota","name":"Gomadanzan Forest Prefectural Park","coordinates":[135.566,34.0406]},{"code":"JA/NR-014","program":"sota","name":"Hokozaidake","coordinates":[135.6253,34.0072]},{"code":"JA/NR-019","program":"sota","name":"Koujindake","coordinates":[135.6545,34.1524]},{"code":"JA/NR-020","program":"sota","name":"Hadakadake","coordinates":[135.6949,34.1092]},{"code":"JA/NR-021","program":"sota","name":"Nonoharatsuji","coordinates":[135.5958,34.0288]},{"code":"JA/NR-024","program":"sota","name":"Hiurayama","coordinates":[135.7331,34.0263]},{"code":"JA/NR-026","program":"sota","name":"Mizugamine Nanpou","coordinates":[135.6166,34.1556]},{"code":"JA/NR-028","program":"sota","name":"Jinomune","coordinates":[135.7251,34.1617]},{"code":"JA/NR-034","program":"sota","name":"Jingamine","coordinates":[135.6347,34.2039]},{"code":"JA/NR-060","program":"sota","name":"Natsumushiyama","coordinates":[135.635,34.0876]},{"code":"JA/NR-065","program":"sota","name":"Takaoze","coordinates":[135.5699,34.1128]},{"code":"JA/NR-066","program":"sota","name":"JA/NR-066","coordinates":[135.6816,34.0188]},{"code":"JA/WK-001","program":"sota","name":"Ryuujindake","coordinates":[135.5743,34.0588]},{"code":"JA/WK-009","program":"sota","name":"Susukitouge","coordinates":[135.5972,34.1908]},{"code":"JA/WK-010","program":"sota","name":"Mitsugataki","coordinates":[135.5553,34.148]},{"code":"JA/WK-012","program":"sota","name":"Tengudake","coordinates":[135.5154,34.1786]},{"code":"JA/WK-100","program":"sota","name":"Bentendake","coordinates":[135.5725,34.2205]},{"code":"JA/WK-142","program":"sota","name":"Youryusan","coordinates":[135.6068,34.2354]}]}