{"lat":34,"lon":-112.75,"programs":["sota"],"count":11,"references":[{"code":"W7A/YV-034","program":"sota","name":"East Antelope 2 Benchmark","coordinates":[-112.6744,34.221]},{"code":"W7A/YV-071","program":"sota","name":"Antelope Peak","coordinates":[-112.7324,34.2151]},{"code":"W7A/YV-093","program":"sota","name":"5460","coordinates":[-112.6687,34.1695]},{"code":"W7A/YV-097","program":"sota","name":"Wades Butte","coordinates":[-112.5785,34.1595]},{"code":"W7A/YV-098","program":"sota","name":"Rich Hill","coordinates":[-112.7121,34.1723]},{"code":"W7A/YV-107","program":"sota","name":"Seal Mountain","coordinates":[-112.5598,34.1541]},{"code":"W7A/YV-123","program":"sota","name":"Morgan Butte","coordinates":[-112.5515,34.0507]},{"code":"W7A/YV-128","program":"sota","name":"Swallow Mountain","coordinates":[-112.5188,34.0661]},{"code":"W7A/YV-145","program":"sota","name":"Sam Powell Peak","coordinates":[-112.636,34.0981]},{"code":"W7A/YV-154","program":"sota","name":"3883","coordinates":[-112.5846,34.1252]},{"code":"W7A/YV-196","program":"sota","name":"Boulder Pass Benchmark","coordinates":[-112.5011,34.1161]}]}