{"lat":34,"lon":-109.5,"programs":["pota","sota"],"count":6,"references":[{"code":"US-11949","program":"pota","name":"Becker Lake State Wildlife Area","coordinates":[-109.294,34.1445]},{"code":"US-11986","program":"pota","name":"Wenima State Wildlife Area","coordinates":[-109.304,34.1872]},{"code":"US-11987","program":"pota","name":"White Mountain State Wildlife Area","coordinates":[-109.427,34.1324]},{"code":"W7A/AE-022","program":"sota","name":"Antelope Mountain","coordinates":[-109.4652,34.0963]},{"code":"W7A/AP-033","program":"sota","name":"Flat Top","coordinates":[-109.2673,34.0841]},{"code":"W7A/AP-041","program":"sota","name":"7268","coordinates":[-109.3815,34.2277]}]}