{"lat":34,"lon":-118.25,"programs":["pota","sota"],"count":6,"references":[{"code":"US-3462","program":"pota","name":"Los Angeles State Historical Park","coordinates":[-118.234,34.0661]},{"code":"US-3548","program":"pota","name":"Rio de Los Angeles State Park","coordinates":[-118.236,34.098]},{"code":"W6/CT-019","program":"sota","name":"San Gabriel Peak","coordinates":[-118.0986,34.2433]},{"code":"W6/CT-098","program":"sota","name":"Occidental Peak","coordinates":[-118.0838,34.235]},{"code":"W6/CT-225","program":"sota","name":"Flint Peak","coordinates":[-118.1967,34.1636]},{"code":"W6/CT-226","program":"sota","name":"Cerro Negro Benchmark","coordinates":[-118.2077,34.1875]}]}