{"lat":34,"lon":133.5,"programs":["gma","sota"],"count":12,"references":[{"code":"XJA5/KA-054","program":"gma","name":"Kouyasan","coordinates":[133.6622,34.1675]},{"code":"JA5/EH-075","program":"sota","name":"Kanamiyama","coordinates":[133.6444,34.0278]},{"code":"JA5/KA-023","program":"sota","name":"Amagiriyama","coordinates":[133.7355,34.2356]},{"code":"JA5/KA-025","program":"sota","name":"Shiundezan","coordinates":[133.5957,34.2437]},{"code":"JA5/KA-028","program":"sota","name":"Myoukenzan","coordinates":[133.6451,34.2221]},{"code":"JA5/KA-034","program":"sota","name":"Shippousan","coordinates":[133.6699,34.1996]},{"code":"JA5/KA-039","program":"sota","name":"Takogiyama","coordinates":[133.6595,34.2129]},{"code":"JA5/KA-051","program":"sota","name":"Takaosan","coordinates":[133.6679,34.0539]},{"code":"JA5/KA-074","program":"sota","name":"Bishagoyama","coordinates":[133.7045,34.2256]},{"code":"JA5/KA-081","program":"sota","name":"Tokamiyama","coordinates":[133.7018,34.1866]},{"code":"JA5/KA-089","program":"sota","name":"Tsuzu","coordinates":[133.6651,34.171]},{"code":"JA5/TS-035","program":"sota","name":"Unpenjisan","coordinates":[133.7228,34.035]}]}