{"lat":34,"lon":134.25,"programs":["pota","sota"],"count":19,"references":[{"code":"JP-1638","program":"pota","name":"Okuimiyagawauchidani Prefectural Nature Park","coordinates":[134.354,34.1479]},{"code":"JP-1643","program":"pota","name":"Kamiyama Shinrin Prefectural Park","coordinates":[134.423,34.0225]},{"code":"JP-2031","program":"pota","name":"Asutamu Land Tokushima Prefectural Park","coordinates":[134.441,34.153]},{"code":"JA5/KA-009","program":"sota","name":"Kasagamine","coordinates":[134.2653,34.22]},{"code":"JA5/KA-021","program":"sota","name":"Toramarusan","coordinates":[134.3144,34.2162]},{"code":"JA5/KA-062","program":"sota","name":"JA5/KA-062","coordinates":[134.3594,34.2261]},{"code":"JA5/KA-090","program":"sota","name":"Nachisan","coordinates":[134.2966,34.232]},{"code":"JA5/TS-049","program":"sota","name":"Sankakuyama","coordinates":[134.3106,34.1706]},{"code":"JA5/TS-053","program":"sota","name":"Ooyama","coordinates":[134.3946,34.1637]},{"code":"JA5/TS-054","program":"sota","name":"Jyouousan","coordinates":[134.2697,34.1495]},{"code":"JA5/TS-060","program":"sota","name":"Ooasayama","coordinates":[134.4996,34.1864]},{"code":"JA5/TS-065","program":"sota","name":"Hirono","coordinates":[134.3893,34.0098]},{"code":"JA5/TS-069","program":"sota","name":"Nishiryuuouzan","coordinates":[134.4288,34.0247]},{"code":"JA5/TS-074","program":"sota","name":"Kirai","coordinates":[134.4071,34.0096]},{"code":"JA5/TS-085","program":"sota","name":"Takamaruyama","coordinates":[134.4976,34.0145]},{"code":"JA5/TS-110","program":"sota","name":"Okuhigaidani","coordinates":[134.2762,34.1665]},{"code":"JA5/TS-111","program":"sota","name":"JA5/TS-111","coordinates":[134.3667,34.0289]},{"code":"JA5/TS-119","program":"sota","name":"Aizomeyama","coordinates":[134.4693,34.1773]},{"code":"JA5/TS-129","program":"sota","name":"Tatsugayama","coordinates":[134.4593,34.0449]}]}