{"lat":34.25,"lon":132,"programs":["pota","sota"],"count":26,"references":[{"code":"JP-1616","program":"pota","name":"Mikuradake Prefectural Nature Park","coordinates":[132.158,34.3092]},{"code":"JP-1627","program":"pota","name":"Rakanzan Prefectural Nature Park","coordinates":[132.052,34.3504]},{"code":"JA/HS-002","program":"sota","name":"Kanmuriyama","coordinates":[132.0761,34.4687]},{"code":"JA/HS-020","program":"sota","name":"Komuroi","coordinates":[132.1835,34.4967]},{"code":"JA/HS-021","program":"sota","name":"Itajikimine","coordinates":[132.1454,34.4404]},{"code":"JA/HS-024","program":"sota","name":"Oomineyama","coordinates":[132.2169,34.4157]},{"code":"JA/HS-027","program":"sota","name":"Onigajyoyama","coordinates":[132.0715,34.4098]},{"code":"JA/HS-031","program":"sota","name":"Kanmuriyama","coordinates":[132.2134,34.4767]},{"code":"JA/HS-039","program":"sota","name":"Himizuyama","coordinates":[132.1729,34.4376]},{"code":"JA/HS-074","program":"sota","name":"Minamihimizu","coordinates":[132.166,34.4082]},{"code":"JA/HS-106","program":"sota","name":"Mikuradake","coordinates":[132.148,34.3171]},{"code":"JA/HS-108","program":"sota","name":"Gongenyama","coordinates":[132.2378,34.3427]},{"code":"JA/HS-113","program":"sota","name":"Kamikatsunariyama","coordinates":[132.186,34.3483]},{"code":"JA/HS-122","program":"sota","name":"Kasayama","coordinates":[132.2073,34.2824]},{"code":"JA/HS-139","program":"sota","name":"Kyoukoyasan","coordinates":[132.2436,34.2871]},{"code":"JA/HS-154","program":"sota","name":"Yokokabura","coordinates":[132.209,34.3096]},{"code":"JA/HS-235","program":"sota","name":"Megahirayama","coordinates":[132.1254,34.4971]},{"code":"JA/HS-240","program":"sota","name":"Mukaiya","coordinates":[132.1097,34.4433]},{"code":"JA/HS-275","program":"sota","name":"JA/HS-275","coordinates":[132.2044,34.3311]},{"code":"JA/SN-136","program":"sota","name":"JA/SN-136","coordinates":[132.0082,34.4414]},{"code":"JA/YG-001","program":"sota","name":"Kogorousan","coordinates":[132.0086,34.4168]},{"code":"JA/YG-002","program":"sota","name":"Rakanzan","coordinates":[132.0672,34.3556]},{"code":"JA/YG-016","program":"sota","name":"Kitanakayama","coordinates":[132.1035,34.3172]},{"code":"JA/YG-076","program":"sota","name":"Ikegamine","coordinates":[132.0585,34.2712]},{"code":"JA/YG-179","program":"sota","name":"Takahachiyama","coordinates":[132.0392,34.4008]},{"code":"JA/YG-191","program":"sota","name":"Hoshizaka","coordinates":[132.0121,34.3737]}]}