{"lat":34.25,"lon":135.5,"programs":["pota","sota"],"count":14,"references":[{"code":"JP-0136","program":"pota","name":"Kongo-Ikoma-Kisen Quasi-National Park","coordinates":[135.687,34.4607]},{"code":"JP-1524","program":"pota","name":"Nishikori Prefectural Park","coordinates":[135.572,34.4824]},{"code":"JP-1525","program":"pota","name":"Nagano Prefectural Park","coordinates":[135.574,34.4479]},{"code":"JP-1959","program":"pota","name":"Fumin-no-mori Chihaya Enchi Prefectural Park","coordinates":[135.677,34.4129]},{"code":"JP-1567","program":"pota","name":"Koyasan Choishimichi Tamagawakyo Prefectural Nature Park","coordinates":[135.651,34.2574]},{"code":"JP-1940","program":"pota","name":"Kihoku Prefectural Park","coordinates":[135.537,34.3139]},{"code":"JA/NR-029","program":"sota","name":"Kongouzan","coordinates":[135.6729,34.4194]},{"code":"JA/NR-052","program":"sota","name":"Ryuuouzan","coordinates":[135.7493,34.3034]},{"code":"JA/OS-001","program":"sota","name":"Katsuragisan","coordinates":[135.6823,34.4561]},{"code":"JA/WK-021","program":"sota","name":"Minamikatsuragisan","coordinates":[135.5381,34.3572]},{"code":"JA/WK-023","program":"sota","name":"Nanakasumiyama","coordinates":[135.6745,34.2579]},{"code":"JA/WK-045","program":"sota","name":"Mitsuishiyamanishimine","coordinates":[135.5721,34.357]},{"code":"JA/WK-107","program":"sota","name":"Ootsutsugamine","coordinates":[135.5316,34.2673]},{"code":"JA/WK-108","program":"sota","name":"Hoshiyama","coordinates":[135.5033,34.2511]}]}