{"lat":34.25,"lon":136,"programs":["pota","sota"],"count":14,"references":[{"code":"JP-1474","program":"pota","name":"Kahadakyo Prefectural Nature Park","coordinates":[136.21,34.3788]},{"code":"JP-1475","program":"pota","name":"Okuise Miyagawakyo Prefectural Nature Park","coordinates":[136.196,34.2864]},{"code":"JA/ME-002","program":"sota","name":"Hotakamyoujin","coordinates":[136.0948,34.361]},{"code":"JA/ME-005","program":"sota","name":"Mayoidake","coordinates":[136.2075,34.3501]},{"code":"JA/ME-006","program":"sota","name":"Kunimiyama","coordinates":[136.1463,34.2809]},{"code":"JA/ME-008","program":"sota","name":"Ematanokashira","coordinates":[136.163,34.3222]},{"code":"JA/ME-009","program":"sota","name":"Takamiyama","coordinates":[136.0885,34.4287]},{"code":"JA/ME-010","program":"sota","name":"Miuneyama","coordinates":[136.2063,34.4487]},{"code":"JA/ME-021","program":"sota","name":"Gakunodouyama","coordinates":[136.2298,34.492]},{"code":"JA/ME-025","program":"sota","name":"Masugatayama","coordinates":[136.1565,34.4045]},{"code":"JA/NR-008","program":"sota","name":"Senrimine","coordinates":[136.1146,34.3271]},{"code":"JA/NR-010","program":"sota","name":"Shirahigedake","coordinates":[136.0469,34.2929]},{"code":"JA/NR-015","program":"sota","name":"Shoubutsuyama Nanpou","coordinates":[136.027,34.3433]},{"code":"JA/NR-044","program":"sota","name":"JA/NR-044","coordinates":[136.1282,34.494]}]}