{"lat":34.25,"lon":-93.75,"programs":["sota"],"count":6,"references":[{"code":"W5A/CS-022","program":"sota","name":"Wilson Mountain","coordinates":[-93.6327,34.3242]},{"code":"W5A/CA-003","program":"sota","name":"Gap Mountain","coordinates":[-93.7446,34.3944]},{"code":"W5A/CA-005","program":"sota","name":"High Peak","coordinates":[-93.6049,34.4727]},{"code":"W5A/CA-006","program":"sota","name":"Crystal Mountains (HP)","coordinates":[-93.6219,34.4891]},{"code":"W5A/CA-007","program":"sota","name":"Sharp Top Mountain","coordinates":[-93.5433,34.424]},{"code":"W5A/CA-008","program":"sota","name":"Strawn Mountain","coordinates":[-93.5757,34.4014]}]}