{"lat":34.25,"lon":-119.5,"programs":["iota","pota","sota"],"count":8,"references":[{"code":"NA-144","program":"iota","name":"CALIFORNIA STATE SOUTH","coordinates":[-119.40999985,34.32500076]},{"code":"US-0639","program":"pota","name":"Los Padres National Forest","coordinates":[-119.364,34.4318]},{"code":"US-3430","program":"pota","name":"Emma Wood State Beach","coordinates":[-119.326,34.2853]},{"code":"US-3553","program":"pota","name":"San Buenaventura State Beach","coordinates":[-119.278,34.267]},{"code":"W6/CC-065","program":"sota","name":"Rincon Mountain","coordinates":[-119.4212,34.3723]},{"code":"W6/SC-045","program":"sota","name":"Santa Ynez Mountains (HP)","coordinates":[-119.4315,34.4797]},{"code":"W6/SC-271","program":"sota","name":"Red Mountain","coordinates":[-119.3445,34.348]},{"code":"W6/SC-305","program":"sota","name":"1876","coordinates":[-119.401,34.3685]}]}