{"lat":34.25,"lon":132.75,"programs":["pota","sota"],"count":21,"references":[{"code":"JP-1617","program":"pota","name":"Chikurinji Yokurayama Prefectural Nature Park","coordinates":[132.875,34.4591]},{"code":"JA/HS-147","program":"sota","name":"Nihongamine","coordinates":[132.8843,34.4874]},{"code":"JA/HS-156","program":"sota","name":"Horayama","coordinates":[132.786,34.3736]},{"code":"JA/HS-161","program":"sota","name":"JA/HS-161","coordinates":[132.7727,34.4741]},{"code":"JA/HS-162","program":"sota","name":"Wagi","coordinates":[132.9226,34.4938]},{"code":"JA/HS-164","program":"sota","name":"Matsukoyama","coordinates":[132.7846,34.4274]},{"code":"JA/HS-166","program":"sota","name":"Takamurayama","coordinates":[132.8744,34.46]},{"code":"JA/HS-188","program":"sota","name":"Asahiyama","coordinates":[132.8882,34.3538]},{"code":"JA/HS-211","program":"sota","name":"Ryumokuzan","coordinates":[132.7647,34.3026]},{"code":"JA/HS-212","program":"sota","name":"Heikeyama","coordinates":[132.9687,34.3526]},{"code":"JA/HS-233","program":"sota","name":"Futatsugashira","coordinates":[132.9189,34.2871]},{"code":"JA/HS-270","program":"sota","name":"Kamuokuyama","coordinates":[132.763,34.3438]},{"code":"JA/HS-271","program":"sota","name":"Near Iwatanikannon","coordinates":[132.845,34.4803]},{"code":"JA/HS-274","program":"sota","name":"JA/HS-274","coordinates":[132.8707,34.3513]},{"code":"JA/HS-284","program":"sota","name":"Shiratakiyama","coordinates":[132.996,34.3544]},{"code":"JA/HS-287","program":"sota","name":"Ryuoudaira","coordinates":[132.9331,34.4065]},{"code":"JA/HS-289","program":"sota","name":"JA/HS-289","coordinates":[132.9277,34.2611]},{"code":"JA/HS-306","program":"sota","name":"Iwami","coordinates":[132.9106,34.3764]},{"code":"JA5/EH-155","program":"sota","name":"Oosorayama","coordinates":[132.9962,34.2656]},{"code":"JA5/EH-165","program":"sota","name":"Sanbonenoki","coordinates":[132.9889,34.2866]},{"code":"JA5/EH-176","program":"sota","name":"Kagamiyama","coordinates":[132.9718,34.2637]}]}