{"lat":34.25,"lon":126.5,"programs":["pota","sota"],"count":14,"references":[{"code":"KR-0032","program":"pota","name":"두륜산도립공원 Provincial Park","coordinates":[126.638,34.4719]},{"code":"KR-0646","program":"pota","name":"완도자연휴양림\tWando Natural Recreation Forest Provincial Park","coordinates":[126.702,34.3529]},{"code":"HL/JN-024","program":"sota","name":"두륜산 (Duryunsan)","coordinates":[126.6378,34.4718]},{"code":"HL/JN-032","program":"sota","name":"대둔산 (Daedunsan)","coordinates":[126.6201,34.4518]},{"code":"HL/JN-042","program":"sota","name":"상황봉 (Sanghwangbong)","coordinates":[126.6926,34.3488]},{"code":"HL/JN-044","program":"sota","name":"노성산 (Noseongsan)","coordinates":[126.6336,34.4819]},{"code":"HL/JN-057","program":"sota","name":"백운산 (Baegunsan)","coordinates":[126.6847,34.3652]},{"code":"HL/JN-120","program":"sota","name":"달마산 (Dalmasan)","coordinates":[126.5853,34.3827]},{"code":"HL/JN-121","program":"sota","name":"향로봉 (Hyangnobong)","coordinates":[126.6069,34.484]},{"code":"HL/JN-177","program":"sota","name":"HL/JN-177","coordinates":[126.6628,34.3535]},{"code":"HL/JN-230","program":"sota","name":"가공산 (Gagongsan)","coordinates":[126.5602,34.4078]},{"code":"HL/JN-268","program":"sota","name":"선은산 (Seoneunsan)","coordinates":[126.5233,34.4778]},{"code":"HL/JN-358","program":"sota","name":"백방산 (Baekbangsan)","coordinates":[126.546,34.4361]},{"code":"HL/JN-365","program":"sota","name":"상상봉 (Sangsangbong)","coordinates":[126.5567,34.2781]}]}