{"lat":34.25,"lon":139.25,"programs":["pota","sota"],"count":5,"references":[{"code":"JP-1832","program":"pota","name":"Habushiura Prefectural Park","coordinates":[139.273,34.3782]},{"code":"JA/TK-021","program":"sota","name":"Miyatsukayama(Niijima)","coordinates":[139.2702,34.3969]},{"code":"JA/TK-025","program":"sota","name":"Omine","coordinates":[139.2693,34.3496]},{"code":"JA/TK-029","program":"sota","name":"Udoneshima","coordinates":[139.2937,34.4728]},{"code":"JA/TK-036","program":"sota","name":"Niijimayama","coordinates":[139.2837,34.4167]}]}