{"lat":34.5,"lon":127,"programs":["pota","sota"],"count":10,"references":[{"code":"KR-0450","program":"pota","name":"고흥만수변노을공원\tGoheongman Waterside Provincial Ecological Park","coordinates":[127.198,34.6436]},{"code":"KR-0689","program":"pota","name":"비봉공룡공원\tBibong Dinosaur Provincial Recreation Park","coordinates":[127.196,34.7101]},{"code":"HL/JN-035","program":"sota","name":"일림산 (Illimsan)","coordinates":[127.022,34.6767]},{"code":"HL/JN-117","program":"sota","name":"봉화산 (Bonghwasan)","coordinates":[127.1096,34.7441]},{"code":"HL/JN-125","program":"sota","name":"활성산 (Hwalseongsan)","coordinates":[127.0703,34.7169]},{"code":"HL/JN-181","program":"sota","name":"조타봉 (Jotabong)","coordinates":[127.1626,34.716]},{"code":"HL/JN-279","program":"sota","name":"HL/JN-279","coordinates":[127.2378,34.5496]},{"code":"HL/JN-296","program":"sota","name":"성재봉 (Seongjaebong)","coordinates":[127.0954,34.6028]},{"code":"HL/JN-325","program":"sota","name":"장계산 (Janggyesan)","coordinates":[127.1337,34.5596]},{"code":"HL/JN-337","program":"sota","name":"비봉산 (Bibongsan)","coordinates":[127.15,34.535]}]}