{"lat":34.5,"lon":131.5,"programs":["sota"],"count":20,"references":[{"code":"JA/SN-074","program":"sota","name":"Sugodayama","coordinates":[131.7333,34.5174]},{"code":"JA/SN-080","program":"sota","name":"Nakayama","coordinates":[131.7325,34.5631]},{"code":"JA/SN-097","program":"sota","name":"Notouge","coordinates":[131.7038,34.5653]},{"code":"JA/SN-113","program":"sota","name":"Oodouyama","coordinates":[131.7446,34.6414]},{"code":"JA/YG-037","program":"sota","name":"Gongenyama","coordinates":[131.6564,34.5039]},{"code":"JA/YG-040","program":"sota","name":"Iraoyama","coordinates":[131.6172,34.5248]},{"code":"JA/YG-056","program":"sota","name":"JA/YG-056","coordinates":[131.5922,34.5288]},{"code":"JA/YG-065","program":"sota","name":"Oobayama","coordinates":[131.5466,34.5142]},{"code":"JA/YG-068","program":"sota","name":"Mitsudake","coordinates":[131.5301,34.5054]},{"code":"JA/YG-079","program":"sota","name":"Oogushi","coordinates":[131.701,34.5368]},{"code":"JA/YG-084","program":"sota","name":"Kouyama","coordinates":[131.6134,34.6521]},{"code":"JA/YG-085","program":"sota","name":"Inunakiyama","coordinates":[131.624,34.5814]},{"code":"JA/YG-112","program":"sota","name":"Kamagayama","coordinates":[131.6559,34.5468]},{"code":"JA/YG-120","program":"sota","name":"Syuouzan","coordinates":[131.6916,34.6265]},{"code":"JA/YG-181","program":"sota","name":"Kidokoyama","coordinates":[131.6256,34.5108]},{"code":"JA/YG-185","program":"sota","name":"Atagoyama","coordinates":[131.5851,34.5187]},{"code":"JA/YG-186","program":"sota","name":"Tabettou","coordinates":[131.595,34.5656]},{"code":"JA/YG-218","program":"sota","name":"Karane","coordinates":[131.6874,34.5523]},{"code":"JA/YG-222","program":"sota","name":"JA/YG-222","coordinates":[131.6713,34.5614]},{"code":"JA/YG-255","program":"sota","name":"Shiritakayama","coordinates":[131.6499,34.6505]}]}