{"lat":34.5,"lon":-84.25,"programs":["pota","sota"],"count":13,"references":[{"code":"US-4556","program":"pota","name":"Appalachian Trail National Scenic Trail","coordinates":[-84.1937,34.6267]},{"code":"US-2166","program":"pota","name":"Amicalola Falls State Park","coordinates":[-84.2436,34.5683]},{"code":"US-7135","program":"pota","name":"Blue Ridge Wildlife Management Area","coordinates":[-84.1791,34.6605]},{"code":"US-12421","program":"pota","name":"Cochrans Creek Wildlife Management Area","coordinates":[-84.2097,34.5376]},{"code":"W4G/HC-005","program":"sota","name":"Springer Mountain","coordinates":[-84.1937,34.6268]},{"code":"W4G/NG-022","program":"sota","name":"Black Mountain","coordinates":[-84.0061,34.6749]},{"code":"W4G/NG-033","program":"sota","name":"Frozen Knob","coordinates":[-84.1195,34.683]},{"code":"W4G/NG-037","program":"sota","name":"Abercrombie Bald","coordinates":[-84.0217,34.6988]},{"code":"W4G/NG-040","program":"sota","name":"Sassafras Mountain","coordinates":[-84.094,34.6531]},{"code":"W4G/NG-041","program":"sota","name":"Gooch Mountain","coordinates":[-84.0382,34.6509]},{"code":"W4G/NG-050","program":"sota","name":"Rocky Mountain","coordinates":[-84.0861,34.7486]},{"code":"W4G/NG-052","program":"sota","name":"Pilot Mountain","coordinates":[-84.0448,34.7228]},{"code":"W4G/NG-081","program":"sota","name":"Whissenhunt Mountain","coordinates":[-84.0612,34.5957]}]}