{"lat":34.5,"lon":125.75,"programs":["sota"],"count":7,"references":[{"code":"HL/JN-203","program":"sota","name":"상산봉 (Sangsanbong)","coordinates":[125.846,34.6101]},{"code":"HL/JN-255","program":"sota","name":"HL/JN-255","coordinates":[125.9619,34.6359]},{"code":"HL/JN-256","program":"sota","name":"HL/JN-256","coordinates":[125.9411,34.6776]},{"code":"HL/JN-292","program":"sota","name":"선왕산 (Seonwangsan)","coordinates":[125.9041,34.7494]},{"code":"HL/JN-295","program":"sota","name":"도리산 (Dorisan)","coordinates":[125.8153,34.5986]},{"code":"HL/JN-335","program":"sota","name":"금성산 (Geumseongsan)","coordinates":[125.9793,34.6827]},{"code":"HL/JN-349","program":"sota","name":"근산 (Geunsan)","coordinates":[125.9626,34.6636]}]}