{"lat":34.5,"lon":135.75,"programs":["pota","sota"],"count":14,"references":[{"code":"JP-1505","program":"pota","name":"Keihanna Commemorative Prefectural Park","coordinates":[135.775,34.7468]},{"code":"JP-0138","program":"pota","name":"Yamato-Aogaki Quasi-National Park","coordinates":[135.857,34.5394]},{"code":"JP-1555","program":"pota","name":"Tsukigase Konosan Prefectural Nature Park","coordinates":[135.998,34.6696]},{"code":"JP-1557","program":"pota","name":"Nara Prefectural Park","coordinates":[135.843,34.6847]},{"code":"JP-1560","program":"pota","name":"Mahoroba Kenko Prefectural Park","coordinates":[135.783,34.5975]},{"code":"JP-1562","program":"pota","name":"Yamato Minzoku Prefectural Park","coordinates":[135.753,34.6537]},{"code":"JP-1566","program":"pota","name":"Nara Palace Site Historical Prefectural Park","coordinates":[135.793,34.6866]},{"code":"JP-1942","program":"pota","name":"Ken-ei Fukushi Prefectural Park","coordinates":[135.784,34.535]},{"code":"JA/NR-042","program":"sota","name":"Kaigahirayama","coordinates":[135.9463,34.5603]},{"code":"JA/NR-043","program":"sota","name":"Nukaidake","coordinates":[135.969,34.5589]},{"code":"JA/NR-048","program":"sota","name":"Kunimiyama","coordinates":[135.9012,34.6348]},{"code":"JA/NR-050","program":"sota","name":"Inasayama","coordinates":[135.9666,34.5049]},{"code":"JA/NR-054","program":"sota","name":"Kamakuradake","coordinates":[135.9104,34.5188]},{"code":"JA/NR-055","program":"sota","name":"Fukuchidake","coordinates":[135.9722,34.5342]}]}