{"lat":34.5,"lon":-85.5,"programs":["pota","sota"],"count":6,"references":[{"code":"US-3742","program":"pota","name":"Crockford-Pigeon Mountain Wildlife Management Area","coordinates":[-85.3399,34.7083]},{"code":"US-7903","program":"pota","name":"Zahnd Wildlife Management Area","coordinates":[-85.4699,34.655]},{"code":"US-7913","program":"pota","name":"Otting Wildlife Management Area","coordinates":[-85.4683,34.534]},{"code":"W4G/HC-024","program":"sota","name":"High Point","coordinates":[-85.3845,34.6986]},{"code":"W4G/HC-032","program":"sota","name":"1751","coordinates":[-85.3451,34.7332]},{"code":"W4G/HC-035","program":"sota","name":"Taylor Ridge","coordinates":[-85.2538,34.5495]}]}