{"lat":34.5,"lon":133.5,"programs":["pota","sota"],"count":17,"references":[{"code":"JP-1613","program":"pota","name":"Mizushima Ryokuchi Prefectural Park","coordinates":[133.749,34.5305]},{"code":"JA/OY-095","program":"sota","name":"Takatakiyama","coordinates":[133.6196,34.7035]},{"code":"JA/OY-097","program":"sota","name":"JA/OY-097","coordinates":[133.6148,34.7474]},{"code":"JA/OY-113","program":"sota","name":"Yoshozan","coordinates":[133.6101,34.5733]},{"code":"JA/OY-115","program":"sota","name":"JA/OY-115","coordinates":[133.6252,34.6352]},{"code":"JA/OY-118","program":"sota","name":"Kagiyama","coordinates":[133.6925,34.705]},{"code":"JA/OY-120","program":"sota","name":"Takayama","coordinates":[133.6443,34.6454]},{"code":"JA/OY-140","program":"sota","name":"Ryuouzan","coordinates":[133.5864,34.501]},{"code":"JA/OY-142","program":"sota","name":"JA/OY-142","coordinates":[133.6083,34.5978]},{"code":"JA/OY-175","program":"sota","name":"Ookuraryuouyama","coordinates":[133.5709,34.6803]},{"code":"JA/OY-190","program":"sota","name":"JA/OY-190","coordinates":[133.5457,34.5452]},{"code":"JA/OY-197","program":"sota","name":"Mukaiyama","coordinates":[133.5467,34.5215]},{"code":"JA/OY-200","program":"sota","name":"Inariyama","coordinates":[133.5565,34.6257]},{"code":"JA/OY-210","program":"sota","name":"Oujinyama","coordinates":[133.5231,34.5066]},{"code":"JA/OY-211","program":"sota","name":"Houguyama","coordinates":[133.6984,34.6121]},{"code":"JA/OY-212","program":"sota","name":"Miyazakiyama","coordinates":[133.507,34.5231]},{"code":"JA/OY-220","program":"sota","name":"Oohirayama","coordinates":[133.7234,34.5624]}]}