{"lat":34.5,"lon":134.25,"programs":["pota","sota"],"count":8,"references":[{"code":"JP-1544","program":"pota","name":"Ako Seaside Prefectural Park","coordinates":[134.397,34.7338]},{"code":"JA/HG-195","program":"sota","name":"Itadakinoiwa","coordinates":[134.4665,34.6489]},{"code":"JA/HG-286","program":"sota","name":"Ozaki","coordinates":[134.4219,34.7479]},{"code":"JA/OY-143","program":"sota","name":"Nishidomari","coordinates":[134.3037,34.7253]},{"code":"JA/OY-194","program":"sota","name":"Fukadani","coordinates":[134.3066,34.742]},{"code":"JA/OY-209","program":"sota","name":"JA/OY-209","coordinates":[134.2523,34.7225]},{"code":"JA5/KA-002","program":"sota","name":"Kensozan (Hoshigajyouyama)","coordinates":[134.3175,34.5154]},{"code":"JA5/KA-005","program":"sota","name":"Shihouzashi","coordinates":[134.2827,34.5125]}]}