{"lat":34.5,"lon":126.25,"programs":["pota","sota"],"count":11,"references":[{"code":"KR-0298","program":"pota","name":"진도갯벌습지보호구역\tJindo Mudflat Wetland National Nature Reserve","coordinates":[126.311,34.5546]},{"code":"KR-0449","program":"pota","name":"고천암자연생태공원\tGocheonam Provincial Ecological Park","coordinates":[126.463,34.5232]},{"code":"KR-0753","program":"pota","name":"갈마산공원\tGalmasan Neighborhood Provincial Park","coordinates":[126.377,34.7463]},{"code":"KR-0991","program":"pota","name":"영암국제자동차경주장\tKorea International Circuit Recreation Park","coordinates":[126.415,34.7381]},{"code":"HL/JN-228","program":"sota","name":"지령산 (Jiryeongsan)","coordinates":[126.341,34.7054]},{"code":"HL/JN-278","program":"sota","name":"호출산 (Hochulsan)","coordinates":[126.2895,34.6636]},{"code":"HL/JN-281","program":"sota","name":"상봉 (Sangbong)","coordinates":[126.336,34.5068]},{"code":"HL/JN-294","program":"sota","name":"고두산 (Godusan)","coordinates":[126.2809,34.52]},{"code":"HL/JN-308","program":"sota","name":"HL/JN-308","coordinates":[126.2916,34.7495]},{"code":"HL/JN-364","program":"sota","name":"금성산 (Geumseongsan)","coordinates":[126.3569,34.6842]},{"code":"HL/JN-373","program":"sota","name":"옥매산 (Okmaesan)","coordinates":[126.3652,34.5733]}]}