{"lat":34.5,"lon":127.5,"programs":["pota","sota"],"count":15,"references":[{"code":"KR-0323","program":"pota","name":"구봉산(여수)\tYeosu Gubongsan Mountain Provincial Park","coordinates":[127.714,34.7384]},{"code":"KR-0371","program":"pota","name":"여수남산공원\tYeosu Namsan Mountain Provincial Park","coordinates":[127.73,34.7319]},{"code":"KR-0836","program":"pota","name":"돌산공원\tDolsan Neighborhood Provincial Park","coordinates":[127.74,34.7304]},{"code":"KR-1063","program":"pota","name":"장도공원\tJangdo Island Neighborhood Provincial Park","coordinates":[127.664,34.7439]},{"code":"HL/JN-183","program":"sota","name":"구봉산 (Gubongsan)","coordinates":[127.7086,34.7395]},{"code":"HL/JN-187","program":"sota","name":"대부산 (Daebusan)","coordinates":[127.7222,34.5349]},{"code":"HL/JN-193","program":"sota","name":"봉화산 (Bonghwasan)","coordinates":[127.612,34.6529]},{"code":"HL/JN-214","program":"sota","name":"안심산 (Ansimsan)","coordinates":[127.6411,34.745]},{"code":"HL/JN-231","program":"sota","name":"봉화산 (Bonghwasan)","coordinates":[127.6568,34.5601]},{"code":"HL/JN-236","program":"sota","name":"장군산 (Janggunsan)","coordinates":[127.7181,34.7494]},{"code":"HL/JN-238","program":"sota","name":"안양산 (Anyangsan)","coordinates":[127.5918,34.6987]},{"code":"HL/JN-245","program":"sota","name":"비봉산 (Bibongsan)","coordinates":[127.6077,34.7275]},{"code":"HL/JN-259","program":"sota","name":"서이산 (Seoisan)","coordinates":[127.5617,34.6861]},{"code":"HL/JN-266","program":"sota","name":"백호산 (Baekhosan)","coordinates":[127.6343,34.6137]},{"code":"HL/JN-273","program":"sota","name":"낭도산 (Nangdosan)","coordinates":[127.5597,34.6118]}]}