{"lat":34.5,"lon":133.75,"programs":["pota","sota"],"count":21,"references":[{"code":"JP-1604","program":"pota","name":"Kibi Shiseki Prefectural Nature Park","coordinates":[133.766,34.7285]},{"code":"JP-1606","program":"pota","name":"Kibiji Fudoki no Oka Prefectural Nature Park","coordinates":[133.782,34.6682]},{"code":"JP-1610","program":"pota","name":"Okayama Prefectural Multipurpose Grounds Prefectural Park","coordinates":[133.917,34.6787]},{"code":"JP-1611","program":"pota","name":"Korakuen Prefectural Park","coordinates":[133.936,34.6678]},{"code":"JP-1612","program":"pota","name":"Kurashiki Sports Prefectural Park","coordinates":[133.805,34.6193]},{"code":"JA/OY-098","program":"sota","name":"Kanayama","coordinates":[133.9407,34.7448]},{"code":"JA/OY-104","program":"sota","name":"Jissoubouzan","coordinates":[133.7534,34.7422]},{"code":"JA/OY-114","program":"sota","name":"Kinkozan","coordinates":[133.9644,34.5591]},{"code":"JA/OY-134","program":"sota","name":"Tsuneyama","coordinates":[133.8867,34.5249]},{"code":"JA/OY-136","program":"sota","name":"Fukuyama","coordinates":[133.7596,34.6465]},{"code":"JA/OY-138","program":"sota","name":"Takiguchiyama","coordinates":[133.9949,34.7238]},{"code":"JA/OY-141","program":"sota","name":"Kamogatsujiyama","coordinates":[133.7827,34.5113]},{"code":"JA/OY-191","program":"sota","name":"Kojimachi","coordinates":[133.8664,34.5185]},{"code":"JA/OY-193","program":"sota","name":"Kaigarayama","coordinates":[133.9994,34.5769]},{"code":"JA/OY-198","program":"sota","name":"Tanematsuyama","coordinates":[133.7902,34.5483]},{"code":"JA/OY-199","program":"sota","name":"Tatsunokuchiyama","coordinates":[133.9722,34.7059]},{"code":"JA/OY-204","program":"sota","name":"Jyuzenjiyama","coordinates":[133.9496,34.527]},{"code":"JA/OY-206","program":"sota","name":"Mugiisan","coordinates":[133.912,34.5251]},{"code":"JA/OY-208","program":"sota","name":"Edayama","coordinates":[133.8014,34.6607]},{"code":"JA/OY-216","program":"sota","name":"Near Kibinakayama","coordinates":[133.8582,34.6744]},{"code":"JA/OY-219","program":"sota","name":"Misaoyama","coordinates":[133.9555,34.6611]}]}