{"lat":34.5,"lon":33,"programs":["pota","sota"],"count":10,"references":[{"code":"CY-0004","program":"pota","name":"Polemidia National Forest","coordinates":[33.002,34.7119]},{"code":"CY-0111","program":"pota","name":"Amathous Archeological Reserve","coordinates":[33.1433,34.7125]},{"code":"CY-0119","program":"pota","name":"Germasogeia Friendship of the Nations Park","coordinates":[33.0995,34.7084]},{"code":"CY-0120","program":"pota","name":"Garyllis Linear Park","coordinates":[33.0165,34.6914]},{"code":"CY-0121","program":"pota","name":"Limassol Municipal Garden Park","coordinates":[33.0543,34.6834]},{"code":"CY-0122","program":"pota","name":"CYTA Park","coordinates":[33.0167,34.6919]},{"code":"CY-0123","program":"pota","name":"Melina Mercury Park","coordinates":[33.0431,34.7104]},{"code":"CY-0125","program":"pota","name":"Limassol Molos Park","coordinates":[33.0468,34.6744]},{"code":"CY-0126","program":"pota","name":"Atlandidos Park","coordinates":[33.0719,34.6916]},{"code":"5B/CY-048","program":"sota","name":"Κορφή (Korfi)","coordinates":[33.0981,34.7428]}]}