{"lat":34.5,"lon":134,"programs":["sota"],"count":9,"references":[{"code":"JA/OY-131","program":"sota","name":"Nishioohirasan","coordinates":[134.1482,34.7256]},{"code":"JA/OY-133","program":"sota","name":"Karasudomariyama","coordinates":[134.2472,34.7428]},{"code":"JA/OY-192","program":"sota","name":"Maeyama","coordinates":[134.2107,34.7378]},{"code":"JA/OY-195","program":"sota","name":"Oohirayama","coordinates":[134.226,34.7031]},{"code":"JA/OY-196","program":"sota","name":"Tamakazurayama","coordinates":[134.1921,34.6926]},{"code":"JA/OY-202","program":"sota","name":"Katsurayama","coordinates":[134.1259,34.6856]},{"code":"JA/OY-205","program":"sota","name":"Tenbounooka","coordinates":[134.079,34.7405]},{"code":"JA/OY-207","program":"sota","name":"Keshigoyama","coordinates":[134.0155,34.6713]},{"code":"JA/OY-215","program":"sota","name":"Mujyouyama","coordinates":[134.0802,34.6325]}]}