{"lat":34.5,"lon":135.5,"programs":["pota","sota"],"count":21,"references":[{"code":"JP-0210","program":"pota","name":"Yodogawa Riverside National Government Park","coordinates":[135.558,34.7446]},{"code":"JP-1554","program":"pota","name":"Yata Prefectural Nature Park","coordinates":[135.737,34.6627]},{"code":"JP-1558","program":"pota","name":"Umami Kyuryo Prefectural Park","coordinates":[135.737,34.5626]},{"code":"JP-1559","program":"pota","name":"Obuchiike Prefectural Park","coordinates":[135.747,34.708]},{"code":"JP-1561","program":"pota","name":"Tatsuta Prefectural Park","coordinates":[135.718,34.6021]},{"code":"JP-1511","program":"pota","name":"Hiraoka Prefectural Park","coordinates":[135.655,34.674]},{"code":"JP-1512","program":"pota","name":"Ishikawa Kasen Prefectural Park","coordinates":[135.619,34.5458]},{"code":"JP-1513","program":"pota","name":"Oizumi Ryokuchi Prefectural Park","coordinates":[135.528,34.5644]},{"code":"JP-1520","program":"pota","name":"Fukakita Ryokuchi Prefectural Park","coordinates":[135.629,34.7262]},{"code":"JP-1521","program":"pota","name":"Kyuhoji Ryokuchi Prefectural Park","coordinates":[135.578,34.6306]},{"code":"JP-1954","program":"pota","name":"Fumin-no-mori Muroike Enchi Prefectural Park","coordinates":[135.667,34.7287]},{"code":"JP-1955","program":"pota","name":"Fumin-no-mori Kusaka Enchi Prefectural Park","coordinates":[135.668,34.691]},{"code":"JP-1956","program":"pota","name":"Fumin-no-mori Nukata Enchi Prefectural Park","coordinates":[135.673,34.6772]},{"code":"JP-1957","program":"pota","name":"Fumin-no-mori Narukawa Enchi Prefectural Park","coordinates":[135.666,34.6666]},{"code":"JP-1958","program":"pota","name":"Fumin-no-mori Mizunomi Enchi Provincial Park","coordinates":[135.659,34.6375]},{"code":"JP-2108","program":"pota","name":"Chikatsu Asuka Fudoki-No-Oka Historical Prefectural Park","coordinates":[135.641,34.5017]},{"code":"JA/NR-049","program":"sota","name":"Ikomayama","coordinates":[135.679,34.6785]},{"code":"JA/NR-056","program":"sota","name":"Nijyousan (Odake)","coordinates":[135.6776,34.5256]},{"code":"JA/NR-058","program":"sota","name":"Yatayama","coordinates":[135.7286,34.654]},{"code":"JA/NR-076","program":"sota","name":"Myoujinyama","coordinates":[135.6758,34.5739]},{"code":"JA/OS-021","program":"sota","name":"Terayama","coordinates":[135.6486,34.5439]}]}