{"lat":34.75,"lon":135.5,"programs":["pota","sota"],"count":18,"references":[{"code":"JP-1499","program":"pota","name":"Rakusai Joka Center Prefectural Park","coordinates":[135.708,34.9079]},{"code":"JP-1985","program":"pota","name":"Katsuragawa Sports Prefectural Park","coordinates":[135.694,34.9992]},{"code":"JP-1507","program":"pota","name":"Hokusetsu Prefectural Nature Park","coordinates":[135.624,34.9326]},{"code":"JP-1510","program":"pota","name":"Neyagawa Prefectural Park","coordinates":[135.652,34.7613]},{"code":"JP-1518","program":"pota","name":"Yamadaike Prefectural Park","coordinates":[135.691,34.8219]},{"code":"JP-1886","program":"pota","name":"Expo '70 Commemorative Prefectural Park","coordinates":[135.53,34.8112]},{"code":"JP-1952","program":"pota","name":"Fumin-no-mori Kurondo Enchi Prefectural Park","coordinates":[135.705,34.7647]},{"code":"JP-1953","program":"pota","name":"Fumin-no-mori Hoshida Enchi Prefectural Park","coordinates":[135.686,34.7514]},{"code":"JA/KT-035","program":"sota","name":"Oshioyama","coordinates":[135.6342,34.9617]},{"code":"JA/KT-041","program":"sota","name":"Yuuyagatake","coordinates":[135.5285,34.9357]},{"code":"JA/KT-053","program":"sota","name":"Reisen Golf Course (Nr 4th green)","coordinates":[135.5165,34.9852]},{"code":"JA/KT-132","program":"sota","name":"Near Sakuratouge","coordinates":[135.5528,34.968]},{"code":"JA/NR-057","program":"sota","name":"Hatafuriyama","coordinates":[135.7078,34.7808]},{"code":"JA/OS-004","program":"sota","name":"Kounoyama","coordinates":[135.506,34.9458]},{"code":"JA/OS-005","program":"sota","name":"Ponponyama","coordinates":[135.6238,34.9352]},{"code":"JA/OS-011","program":"sota","name":"Konpirasan","coordinates":[135.5871,34.9294]},{"code":"JA/OS-012","program":"sota","name":"Ryuuouzan","coordinates":[135.5491,34.8988]},{"code":"JA/OS-016","program":"sota","name":"Sekidougaoka","coordinates":[135.5007,34.8871]}]}