{"lat":34.75,"lon":133,"programs":["sota"],"count":14,"references":[{"code":"JA/HS-018","program":"sota","name":"Obara","coordinates":[133.0893,34.9917]},{"code":"JA/HS-019","program":"sota","name":"Near Shiratakiyama","coordinates":[133.1878,34.9835]},{"code":"JA/HS-040","program":"sota","name":"Katsukouzan","coordinates":[133.0233,34.9498]},{"code":"JA/HS-041","program":"sota","name":"Imagushiyama","coordinates":[133.0598,34.9602]},{"code":"JA/HS-051","program":"sota","name":"Ongamiyama","coordinates":[133.1509,34.8495]},{"code":"JA/HS-066","program":"sota","name":"Oohina","coordinates":[133.1981,34.9212]},{"code":"JA/HS-071","program":"sota","name":"Ooguromeyama","coordinates":[133.0935,34.8664]},{"code":"JA/HS-081","program":"sota","name":"JA/HS-081","coordinates":[133.2181,34.9199]},{"code":"JA/HS-082","program":"sota","name":"Ryuuouzan","coordinates":[133.1658,34.7526]},{"code":"JA/HS-111","program":"sota","name":"Ryuuouzan","coordinates":[133.1873,34.7971]},{"code":"JA/HS-132","program":"sota","name":"Kawanishi","coordinates":[133.0573,34.9049]},{"code":"JA/HS-241","program":"sota","name":"JA/HS-241","coordinates":[133.1567,34.9443]},{"code":"JA/HS-256","program":"sota","name":"Shitengaiyama","coordinates":[133.1115,34.9036]},{"code":"JA/HS-269","program":"sota","name":"JA/HS-269","coordinates":[133.2456,34.912]}]}