{"lat":34.75,"lon":133.75,"programs":["pota","sota"],"count":11,"references":[{"code":"JP-1608","program":"pota","name":"Kibi Seiryu Prefectural Nature Park","coordinates":[133.904,34.8635]},{"code":"JA/OY-061","program":"sota","name":"Futakamisan","coordinates":[133.8947,34.9765]},{"code":"JA/OY-079","program":"sota","name":"Honguzan","coordinates":[133.8455,34.9036]},{"code":"JA/OY-084","program":"sota","name":"Tuishise","coordinates":[133.8809,34.9455]},{"code":"JA/OY-088","program":"sota","name":"Takanbouyama","coordinates":[133.9257,34.9577]},{"code":"JA/OY-106","program":"sota","name":"Honmiyatakakurayama","coordinates":[133.9715,34.7511]},{"code":"JA/OY-108","program":"sota","name":"Honjinyama","coordinates":[133.8268,34.7931]},{"code":"JA/OY-112","program":"sota","name":"Jyunihongiyama","coordinates":[133.8599,34.7829]},{"code":"JA/OY-128","program":"sota","name":"Takishiroyama","coordinates":[133.967,34.7762]},{"code":"JA/OY-130","program":"sota","name":"Yatani","coordinates":[133.9264,34.8236]},{"code":"JA/OY-177","program":"sota","name":"Tsutsunomiyayama","coordinates":[133.9379,34.9762]}]}