{"lat":34.75,"lon":138.25,"programs":["pota","sota"],"count":11,"references":[{"code":"JP-1440","program":"pota","name":"Nihondaira Prefectural Nature Park","coordinates":[138.466,34.9749]},{"code":"JP-1446","program":"pota","name":"Yoshida Prefectural Park","coordinates":[138.285,34.7661]},{"code":"JP-1450","program":"pota","name":"Kusanagi Sports Complex Prefectural Park","coordinates":[138.429,34.989]},{"code":"JP-1982","program":"pota","name":"Shizuoka Performing Arts Prefectural Park","coordinates":[138.449,34.9809]},{"code":"JA/SO-090","program":"sota","name":"Dairabou","coordinates":[138.2725,34.9922]},{"code":"JA/SO-100","program":"sota","name":"Takakusayama","coordinates":[138.3193,34.9053]},{"code":"JA/SO-103","program":"sota","name":"Uzutanimura","coordinates":[138.301,34.9532]},{"code":"JA/SO-104","program":"sota","name":"Manganhou","coordinates":[138.3262,34.9227]},{"code":"JA/SO-116","program":"sota","name":"Bontenyama","coordinates":[138.3408,34.962]},{"code":"JA/SO-120","program":"sota","name":"Udoyama","coordinates":[138.4697,34.9731]},{"code":"JA/SO-157","program":"sota","name":"Ushioyama","coordinates":[138.2679,34.8965]}]}