{"lat":34.75,"lon":134.5,"programs":["pota","sota"],"count":36,"references":[{"code":"JP-1534","program":"pota","name":"Seiban Kyuryo Prefectural Nature Park","coordinates":[134.657,34.892]},{"code":"JP-2003","program":"pota","name":"Yumesaki no Mori Prefectural Park","coordinates":[134.664,34.9376]},{"code":"JP-2091","program":"pota","name":"Kunimi-no-Mori Prefectural Park","coordinates":[134.523,34.986]},{"code":"JA/HG-120","program":"sota","name":"Ookurayama","coordinates":[134.5098,34.8927]},{"code":"JA/HG-130","program":"sota","name":"Kurotani","coordinates":[134.5987,34.9706]},{"code":"JA/HG-132","program":"sota","name":"Fudousan","coordinates":[134.6,34.9466]},{"code":"JA/HG-141","program":"sota","name":"Kinoyama","coordinates":[134.5263,34.8966]},{"code":"JA/HG-142","program":"sota","name":"Ashida","coordinates":[134.6474,34.9527]},{"code":"JA/HG-145","program":"sota","name":"Near Zenjiyama","coordinates":[134.5654,34.9708]},{"code":"JA/HG-150","program":"sota","name":"Taniyama","coordinates":[134.6892,34.9235]},{"code":"JA/HG-156","program":"sota","name":"Minamiyama","coordinates":[134.5694,34.9541]},{"code":"JA/HG-158","program":"sota","name":"Takakurayama(Oragayama)","coordinates":[134.5177,34.945]},{"code":"JA/HG-162","program":"sota","name":"Shiono","coordinates":[134.5703,34.9857]},{"code":"JA/HG-170","program":"sota","name":"Ookamidani","coordinates":[134.6948,34.8988]},{"code":"JA/HG-172","program":"sota","name":"Shoshazan","coordinates":[134.6564,34.8925]},{"code":"JA/HG-176","program":"sota","name":"Takanaga","coordinates":[134.664,34.9539]},{"code":"JA/HG-177","program":"sota","name":"Iseyama","coordinates":[134.6243,34.9184]},{"code":"JA/HG-189","program":"sota","name":"Toyofu","coordinates":[134.7482,34.8591]},{"code":"JA/HG-229","program":"sota","name":"JA/HG-229","coordinates":[134.5102,34.9861]},{"code":"JA/HG-242","program":"sota","name":"Kitayama","coordinates":[134.5696,34.9236]},{"code":"JA/HG-244","program":"sota","name":"Ookurayama","coordinates":[134.7175,34.9647]},{"code":"JA/HG-256","program":"sota","name":"Segawa","coordinates":[134.5907,34.9599]},{"code":"JA/HG-257","program":"sota","name":"Kurakakeyama","coordinates":[134.6664,34.9162]},{"code":"JA/HG-258","program":"sota","name":"JA/HG-258","coordinates":[134.6189,34.9353]},{"code":"JA/HG-261","program":"sota","name":"Tsukamoto","coordinates":[134.6335,34.9319]},{"code":"JA/HG-264","program":"sota","name":"Jyougayama","coordinates":[134.5119,34.7768]},{"code":"JA/HG-268","program":"sota","name":"JA/HG-268","coordinates":[134.5959,34.8782]},{"code":"JA/HG-272","program":"sota","name":"Shiroyama","coordinates":[134.6117,34.8402]},{"code":"JA/HG-279","program":"sota","name":"Kawaragaichi","coordinates":[134.5953,34.8975]},{"code":"JA/HG-280","program":"sota","name":"Katayama","coordinates":[134.5606,34.8727]},{"code":"JA/HG-284","program":"sota","name":"Kyoumiyama","coordinates":[134.6167,34.8174]},{"code":"JA/HG-285","program":"sota","name":"Touyama","coordinates":[134.635,34.8561]},{"code":"JA/HG-287","program":"sota","name":"Momitori","coordinates":[134.6516,34.8352]},{"code":"JA/HG-289","program":"sota","name":"Jinjyuzan","coordinates":[134.7107,34.8063]},{"code":"JA/HG-290","program":"sota","name":"Minamiyama","coordinates":[134.7397,34.8053]},{"code":"JA/HG-292","program":"sota","name":"Umayama","coordinates":[134.5987,34.851]}]}