{"lat":34.75,"lon":133.25,"programs":["sota"],"count":16,"references":[{"code":"JA/HS-026","program":"sota","name":"Ooigatsujiyama","coordinates":[133.2652,34.9734]},{"code":"JA/HS-118","program":"sota","name":"Yonamiyama","coordinates":[133.3302,34.776]},{"code":"JA/HS-137","program":"sota","name":"Hayakaze","coordinates":[133.277,34.8536]},{"code":"JA/HS-259","program":"sota","name":"JA/HS-259","coordinates":[133.2911,34.7535]},{"code":"JA/HS-260","program":"sota","name":"Gongenyama","coordinates":[133.2773,34.7688]},{"code":"JA/OY-048","program":"sota","name":"Tenjinyama","coordinates":[133.4289,34.8575]},{"code":"JA/OY-050","program":"sota","name":"Kobukiyama","coordinates":[133.4125,34.8746]},{"code":"JA/OY-053","program":"sota","name":"Aratoyama","coordinates":[133.3725,34.933]},{"code":"JA/OY-054","program":"sota","name":"Inotsujiyama","coordinates":[133.3355,34.8448]},{"code":"JA/OY-067","program":"sota","name":"Daisen","coordinates":[133.4703,34.8492]},{"code":"JA/OY-068","program":"sota","name":"Niidono","coordinates":[133.3758,34.8113]},{"code":"JA/OY-069","program":"sota","name":"Kurokamiyama","coordinates":[133.4879,34.9965]},{"code":"JA/OY-072","program":"sota","name":"Daiboyama","coordinates":[133.48,34.9218]},{"code":"JA/OY-082","program":"sota","name":"Yokoro","coordinates":[133.3061,34.8889]},{"code":"JA/OY-093","program":"sota","name":"Ushimarudaisen","coordinates":[133.4538,34.973]},{"code":"JA/OY-171","program":"sota","name":"Fuka","coordinates":[133.4364,34.7862]}]}