{"lat":34.75,"lon":137.25,"programs":["pota","sota"],"count":13,"references":[{"code":"JP-1456","program":"pota","name":"Hongusan Prefectural Nature Park","coordinates":[137.421,34.9083]},{"code":"JP-1458","program":"pota","name":"Ishimakisan Tame Prefectural Nature Park","coordinates":[137.461,34.789]},{"code":"JP-1468","program":"pota","name":"Higashi-mikawa Furusato Prefectural Park","coordinates":[137.308,34.8387]},{"code":"JP-1924","program":"pota","name":"LAGUNA BEACH Prefectural Park","coordinates":[137.272,34.8061]},{"code":"JP-2111","program":"pota","name":"Mikawa Rinkai Ryokuchi Prefectural Park","coordinates":[137.318,34.7902]},{"code":"JA/AC-017","program":"sota","name":"Honguusan","coordinates":[137.4205,34.9098]},{"code":"JA/AC-023","program":"sota","name":"Sunagaganpou","coordinates":[137.4931,34.9407]},{"code":"JA/AC-031","program":"sota","name":"Goisan","coordinates":[137.2591,34.8471]},{"code":"JA/AC-032","program":"sota","name":"Kyougamine","coordinates":[137.3226,34.9007]},{"code":"JA/AC-034","program":"sota","name":"Kichijyozan","coordinates":[137.4783,34.8577]},{"code":"JA/AC-042","program":"sota","name":"Near Tomoeyama","coordinates":[137.4019,34.976]},{"code":"JA/AC-044","program":"sota","name":"Takanogozenyama","coordinates":[137.3549,34.9101]},{"code":"JA/SO-106","program":"sota","name":"Hiraoyama","coordinates":[137.4979,34.8268]}]}