{"lat":34.75,"lon":127,"programs":["pota","sota"],"count":18,"references":[{"code":"KR-0648","program":"pota","name":"보성윤제림\tBoseong Yunjaerim Provincial Park","coordinates":[127.207,34.8251]},{"code":"HL/JN-020","program":"sota","name":"존제산 (Jonjesan)","coordinates":[127.2319,34.8559]},{"code":"HL/JN-037","program":"sota","name":"망일봉 (Mangilbong)","coordinates":[127.2235,34.9406]},{"code":"HL/JN-046","program":"sota","name":"두봉산 (Dubongsan)","coordinates":[127.0741,34.9277]},{"code":"HL/JN-051","program":"sota","name":"천봉산 (Cheonbongsan)","coordinates":[127.1328,34.9476]},{"code":"HL/JN-056","program":"sota","name":"천운산 (Cheonunsan)","coordinates":[127.0478,34.9982]},{"code":"HL/JN-067","program":"sota","name":"계당산 (Gyedangsan)","coordinates":[127.0862,34.8834]},{"code":"HL/JN-068","program":"sota","name":"초암산 (Choamsan)","coordinates":[127.1936,34.8345]},{"code":"HL/JN-078","program":"sota","name":"용암산 (Yongamsan)","coordinates":[127.0055,34.9578]},{"code":"HL/JN-081","program":"sota","name":"조월산 (Jowolsan)","coordinates":[127.2118,34.8124]},{"code":"HL/JN-103","program":"sota","name":"황추산 (Hwangchusan)","coordinates":[127.0194,34.7811]},{"code":"HL/JN-115","program":"sota","name":"병옥산 (Byeongoksan)","coordinates":[127.0311,34.8235]},{"code":"HL/JN-123","program":"sota","name":"시리산 (Sirisan)","coordinates":[127.0443,34.8388]},{"code":"HL/JN-145","program":"sota","name":"대룡산 (Daeryongsan)","coordinates":[127.1221,34.792]},{"code":"HL/JN-152","program":"sota","name":"석호산 (Seokhosan)","coordinates":[127.1285,34.8228]},{"code":"HL/JN-162","program":"sota","name":"발룡산 (Ballyongsan)","coordinates":[127.0225,34.9203]},{"code":"HL/JN-166","program":"sota","name":"천마산 (Cheonmasan)","coordinates":[127.1276,34.8709]},{"code":"HL/JN-265","program":"sota","name":"오봉산 (Obongsan)","coordinates":[127.1736,34.7526]}]}