{"lat":34.75,"lon":132.75,"programs":["gma","pota","sota"],"count":23,"references":[{"code":"XJA/HS-194","program":"gma","name":"Hongou","coordinates":[132.9415,34.8559]},{"code":"JP-0214","program":"pota","name":"Bihoku Hillside National Government Park","coordinates":[132.997,34.8385]},{"code":"JP-1619","program":"pota","name":"kannosekyo Prefectural Nature Park","coordinates":[132.802,34.9971]},{"code":"JP-1624","program":"pota","name":"Miyoshi Prefectural Park","coordinates":[132.905,34.7982]},{"code":"JA/HS-029","program":"sota","name":"Kumayama","coordinates":[132.923,34.982]},{"code":"JA/HS-055","program":"sota","name":"Takagure","coordinates":[132.767,34.9913]},{"code":"JA/HS-057","program":"sota","name":"Kanmuriyama","coordinates":[132.798,34.9125]},{"code":"JA/HS-065","program":"sota","name":"Oogureyama","coordinates":[132.7935,34.9395]},{"code":"JA/HS-079","program":"sota","name":"Kanazaka","coordinates":[132.9731,34.9567]},{"code":"JA/HS-080","program":"sota","name":"Toribukuroyama","coordinates":[132.8906,34.9408]},{"code":"JA/HS-093","program":"sota","name":"Azumayama","coordinates":[132.8573,34.9281]},{"code":"JA/HS-103","program":"sota","name":"Near Hanganyama","coordinates":[132.8221,34.9109]},{"code":"JA/HS-134","program":"sota","name":"Iwakurayama","coordinates":[132.7618,34.8786]},{"code":"JA/HS-169","program":"sota","name":"Kitsunedukayama","coordinates":[132.8616,34.8894]},{"code":"JA/HS-174","program":"sota","name":"Takataniyama","coordinates":[132.8204,34.7943]},{"code":"JA/HS-182","program":"sota","name":"Takanosu","coordinates":[132.8977,34.8243]},{"code":"JA/HS-187","program":"sota","name":"Kifuneyama","coordinates":[132.9234,34.8714]},{"code":"JA/HS-197","program":"sota","name":"Matahira","coordinates":[132.8131,34.8351]},{"code":"JA/HS-249","program":"sota","name":"JA/HS-249","coordinates":[132.8822,34.9613]},{"code":"JA/HS-251","program":"sota","name":"Kamamineyama","coordinates":[132.938,34.9377]},{"code":"JA/HS-264","program":"sota","name":"Ooyama","coordinates":[132.7556,34.8422]},{"code":"JA/HS-267","program":"sota","name":"Takoudayama","coordinates":[132.7655,34.8908]},{"code":"JA/HS-277","program":"sota","name":"Terayashiki","coordinates":[132.9402,34.8663]}]}