{"lat":34.75,"lon":134.25,"programs":["sota"],"count":23,"references":[{"code":"JA/HG-125","program":"sota","name":"Minousan","coordinates":[134.4485,34.909]},{"code":"JA/HG-127","program":"sota","name":"Funaiwa","coordinates":[134.3259,34.9288]},{"code":"JA/HG-133","program":"sota","name":"Kusuyama","coordinates":[134.3746,34.9367]},{"code":"JA/HG-151","program":"sota","name":"Shirahatayama","coordinates":[134.3808,34.9082]},{"code":"JA/HG-154","program":"sota","name":"Hyakkendake","coordinates":[134.3434,34.7919]},{"code":"JA/HG-166","program":"sota","name":"Soubagaurayama","coordinates":[134.3171,34.7909]},{"code":"JA/HG-168","program":"sota","name":"Houdaisan","coordinates":[134.4142,34.8509]},{"code":"JA/HG-175","program":"sota","name":"Takakurayama","coordinates":[134.3555,34.9789]},{"code":"JA/HG-180","program":"sota","name":"Kurosawayama","coordinates":[134.3644,34.8419]},{"code":"JA/HG-181","program":"sota","name":"Ooishi","coordinates":[134.2966,34.8533]},{"code":"JA/HG-183","program":"sota","name":"Noseokuyama","coordinates":[134.4994,34.7919]},{"code":"JA/HG-185","program":"sota","name":"Arayama","coordinates":[134.4093,34.8242]},{"code":"JA/HG-190","program":"sota","name":"Kawamukouyama","coordinates":[134.3941,34.8133]},{"code":"JA/HG-192","program":"sota","name":"Takafuseyama","coordinates":[134.4405,34.7794]},{"code":"JA/HG-194","program":"sota","name":"Koumyousan","coordinates":[134.4724,34.8489]},{"code":"JA/HG-248","program":"sota","name":"Rokudouyama","coordinates":[134.3319,34.8159]},{"code":"JA/HG-267","program":"sota","name":"Tennouzan","coordinates":[134.3358,34.8523]},{"code":"JA/HG-278","program":"sota","name":"Idani","coordinates":[134.3235,34.8691]},{"code":"JA/OY-086","program":"sota","name":"Hattoujisan","coordinates":[134.2522,34.9232]},{"code":"JA/OY-111","program":"sota","name":"Ishidomaruyama","coordinates":[134.2792,34.8282]},{"code":"JA/OY-117","program":"sota","name":"Tenguyama","coordinates":[134.2941,34.7613]},{"code":"JA/OY-184","program":"sota","name":"JA/OY-184","coordinates":[134.2812,34.7739]},{"code":"JA/OY-185","program":"sota","name":"Tennouzan","coordinates":[134.2645,34.8113]}]}