{"lat":34.75,"lon":135.25,"programs":["gma","pota","sota"],"count":26,"references":[{"code":"XJA/OS-006","program":"gma","name":"Ishidogaoka","coordinates":[135.4999,34.896]},{"code":"JP-1546","program":"pota","name":"Kabutoyama Forest Prefectural Park","coordinates":[135.335,34.7724]},{"code":"JP-1549","program":"pota","name":"Hitokura Prefectural Park","coordinates":[135.419,34.9145]},{"code":"JP-1993","program":"pota","name":"Takarazuka Nishitani no Mori Prefectural Park","coordinates":[135.296,34.8984]},{"code":"JP-1998","program":"pota","name":"Nishiina Prefectural Park","coordinates":[135.418,34.8008]},{"code":"JP-0135","program":"pota","name":"Meiji no Mori Mino Quasi-National Park","coordinates":[135.478,34.8577]},{"code":"JP-1509","program":"pota","name":"Hattori Ryokuchi Prefectural Park","coordinates":[135.487,34.7763]},{"code":"JP-1519","program":"pota","name":"Mino Prefectural Park","coordinates":[135.472,34.847]},{"code":"JA/HG-029","program":"sota","name":"Rokkousan","coordinates":[135.2637,34.778]},{"code":"JA/HG-076","program":"sota","name":"Oofunayama","coordinates":[135.2822,34.9578]},{"code":"JA/HG-103","program":"sota","name":"Oominesan","coordinates":[135.332,34.8553]},{"code":"JA/HG-110","program":"sota","name":"JA/HG-110","coordinates":[135.259,34.9516]},{"code":"JA/HG-117","program":"sota","name":"Hatsukayama","coordinates":[135.2679,34.9186]},{"code":"JA/HG-139","program":"sota","name":"Furubousan","coordinates":[135.3176,34.8832]},{"code":"JA/HG-160","program":"sota","name":"JA/HG-160","coordinates":[135.4032,34.9306]},{"code":"JA/HG-216","program":"sota","name":"Hirugatake","coordinates":[135.298,34.9758]},{"code":"JA/HG-227","program":"sota","name":"Atagoyama","coordinates":[135.3324,34.9665]},{"code":"JA/HG-238","program":"sota","name":"Mikurayama","coordinates":[135.329,34.9328]},{"code":"JA/HG-243","program":"sota","name":"Ooiwadake","coordinates":[135.2803,34.8858]},{"code":"JA/OS-007","program":"sota","name":"Myoukensan","coordinates":[135.4673,34.9289]},{"code":"JA/OS-008","program":"sota","name":"Akegataoyama","coordinates":[135.478,34.8884]},{"code":"JA/OS-010","program":"sota","name":"Doutokoyama","coordinates":[135.348,34.9708]},{"code":"JA/OS-013","program":"sota","name":"Kodaijiyama","coordinates":[135.4345,34.9168]},{"code":"JA/OS-014","program":"sota","name":"Ryuouzan","coordinates":[135.4209,34.96]},{"code":"JA/OS-017","program":"sota","name":"Takiouzan","coordinates":[135.3621,34.9615]},{"code":"JA/OS-018","program":"sota","name":"Utagakiyama","coordinates":[135.4768,34.974]}]}