{"lat":34.75,"lon":139,"programs":["sota"],"count":6,"references":[{"code":"JA/SO-030","program":"sota","name":"Amagisan (Banzaburoudake)","coordinates":[139.0018,34.8629]},{"code":"JA/SO-038","program":"sota","name":"Tougasayama","coordinates":[139.0325,34.8789]},{"code":"JA/SO-082","program":"sota","name":"Oomuroyama","coordinates":[139.0946,34.9031]},{"code":"JA/SO-143","program":"sota","name":"Near oobirayama","coordinates":[139.0602,34.9717]},{"code":"JA/SO-153","program":"sota","name":"Komuroyama","coordinates":[139.1314,34.9396]},{"code":"JA/SO-161","program":"sota","name":"Yahazuyama","coordinates":[139.0573,34.8948]}]}