{"lat":34.75,"lon":135,"programs":["pota","sota"],"count":16,"references":[{"code":"JP-1530","program":"pota","name":"Kiyomizu Tojoko Tachikui Prefectural Nature Park","coordinates":[135.068,34.9272]},{"code":"JP-1540","program":"pota","name":"Arima Fuji Prefectural Park","coordinates":[135.224,34.9134]},{"code":"JP-1997","program":"pota","name":"Miki Sogo Bosai Prefectural Park","coordinates":[135.049,34.7841]},{"code":"JP-2001","program":"pota","name":"Yashiro Forest Prefectural Park","coordinates":[135.04,34.9081]},{"code":"JA/HG-086","program":"sota","name":"Chigogahakayama","coordinates":[135.1401,34.7836]},{"code":"JA/HG-088","program":"sota","name":"Kokuzousan","coordinates":[135.1392,34.985]},{"code":"JA/HG-089","program":"sota","name":"Wadenjiyama","coordinates":[135.1135,34.9923]},{"code":"JA/HG-090","program":"sota","name":"Senjyoujisan","coordinates":[135.2219,34.9674]},{"code":"JA/HG-104","program":"sota","name":"Kitayama","coordinates":[135.0725,34.9933]},{"code":"JA/HG-108","program":"sota","name":"Shimizudera","coordinates":[135.0827,34.9745]},{"code":"JA/HG-138","program":"sota","name":"JA/HG-138","coordinates":[135.0278,34.967]},{"code":"JA/HG-152","program":"sota","name":"Tenjindake","coordinates":[135.1894,34.9787]},{"code":"JA/HG-157","program":"sota","name":"Yokawa Royal GC (6th hole)","coordinates":[135.0773,34.9524]},{"code":"JA/HG-161","program":"sota","name":"Mikusayama","coordinates":[135.0363,34.9454]},{"code":"JA/HG-241","program":"sota","name":"Nishiyama","coordinates":[135.0615,34.9544]},{"code":"JA/HG-245","program":"sota","name":"Arimafuji","coordinates":[135.2305,34.924]}]}