{"lat":34.75,"lon":-83.25,"programs":["pota","sota"],"count":13,"references":[{"code":"US-9758","program":"pota","name":"Chattooga National Wild and Scenic River","coordinates":[-83.1928,34.9402]},{"code":"US-2908","program":"pota","name":"Oconee State Park","coordinates":[-83.1051,34.8655]},{"code":"US-3882","program":"pota","name":"Oconee Station State Historic Site","coordinates":[-83.0718,34.8468]},{"code":"US-3890","program":"pota","name":"Buzzard Roost Heritage Preserve Wildlife Management Area","coordinates":[-83.1426,34.7663]},{"code":"US-4523","program":"pota","name":"Sumter National Forest","coordinates":[-83.1286,34.8059]},{"code":"W4C/US-004","program":"sota","name":"Fork Mountain","coordinates":[-83.0804,34.9928]},{"code":"W4C/US-013","program":"sota","name":"Big Stakey Mountain","coordinates":[-83.1327,34.9126]},{"code":"W4C/US-018","program":"sota","name":"John Mountain","coordinates":[-83.2363,34.8337]},{"code":"W4C/US-033","program":"sota","name":"Round Top","coordinates":[-83.1202,34.9484]},{"code":"W4G/NG-025","program":"sota","name":"Glade Mountain","coordinates":[-83.1342,34.9983]},{"code":"W4G/NG-061","program":"sota","name":"Rand Mountain","coordinates":[-83.1364,34.9562]},{"code":"W4G/NG-066","program":"sota","name":"Oakey Top","coordinates":[-83.161,34.9366]},{"code":"W4G/NG-071","program":"sota","name":"Oakey Top","coordinates":[-83.208,34.9152]}]}