{"lat":35,"lon":134.5,"programs":["pota","sota"],"count":27,"references":[{"code":"JP-1537","program":"pota","name":"Seppiko Mineyama Prefectural Nature Park","coordinates":[134.666,35.0633]},{"code":"JA/HG-009","program":"sota","name":"Senchougamine","coordinates":[134.6976,35.1834]},{"code":"JA/HG-012","program":"sota","name":"Sankyuanzan","coordinates":[134.5721,35.2471]},{"code":"JA/HG-013","program":"sota","name":"Dangamine","coordinates":[134.7274,35.1916]},{"code":"JA/HG-014","program":"sota","name":"Ajyariyama","coordinates":[134.5606,35.2212]},{"code":"JA/HG-015","program":"sota","name":"Gyouseizan","coordinates":[134.6567,35.1323]},{"code":"JA/HG-017","program":"sota","name":"Hitotsuyama","coordinates":[134.5808,35.207]},{"code":"JA/HG-020","program":"sota","name":"Kuroozan","coordinates":[134.5396,35.1056]},{"code":"JA/HG-021","program":"sota","name":"Higashiyama","coordinates":[134.5844,35.1704]},{"code":"JA/HG-025","program":"sota","name":"Kurotaki","coordinates":[134.6622,35.0897]},{"code":"JA/HG-026","program":"sota","name":"Oodanyama","coordinates":[134.6787,35.1985]},{"code":"JA/HG-031","program":"sota","name":"JA/HG-031","coordinates":[134.5288,35.1242]},{"code":"JA/HG-035","program":"sota","name":"Suikenzan(Northeast  Peak)","coordinates":[134.524,35.0741]},{"code":"JA/HG-037","program":"sota","name":"Takamine","coordinates":[134.647,35.1782]},{"code":"JA/HG-049","program":"sota","name":"Gozouyama","coordinates":[134.5756,35.1486]},{"code":"JA/HG-067","program":"sota","name":"Nagusayama","coordinates":[134.7036,35.0159]},{"code":"JA/HG-070","program":"sota","name":"Myoujinsan","coordinates":[134.6531,35.0012]},{"code":"JA/HG-078","program":"sota","name":"Miyayama","coordinates":[134.5538,35.0514]},{"code":"JA/HG-092","program":"sota","name":"Chouzuisan","coordinates":[134.5282,35.0442]},{"code":"JA/HG-093","program":"sota","name":"Nagusayari","coordinates":[134.7211,35.013]},{"code":"JA/HG-102","program":"sota","name":"Kamonbashi","coordinates":[134.6422,35.2054]},{"code":"JA/HG-124","program":"sota","name":"JA/HG-124","coordinates":[134.6105,35.0044]},{"code":"JA/HG-198","program":"sota","name":"Hirano","coordinates":[134.6563,35.1132]},{"code":"JA/HG-200","program":"sota","name":"Sumikawa","coordinates":[134.5004,35.1203]},{"code":"JA/HG-205","program":"sota","name":"Tanimura","coordinates":[134.5592,35.1569]},{"code":"JA/HG-226","program":"sota","name":"Yasushi","coordinates":[134.5839,35.0043]},{"code":"JA/HG-228","program":"sota","name":"Sasanomaru","coordinates":[134.5034,35.0343]}]}