{"lat":35,"lon":-82.5,"programs":["pota","sota"],"count":12,"references":[{"code":"US-3892","program":"pota","name":"Chestnut Ridge Heritage Preserve Wildlife Management Area","coordinates":[-82.2812,35.1305]},{"code":"W4C/CM-160","program":"sota","name":"Long Mountain","coordinates":[-82.4652,35.193]},{"code":"W4C/US-005","program":"sota","name":"Hogback Mountain","coordinates":[-82.2904,35.1701]},{"code":"W4C/US-007","program":"sota","name":"Rocky Spur","coordinates":[-82.2929,35.1839]},{"code":"W4C/US-008","program":"sota","name":"Rich Mountain","coordinates":[-82.3361,35.1561]},{"code":"W4C/US-009","program":"sota","name":"Corbin Mountain","coordinates":[-82.4347,35.1683]},{"code":"W4C/US-010","program":"sota","name":"Panther Mountain","coordinates":[-82.4574,35.1654]},{"code":"W4C/US-011","program":"sota","name":"Evans Mountain","coordinates":[-82.3827,35.1944]},{"code":"W4C/US-012","program":"sota","name":"Walnut Mountain","coordinates":[-82.4051,35.1894]},{"code":"W4C/US-017","program":"sota","name":"Plumley Mountain","coordinates":[-82.4031,35.161]},{"code":"W4C/US-027","program":"sota","name":"Chestnut Mountain","coordinates":[-82.4163,35.1147]},{"code":"W4C/US-028","program":"sota","name":"1791","coordinates":[-82.475,35.1095]}]}