{"lat":35,"lon":-85.25,"programs":["pota","sota","wwbota"],"count":8,"references":[{"code":"US-2933","program":"pota","name":"Booker T Washington State Park","coordinates":[-85.1752,35.1111]},{"code":"US-2951","program":"pota","name":"Harrison Bay State Park","coordinates":[-85.1166,35.174]},{"code":"US-3958","program":"pota","name":"North Chickamauga Creek Wildlife Management Area","coordinates":[-85.2189,35.1645]},{"code":"US-11879","program":"pota","name":"North Chickamauga Creek Gorge State Park","coordinates":[-85.2325,35.2353]},{"code":"W4T/RV-087","program":"sota","name":"White Oak Mountain","coordinates":[-85.0238,35.1491]},{"code":"W4T/RV-088","program":"sota","name":"Grindstone Mountain","coordinates":[-85.0218,35.0707]},{"code":"B/US-0162","program":"wwbota","name":"VAAP Tennessee Cluster #1","coordinates":[-85.11486,35.08897]},{"code":"B/US-0163","program":"wwbota","name":"VAAP Tennessee Cluster #2","coordinates":[-85.15341,35.09414]}]}