{"lat":35,"lon":128.75,"programs":["pota","sota"],"count":30,"references":[{"code":"KR-0302","program":"pota","name":"다대포해변공원\tDadaepo Beach National Park","coordinates":[128.967,35.0556]},{"code":"KR-0423","program":"pota","name":"몰운대유원지\tMolwundae Coast Provincial Park","coordinates":[128.97,35.0402]},{"code":"KR-0473","program":"pota","name":"대저생태공원\tDaejeo Provincial Ecological Park","coordinates":[128.989,35.2107]},{"code":"KR-0498","program":"pota","name":"맥도생태공원\tMaekdo Provincial Ecological Park","coordinates":[128.956,35.1498]},{"code":"KR-0518","program":"pota","name":"삼락생태공원\tSamnak Riverside Provincial Ecological Park","coordinates":[128.975,35.1591]},{"code":"KR-0555","program":"pota","name":"에덴유원지\tEden Provincial Ecological Park","coordinates":[128.962,35.1092]},{"code":"KR-0579","program":"pota","name":"을숙도생태공원\tEulsukdo Island Provincial Ecological Park","coordinates":[128.946,35.1048]},{"code":"KR-0906","program":"pota","name":"사상근린공원\tSasang Neighborhood Provincial Park","coordinates":[128.993,35.1594]},{"code":"KR-0953","program":"pota","name":"송정공원(강서구)\tGangseo Songjeong Neighborhood Provincial Park","coordinates":[128.823,35.0991]},{"code":"KR-0968","program":"pota","name":"신호공원\tSinho Neighborhood Provincial Park","coordinates":[128.871,35.0817]},{"code":"KR-1006","program":"pota","name":"와룡공원(부산)\tBusan Waryong Neighborhood Provincial Park","coordinates":[128.854,35.1563]},{"code":"KR-1021","program":"pota","name":"울림공원\tUllim Neighborhood Provincial Park","coordinates":[128.927,35.1011]},{"code":"KR-1102","program":"pota","name":"태야공원\tTaeya Neighborhood Provincial Park","coordinates":[128.87,35.1463]},{"code":"KR-1270","program":"pota","name":"명지근린공원 Myeongji Neighborhood Provincial Park","coordinates":[128.909,35.0875]},{"code":"KR-0124","program":"pota","name":"수로왕릉\tTomb of King Suro National Historic Trail","coordinates":[128.878,35.2355]},{"code":"KR-0222","program":"pota","name":"국립용지봉자연휴양림\tYongjibong Nature Recreation National Forest","coordinates":[128.776,35.1855]},{"code":"KR-0894","program":"pota","name":"봉황대공원\tBonghwangdae Neighborhood Provincial Park","coordinates":[128.877,35.2304]},{"code":"KR-0986","program":"pota","name":"연지공원\tYeonji Neighborhood Provincial Park","coordinates":[128.868,35.2451]},{"code":"HL/BS-002","program":"sota","name":"구덕산 (Gudeoksan)","coordinates":[128.9994,35.1225]},{"code":"HL/BS-011","program":"sota","name":"보배산 (Bobaesan)","coordinates":[128.8264,35.1296]},{"code":"HL/BS-012","program":"sota","name":"연대봉 (Yeondaebong)","coordinates":[128.8339,35.0267]},{"code":"HL/BS-019","program":"sota","name":"봉화산 (Bonghwasan)","coordinates":[128.8705,35.1205]},{"code":"HL/BS-021","program":"sota","name":"국수봉 (Guksubong)","coordinates":[128.8344,35.0049]},{"code":"HL/BS-024","program":"sota","name":"아미산 (Amisan)","coordinates":[128.9685,35.0657]},{"code":"HL/GN-097","program":"sota","name":"용제봉 (Yongjebong)","coordinates":[128.7515,35.2011]},{"code":"HL/GN-217","program":"sota","name":"황새봉 (Hwangsaebong)","coordinates":[128.7948,35.2494]},{"code":"HL/GN-235","program":"sota","name":"옥녀봉 (Ongnyeobong)","coordinates":[128.8442,35.1652]},{"code":"HL/GN-300","program":"sota","name":"반룡산 (Ballyongsan)","coordinates":[128.8133,35.1864]},{"code":"HL/GN-326","program":"sota","name":"욕망산 (Yongmangsan)","coordinates":[128.793,35.086]},{"code":"HL/GN-327","program":"sota","name":"남산 (Namsan)","coordinates":[128.7599,35.0973]}]}