{"lat":35,"lon":134,"programs":["sota"],"count":13,"references":[{"code":"JA/OY-001","program":"sota","name":"Nagisan","coordinates":[134.1803,35.1717]},{"code":"JA/OY-013","program":"sota","name":"Hirotosen (Tsumegajyoyama)","coordinates":[134.1254,35.162]},{"code":"JA/OY-038","program":"sota","name":"Maguwa","coordinates":[134.224,35.1775]},{"code":"JA/OY-043","program":"sota","name":"Tengujiyama","coordinates":[134.0507,35.146]},{"code":"JA/OY-046","program":"sota","name":"Yamagatasen","coordinates":[134.103,35.1396]},{"code":"JA/OY-065","program":"sota","name":"Terayama","coordinates":[134.0544,35.2024]},{"code":"JA/OY-123","program":"sota","name":"Tane","coordinates":[134.0015,35.0385]},{"code":"JA/OY-125","program":"sota","name":"Takahinoyama","coordinates":[134.0895,35.0072]},{"code":"JA/OY-139","program":"sota","name":"Shiooyama","coordinates":[134.1651,35.0062]},{"code":"JA/OY-152","program":"sota","name":"Daigasen","coordinates":[134.0843,35.2401]},{"code":"JA/OY-169","program":"sota","name":"Shiroganeyama","coordinates":[134.0703,35.2018]},{"code":"JA/OY-186","program":"sota","name":"Koujinyama","coordinates":[134.0153,35.0308]},{"code":"JA/OY-188","program":"sota","name":"Shiroyama","coordinates":[134.0465,35.0262]}]}