{"lat":35,"lon":-83.25,"programs":["sota"],"count":23,"references":[{"code":"W4C/WM-028","program":"sota","name":"Yellow Mountain","coordinates":[-83.1914,35.1357]},{"code":"W4C/WM-033","program":"sota","name":"Shortoff Mountain","coordinates":[-83.1816,35.1077]},{"code":"W4C/WM-040","program":"sota","name":"Little Hogback Mountain","coordinates":[-83.2179,35.1587]},{"code":"W4C/WM-041","program":"sota","name":"Black Rock Mountain","coordinates":[-83.2033,35.146]},{"code":"W4C/WM-042","program":"sota","name":"Whiteside Mountain","coordinates":[-83.138,35.0813]},{"code":"W4C/WM-043","program":"sota","name":"Old Rocky Mountain","coordinates":[-83.2279,35.1951]},{"code":"W4C/WM-051","program":"sota","name":"Big Ridge","coordinates":[-83.0942,35.1839]},{"code":"W4C/WM-056","program":"sota","name":"Sheep Cliff","coordinates":[-83.0972,35.1351]},{"code":"W4C/WM-060","program":"sota","name":"Panther Mountain","coordinates":[-83.2259,35.1158]},{"code":"W4C/WM-061","program":"sota","name":"Chimneytop Mountain","coordinates":[-83.0639,35.102]},{"code":"W4C/WM-064","program":"sota","name":"Satulah Mountain","coordinates":[-83.1922,35.0362]},{"code":"W4C/WM-068","program":"sota","name":"Terrapin Mountain","coordinates":[-83.0913,35.0519]},{"code":"W4C/WM-072","program":"sota","name":"Rocky Mountain","coordinates":[-83.0711,35.1106]},{"code":"W4C/WM-074","program":"sota","name":"Chestnut Mountain","coordinates":[-83.125,35.198]},{"code":"W4C/WM-075","program":"sota","name":"Moss Knob","coordinates":[-83.2242,35.2383]},{"code":"W4C/WM-077","program":"sota","name":"Cherry Knob","coordinates":[-83.1614,35.2469]},{"code":"W4C/WM-079","program":"sota","name":"Brushy Face","coordinates":[-83.2157,35.0376]},{"code":"W4C/WM-083","program":"sota","name":"Shoal Mountain","coordinates":[-83.1432,35.1949]},{"code":"W4C/WM-085","program":"sota","name":"Keener Mountain","coordinates":[-83.2489,35.0975]},{"code":"W4C/WM-095","program":"sota","name":"Little Terrapin Mountain","coordinates":[-83.0823,35.0797]},{"code":"W4C/WM-099","program":"sota","name":"Bearpen Mountain","coordinates":[-83.0216,35.0954]},{"code":"W4C/WM-100","program":"sota","name":"Flat Mountain","coordinates":[-83.0485,35.0362]},{"code":"W4C/WM-106","program":"sota","name":"Ellicott Mountain","coordinates":[-83.0741,35.0183]}]}