{"lat":35,"lon":139.75,"programs":["pota","sota"],"count":9,"references":[{"code":"JP-1185","program":"pota","name":"Takagoyama Prefectural Nature Park","coordinates":[139.993,35.198]},{"code":"JP-1187","program":"pota","name":"Tomisan Prefectural Nature Park","coordinates":[139.882,35.0953]},{"code":"JP-1969","program":"pota","name":"Kazusa Minatoko Kaihin Prefectural Park","coordinates":[139.871,35.2241]},{"code":"JA/CB-001","program":"sota","name":"Atagoyama","coordinates":[139.9868,35.1149]},{"code":"JA/CB-004","program":"sota","name":"Gotenyama","coordinates":[139.9477,35.0887]},{"code":"JA/CB-005","program":"sota","name":"Tomisan","coordinates":[139.8815,35.0988]},{"code":"JA/CB-006","program":"sota","name":"Nokogiriyama","coordinates":[139.8409,35.1604]},{"code":"JA/CB-009","program":"sota","name":"Iyogatake","coordinates":[139.914,35.1073]},{"code":"JA/CB-011","program":"sota","name":"Tsubenoyama","coordinates":[139.8647,35.1123]}]}