{"lat":35,"lon":135.5,"programs":["pota","sota"],"count":27,"references":[{"code":"JP-1493","program":"pota","name":"Hozukyo Prefectural Nature Park","coordinates":[135.639,35.0229]},{"code":"JP-1495","program":"pota","name":"Arashiyama Prefectural Park","coordinates":[135.671,35.0146]},{"code":"JP-1496","program":"pota","name":"Arashiyama Higashi Prefectural Park","coordinates":[135.686,35.0099]},{"code":"JA/KT-003","program":"sota","name":"Jizouyama","coordinates":[135.6235,35.0754]},{"code":"JA/KT-009","program":"sota","name":"Sajikigadake","coordinates":[135.7172,35.1592]},{"code":"JA/KT-019","program":"sota","name":"Ooiwayama","coordinates":[135.5194,35.2479]},{"code":"JA/KT-039","program":"sota","name":"Chitoseyama","coordinates":[135.5795,35.1174]},{"code":"JA/KT-040","program":"sota","name":"JA/KT-040","coordinates":[135.5907,35.0762]},{"code":"JA/KT-045","program":"sota","name":"JA/KT-045","coordinates":[135.699,35.0858]},{"code":"JA/KT-046","program":"sota","name":"Kurooyama","coordinates":[135.5681,35.1611]},{"code":"JA/KT-059","program":"sota","name":"Oyama","coordinates":[135.6137,35.1246]},{"code":"JA/KT-062","program":"sota","name":"JA/KT-062","coordinates":[135.6913,35.0593]},{"code":"JA/KT-068","program":"sota","name":"Sanjyogamine","coordinates":[135.648,35.0174]},{"code":"JA/KT-073","program":"sota","name":"JA/KT-073","coordinates":[135.5059,35.0393]},{"code":"JA/KT-074","program":"sota","name":"Asahiyama","coordinates":[135.5106,35.0112]},{"code":"JA/KT-115","program":"sota","name":"Near Mitsuzukoyama","coordinates":[135.6185,35.1004]},{"code":"JA/KT-116","program":"sota","name":"JA/KT-116","coordinates":[135.6289,35.2452]},{"code":"JA/KT-118","program":"sota","name":"Kamagatake","coordinates":[135.5975,35.11]},{"code":"JA/KT-123","program":"sota","name":"Shirokiya","coordinates":[135.7121,35.107]},{"code":"JA/KT-124","program":"sota","name":"Uno","coordinates":[135.5785,35.1801]},{"code":"JA/KT-126","program":"sota","name":"JA/KT-126","coordinates":[135.5684,35.1363]},{"code":"JA/KT-127","program":"sota","name":"Shiroiwayama","coordinates":[135.5784,35.1602]},{"code":"JA/KT-129","program":"sota","name":"JA/KT-129","coordinates":[135.5804,35.1339]},{"code":"JA/KT-130","program":"sota","name":"Near Morokiyama","coordinates":[135.5373,35.1132]},{"code":"JA/KT-131","program":"sota","name":"Near Kurooyama","coordinates":[135.6102,35.1532]},{"code":"JA/KT-139","program":"sota","name":"Takayama","coordinates":[135.5076,35.1718]},{"code":"JA/KT-145","program":"sota","name":"Ikadamoriyama","coordinates":[135.5253,35.0887]}]}