{"lat":35,"lon":137,"programs":["pota","sota"],"count":8,"references":[{"code":"JP-1467","program":"pota","name":"Makinogaike Greens Prefectural Park","coordinates":[137.014,35.1451]},{"code":"JP-1469","program":"pota","name":"Expo 2005 Aichi Commemorative Prefectural Park","coordinates":[137.09,35.1728]},{"code":"JP-1918","program":"pota","name":"Aichiken ryokka center Prefectural Park","coordinates":[137.193,35.1587]},{"code":"JP-1922","program":"pota","name":"Aichiken Forest Prefectural Park","coordinates":[137.052,35.2339]},{"code":"JP-1923","program":"pota","name":"Korogi Athletic Prefectural Park","coordinates":[137.049,35.1654]},{"code":"JP-1925","program":"pota","name":"Kaisho Forest Prefectural Park","coordinates":[137.111,35.1888]},{"code":"JP-2106","program":"pota","name":"Showa-no-mori Prefectural Park","coordinates":[137.199,35.1704]},{"code":"JA/AC-025","program":"sota","name":"JA/AC-025","coordinates":[137.1724,35.2018]}]}