{"lat":35,"lon":135,"programs":["pota","sota"],"count":31,"references":[{"code":"JP-1528","program":"pota","name":"Takirenzan Prefectural Nature Park","coordinates":[135.242,35.1238]},{"code":"JP-1995","program":"pota","name":"Tamba Namikimichi Chuo Prefectural Park","coordinates":[135.157,35.0772]},{"code":"JP-2089","program":"pota","name":"Tamba-no-Mori Prefectural Park","coordinates":[135.072,35.1222]},{"code":"JA/HG-048","program":"sota","name":"Mitake","coordinates":[135.2449,35.1273]},{"code":"JA/HG-058","program":"sota","name":"Shiragadake","coordinates":[135.1348,35.046]},{"code":"JA/HG-060","program":"sota","name":"Saikoujiyama","coordinates":[135.0655,35.017]},{"code":"JA/HG-072","program":"sota","name":"Takayama","coordinates":[135.081,35.0518]},{"code":"JA/HG-074","program":"sota","name":"JA/HG-074","coordinates":[135.1923,35.0176]},{"code":"JA/HG-075","program":"sota","name":"Godaisan","coordinates":[135.0687,35.2232]},{"code":"JA/HG-077","program":"sota","name":"Nishiterayama","coordinates":[135.1123,35.0176]},{"code":"JA/HG-081","program":"sota","name":"Near Myokenzan","coordinates":[135.0368,35.0538]},{"code":"JA/HG-082","program":"sota","name":"Kurozuhou","coordinates":[135.1428,35.1226]},{"code":"JA/HG-087","program":"sota","name":"Yuzurihayama","coordinates":[135.104,35.134]},{"code":"JA/HG-099","program":"sota","name":"Myoukousan","coordinates":[135.1608,35.1727]},{"code":"JA/HG-106","program":"sota","name":"Ishidoyama","coordinates":[135.0323,35.1079]},{"code":"JA/HG-119","program":"sota","name":"Kourousan","coordinates":[135.0167,35.1621]},{"code":"JA/HG-121","program":"sota","name":"Kuzuosan","coordinates":[135.0344,35.246]},{"code":"JA/HG-135","program":"sota","name":"Higashiyama","coordinates":[135.1384,35.0101]},{"code":"JA/HG-136","program":"sota","name":"Makigamine","coordinates":[135.19,35.052]},{"code":"JA/HG-143","program":"sota","name":"Kamihiei","coordinates":[135.0119,35.0214]},{"code":"JA/HG-149","program":"sota","name":"Koudaniyama","coordinates":[135.151,35.2258]},{"code":"JA/HG-210","program":"sota","name":"Mikunigatake","coordinates":[135.2353,35.0287]},{"code":"JA/HG-211","program":"sota","name":"JA/HG-211","coordinates":[135.216,35.0092]},{"code":"JA/HG-213","program":"sota","name":"Tenrokusan","coordinates":[135.0593,35.0537]},{"code":"JA/HG-215","program":"sota","name":"Nokogiriyama","coordinates":[135.1778,35.1275]},{"code":"JA/HG-221","program":"sota","name":"Shikakurayama","coordinates":[135.2308,35.178]},{"code":"JA/HG-222","program":"sota","name":"Takaouzan","coordinates":[135.2331,35.1462]},{"code":"JA/HG-223","program":"sota","name":"Kanayama","coordinates":[135.1139,35.114]},{"code":"JA/HG-230","program":"sota","name":"Fugizaka","coordinates":[135.1387,35.0216]},{"code":"JA/HG-240","program":"sota","name":"JA/HG-240","coordinates":[135.1598,35.0186]},{"code":"JA/HG-246","program":"sota","name":"Kiriyama","coordinates":[135.0521,35.1721]}]}