{"lat":35,"lon":126.75,"programs":["pota","sota"],"count":37,"references":[{"code":"KR-0095","program":"pota","name":"광주공원\tGwangju Park National Historic Site","coordinates":[126.91,35.1471]},{"code":"KR-0260","program":"pota","name":"5·18기념공원\tMay 18th National Memorial","coordinates":[126.858,35.1583]},{"code":"KR-0263","program":"pota","name":"국립5·18민주묘지\tMay 18th Memorial Monument National Memorial","coordinates":[126.942,35.2352]},{"code":"KR-0515","program":"pota","name":"빛고을농촌테마\tBitgo-eul Agriculture Provincial Ecological Park","coordinates":[126.868,35.0848]},{"code":"KR-0539","program":"pota","name":"수완호수공원\tSuwan Lake Provincial Ecological Park","coordinates":[126.82,35.1879]},{"code":"KR-0546","program":"pota","name":"쌍암공원\tSsang-am Provincial Ecological Park","coordinates":[126.844,35.2222]},{"code":"KR-0562","program":"pota","name":"영산강대상근린공원\tYeongsangang Daesang Provincial Ecological Park","coordinates":[126.859,35.2196]},{"code":"KR-0574","program":"pota","name":"운천호수공원\tUncheon Lake Provincial Ecological Park","coordinates":[126.856,35.1472]},{"code":"KR-0714","program":"pota","name":"우치공원\tUchi Provincial Recreation Park","coordinates":[126.894,35.2243]},{"code":"KR-0734","program":"pota","name":"첨단체육근린공원\tCheomdan Sports Provincial Recreation Park","coordinates":[126.859,35.2205]},{"code":"KR-0765","program":"pota","name":"경암근린공원\tGyeong-am Neighborhood Provincial Park","coordinates":[126.8,35.1783]},{"code":"KR-0774","program":"pota","name":"광주문화근린공원\tGwangju Munhwa Neighborhood Provincial Park","coordinates":[126.917,35.1849]},{"code":"KR-0890","program":"pota","name":"봉산근린공원(광주)\tGwangju Bongsan Neighborhood Provincial Park","coordinates":[126.845,35.203]},{"code":"KR-0918","program":"pota","name":"상무시민공원\tSangmu Citizen's Neighborhood Provincial Park","coordinates":[126.842,35.1542]},{"code":"KR-0976","program":"pota","name":"안청공원\tAncheong Neighborhood Provincial Park","coordinates":[126.802,35.213]},{"code":"KR-0980","program":"pota","name":"양산제호수공원\tYangsan Waterside Neighborhood Provincial Park","coordinates":[126.874,35.2028]},{"code":"KR-1017","program":"pota","name":"우산근린공원\tUsan Neighborhood Provincial Park","coordinates":[126.926,35.1756]},{"code":"KR-1018","program":"pota","name":"운암산근린공원\tUnamsan Neighborhood Provincial Park","coordinates":[126.867,35.1864]},{"code":"KR-1025","program":"pota","name":"원당산공원\tWondangsan Neighborhood Provincial Park","coordinates":[126.816,35.1912]},{"code":"KR-1135","program":"pota","name":"효천근린공원\tHyocheon Neighborhood Provincial Park","coordinates":[126.865,35.1041]},{"code":"KR-0481","program":"pota","name":"동구리호수공원\tDongguri Lake Provincial Ecological Park","coordinates":[126.989,35.0746]},{"code":"KR-0488","program":"pota","name":"두물머리공원\tDumulmeori Provincial Park","coordinates":[126.789,35.0276]},{"code":"KR-0514","program":"pota","name":"빛가람호수공원\tBitgaram Lake Provincial Ecological Park","coordinates":[126.795,35.014]},{"code":"KR-0904","program":"pota","name":"빛가람호수공원\tBitgaram Waterside Neighborhood Provincial Park","coordinates":[126.795,35.014]},{"code":"KR-1038","program":"pota","name":"유전제공원\tYujeonje Neighborhood Provincial Park","coordinates":[126.782,35.0285]},{"code":"KR-1128","program":"pota","name":"화순남산공원\tHwasun Namsan Neighborhood Provincial Park","coordinates":[126.986,35.059]},{"code":"HL/GJ-002","program":"sota","name":"덕봉 (Deokbong)","coordinates":[126.9715,35.1643]},{"code":"HL/GJ-004","program":"sota","name":"판사등산 (Pansadeungsan)","coordinates":[126.7542,35.2368]},{"code":"HL/GJ-005","program":"sota","name":"석봉 (Seokbong)","coordinates":[126.7608,35.1692]},{"code":"HL/GJ-006","program":"sota","name":"금당산 (Geumdangsan)","coordinates":[126.8884,35.1178]},{"code":"HL/GJ-007","program":"sota","name":"삼각산 (Samgaksan)","coordinates":[126.9185,35.2055]},{"code":"HL/JN-034","program":"sota","name":"만연산 (Manyeonsan)","coordinates":[126.9928,35.0935]},{"code":"HL/JN-156","program":"sota","name":"HL/JN-156","coordinates":[126.9265,35.0661]},{"code":"HL/JN-165","program":"sota","name":"덕음산 (Deogeumsan)","coordinates":[126.995,35.0191]},{"code":"HL/JN-198","program":"sota","name":"종괘산 (Jonggwaesan)","coordinates":[126.9204,35.0427]},{"code":"HL/JN-257","program":"sota","name":"중봉산 (Jungbongsan)","coordinates":[126.8881,35.0356]},{"code":"HL/JN-262","program":"sota","name":"식산 (Siksan)","coordinates":[126.832,35.0061]}]}