{"lat":35,"lon":137.25,"programs":["pota","sota"],"count":10,"references":[{"code":"JP-0128","program":"pota","name":"Aichi Kogen Quasi-National Park","coordinates":[137.41,35.0331]},{"code":"JP-1454","program":"pota","name":"Dando Kogen Prefectural Nature Park","coordinates":[137.49,35.1443]},{"code":"JA/AC-003","program":"sota","name":"Takanosuyama","coordinates":[137.495,35.1526]},{"code":"JA/AC-004","program":"sota","name":"JA/AC-004","coordinates":[137.4436,35.1361]},{"code":"JA/AC-015","program":"sota","name":"JA/AC-015","coordinates":[137.4794,35.2246]},{"code":"JA/AC-024","program":"sota","name":"Hourokusan","coordinates":[137.3029,35.0603]},{"code":"JA/AC-026","program":"sota","name":"Rokusyosan","coordinates":[137.2842,35.0549]},{"code":"JA/AC-038","program":"sota","name":"Ooshima","coordinates":[137.2686,35.1192]},{"code":"JA/AC-040","program":"sota","name":"Ooboratouge","coordinates":[137.4629,35.2173]},{"code":"JA/GF-158","program":"sota","name":"Takatoyama","coordinates":[137.4306,35.2431]}]}