{"lat":35,"lon":-118.5,"programs":["pota","sota"],"count":11,"references":[{"code":"US-3579","program":"pota","name":"Tomo-Kahni State Historical Park","coordinates":[-118.335,35.148]},{"code":"W6/CT-057","program":"sota","name":"Double Mountain","coordinates":[-118.4867,35.0332]},{"code":"W6/CT-059","program":"sota","name":"Tehachapi Mountain","coordinates":[-118.4848,35.0469]},{"code":"W6/CT-062","program":"sota","name":"Covington Mountain","coordinates":[-118.4747,35.0143]},{"code":"W6/CT-110","program":"sota","name":"Limestone Benchmark","coordinates":[-118.3663,35.0106]},{"code":"W6/CT-251","program":"sota","name":"6362","coordinates":[-118.431,35.0023]},{"code":"W6/SS-392","program":"sota","name":"Cache Peak","coordinates":[-118.2501,35.2219]},{"code":"W6/SS-403","program":"sota","name":"Toll Benchmark","coordinates":[-118.3952,35.2152]},{"code":"W6/SS-412","program":"sota","name":"Sugarloaf Mountain","coordinates":[-118.3403,35.2161]},{"code":"W6/SS-416","program":"sota","name":"6148","coordinates":[-118.3071,35.2186]},{"code":"W6/SS-434","program":"sota","name":"5521","coordinates":[-118.4145,35.158]}]}