{"lat":35,"lon":136.25,"programs":["pota","sota"],"count":25,"references":[{"code":"JP-0130","program":"pota","name":"Suzuka Quasi-National Park","coordinates":[136.339,35.0769]},{"code":"JP-1937","program":"pota","name":"Forest Park Of Mie Prefectural Park","coordinates":[136.479,35.0468]},{"code":"JP-1485","program":"pota","name":"Koto Prefectural Nature Park","coordinates":[136.3,35.2344]},{"code":"JA/GF-240","program":"sota","name":"Eboshidake","coordinates":[136.4334,35.2282]},{"code":"JA/ME-011","program":"sota","name":"Gozaishoyama","coordinates":[136.418,35.0204]},{"code":"JA/ME-012","program":"sota","name":"Kamagatake","coordinates":[136.4212,35.0013]},{"code":"JA/ME-014","program":"sota","name":"Ryuugadake","coordinates":[136.4452,35.1193]},{"code":"JA/ME-016","program":"sota","name":"Syakagatake","coordinates":[136.4414,35.0657]},{"code":"JA/ME-114","program":"sota","name":"Mikunidake","coordinates":[136.4162,35.2148]},{"code":"JA/ME-121","program":"sota","name":"Fukuouyama","coordinates":[136.4712,35.0885]},{"code":"JA/SI-002","program":"sota","name":"Oikedake","coordinates":[136.4147,35.1785]},{"code":"JA/SI-003","program":"sota","name":"Amagoidake","coordinates":[136.3841,35.0211]},{"code":"JA/SI-007","program":"sota","name":"Tenguiwa","coordinates":[136.4452,35.1662]},{"code":"JA/SI-009","program":"sota","name":"Watamukiyama","coordinates":[136.3417,35.0137]},{"code":"JA/SI-011","program":"sota","name":"Tengudou","coordinates":[136.3914,35.1516]},{"code":"JA/SI-015","program":"sota","name":"Nihonkoba","coordinates":[136.3424,35.1021]},{"code":"JA/SI-027","program":"sota","name":"Nabesiriyama","coordinates":[136.3594,35.2456]},{"code":"JA/SI-029","program":"sota","name":"Takamuroyama","coordinates":[136.3535,35.2202]},{"code":"JA/SI-033","program":"sota","name":"Oshitateyama","coordinates":[136.3029,35.1384]},{"code":"JA/SI-034","program":"sota","name":"JA/SI-034","coordinates":[136.3343,35.1463]},{"code":"JA/SI-072","program":"sota","name":"Shizugatake","coordinates":[136.4347,35.1309]},{"code":"JA/SI-073","program":"sota","name":"Near Kiwada2","coordinates":[136.4073,35.0887]},{"code":"JA/SI-075","program":"sota","name":"Mizunashi","coordinates":[136.4155,35.1053]},{"code":"JA/SI-079","program":"sota","name":"JA/SI-079","coordinates":[136.3029,35.164]},{"code":"JA/SI-088","program":"sota","name":"Seiryuzan","coordinates":[136.2918,35.2111]}]}