{"lat":35,"lon":129,"programs":["pota","sota"],"count":51,"references":[{"code":"KR-0055","program":"pota","name":"부산국가지질공원 Geopark","coordinates":[129.145,35.192]},{"code":"KR-0103","program":"pota","name":"동래사적공원\tDongnae Sajeok Park National Historic Site","coordinates":[129.092,35.2118]},{"code":"KR-0109","program":"pota","name":"복천동고분군공원\tBokcheondong Ancient Tombs National Historical Site","coordinates":[129.092,35.2074]},{"code":"KR-0126","program":"pota","name":"수영공원\tSuyeong National Historic Site","coordinates":[129.114,35.1712]},{"code":"KR-0150","program":"pota","name":"충렬사공원\tChungryeolsa National Historic Site","coordinates":[129.096,35.2017]},{"code":"KR-0251","program":"pota","name":"오륙도해양보호구역\tOryukdo Island National Nature Reserve","coordinates":[129.126,35.0938]},{"code":"KR-0261","program":"pota","name":"APEC나루공원\tAPEC Naru National Memorial","coordinates":[129.125,35.1707]},{"code":"KR-0262","program":"pota","name":"UN기념공원\tUN Memorial Cemetery National Memorial","coordinates":[129.096,35.1274]},{"code":"KR-0269","program":"pota","name":"부산민주공원\tBusan Minju National Memorial","coordinates":[129.028,35.1096]},{"code":"KR-0300","program":"pota","name":"광안리공원\tGwangalli Beach National Park","coordinates":[129.118,35.1538]},{"code":"KR-0310","program":"pota","name":"송도해수욕장\tSongdo Beach National Park","coordinates":[129.018,35.0761]},{"code":"KR-0311","program":"pota","name":"송정해수욕장\tSongjeong Beach National Park","coordinates":[129.2,35.1786]},{"code":"KR-0315","program":"pota","name":"해운대해수욕장\tHaeundae Beach National Park","coordinates":[129.16,35.1587]},{"code":"KR-0420","program":"pota","name":"해운대수목원\tHaeundae Arboretum Provincial Park","coordinates":[129.126,35.2297]},{"code":"KR-0426","program":"pota","name":"송정공원(죽도산)\tSongjeong Coast Provincial Park","coordinates":[129.197,35.1804]},{"code":"KR-0472","program":"pota","name":"대신공원\tDaesin Provincial Ecological Park","coordinates":[129.018,35.1239]},{"code":"KR-0483","program":"pota","name":"동백공원\tDongbaekseom Island Provincial Ecological Park","coordinates":[129.152,35.1526]},{"code":"KR-0581","program":"pota","name":"이기대공원\tIgidae Provincial Ecological Park","coordinates":[129.123,35.1237]},{"code":"KR-0611","program":"pota","name":"태종대유원지\tTaejongdae Provincial Ecological Park","coordinates":[129.08,35.0597]},{"code":"KR-0624","program":"pota","name":"화명생태공원\tHwamyeong Provincial Ecological Park","coordinates":[129.01,35.2489]},{"code":"KR-0662","program":"pota","name":"화명근린공원\tHwamyeong Forest Provincial Park","coordinates":[129.015,35.2242]},{"code":"KR-0672","program":"pota","name":"금강공원(부산)\tBusan Geumgang Provincial Recreation Park","coordinates":[129.062,35.2264]},{"code":"KR-0686","program":"pota","name":"부산사직종합운동장\tBusan Sports Complex Provincial Recreation Park","coordinates":[129.064,35.1939]},{"code":"KR-0687","program":"pota","name":"부산어린이대공원\tSeoul Children's Grand Provincial Recreation Park","coordinates":[129.047,35.1825]},{"code":"KR-0813","program":"pota","name":"달맞이동산(부산)\tDalmaji Dongsan Neighborhood Provincial Park","coordinates":[129.18,35.1562]},{"code":"KR-0821","program":"pota","name":"백양산\tBaegyangsan Mountain Provincial Park","coordinates":[129.022,35.1834]},{"code":"KR-0822","program":"pota","name":"황령산\tHwangnyeongsan Mountain Provincial Park","coordinates":[129.083,35.1586]},{"code":"KR-0823","program":"pota","name":"금련산공원\tKumnyon-san Mountain Provincial Park","coordinates":[129.096,35.1617]},{"code":"KR-0826","program":"pota","name":"덕천근린공원\tDeokcheon Neighborhood Provincial Park","coordinates":[129.014,35.2151]},{"code":"KR-0863","program":"pota","name":"명장공원\tMyeongjang Neighborhood Provincial Park","coordinates":[129.11,35.2124]},{"code":"KR-0878","program":"pota","name":"반송근린공원(부산)\tBansong Neighborhood(Busan) Provincial Park","coordinates":[129.159,35.2202]},{"code":"KR-0896","program":"pota","name":"부산시민공원\tBusan Citizens Neighborhood Provincial Park","coordinates":[129.056,35.1655]},{"code":"KR-0951","program":"pota","name":"송림공원\tSongnim Neighborhood Provincial Park","coordinates":[129.023,35.0766]},{"code":"KR-0977","program":"pota","name":"암남공원\tAmnam Neighborhood Provincial Park","coordinates":[129.016,35.059]},{"code":"KR-1013","program":"pota","name":"용두산공원\tYongdusan Neighborhood Provincial Park","coordinates":[129.032,35.1009]},{"code":"KR-1116","program":"pota","name":"함지골공원\tHamjigol Neighborhood Provincial Park","coordinates":[129.054,35.0735]},{"code":"KR-1129","program":"pota","name":"화지공원\tHwaji Neighborhood Provincial Park","coordinates":[129.062,35.1752]},{"code":"HL/BS-003","program":"sota","name":"백양산 (Baegyangsan)","coordinates":[129.0216,35.1834]},{"code":"HL/BS-004","program":"sota","name":"상계봉 (Sanggyebong)","coordinates":[129.0467,35.2321]},{"code":"HL/BS-005","program":"sota","name":"장산 (Jangsan)","coordinates":[129.145,35.194]},{"code":"HL/BS-010","program":"sota","name":"엄광산 (Eomgwangsan)","coordinates":[129.0166,35.136]},{"code":"HL/BS-013","program":"sota","name":"황령산 (Hwangnyeongsan)","coordinates":[129.0825,35.1586]},{"code":"HL/BS-014","program":"sota","name":"개좌산 (Gaejwasan)","coordinates":[129.1482,35.247]},{"code":"HL/BS-015","program":"sota","name":"봉래산 (Bongnaesan)","coordinates":[129.0552,35.082]},{"code":"HL/BS-017","program":"sota","name":"천마산 (Cheonmasan)","coordinates":[129.0138,35.0896]},{"code":"HL/BS-018","program":"sota","name":"윤산 (Yunsan)","coordinates":[129.1034,35.2299]},{"code":"HL/BS-020","program":"sota","name":"산성 (Sanseong)","coordinates":[129.1932,35.242]},{"code":"HL/BS-022","program":"sota","name":"태종산 (Taejongsan)","coordinates":[129.0908,35.0581]},{"code":"HL/BS-023","program":"sota","name":"배산 (Baesan)","coordinates":[129.0965,35.1803]},{"code":"HL/BS-025","program":"sota","name":"봉대산 (Bongdaesan)","coordinates":[129.2289,35.2346]},{"code":"HL/BS-026","program":"sota","name":"장산봉 (Jangsanbong)","coordinates":[129.1217,35.1172]}]}