{"lat":35,"lon":-86,"programs":["pota"],"count":5,"references":[{"code":"US-5493","program":"pota","name":"Franklin-Marion State Forest","coordinates":[-85.8528,35.0948]},{"code":"US-6237","program":"pota","name":"Mr. and Mrs. Harry Lee Carter State Natural Area","coordinates":[-85.9223,35.0927]},{"code":"US-6247","program":"pota","name":"Hawkins Cove State Natural Area","coordinates":[-85.9598,35.1773]},{"code":"US-11918","program":"pota","name":"Sherwood Forest State Natural Area","coordinates":[-85.9015,35.0957]},{"code":"US-12714","program":"pota","name":"Head of the Crow State Park","coordinates":[-85.922,35.1537]}]}