{"lat":35,"lon":138,"programs":["pota","sota"],"count":18,"references":[{"code":"JP-1441","program":"pota","name":"Okuoi Prefectural Nature Park","coordinates":[138.111,35.1816]},{"code":"JA/SO-016","program":"sota","name":"Fudougatake","coordinates":[138.0411,35.2354]},{"code":"JA/SO-017","program":"sota","name":"Kuroboushigatake","coordinates":[138.0294,35.1962]},{"code":"JA/SO-020","program":"sota","name":"Maekuroboushidake","coordinates":[138.0701,35.1873]},{"code":"JA/SO-021","program":"sota","name":"Asahidake","coordinates":[138.1323,35.2069]},{"code":"JA/SO-025","program":"sota","name":"Sobatsubuyama","coordinates":[138.0354,35.1261]},{"code":"JA/SO-026","program":"sota","name":"Nanatsumine","coordinates":[138.2189,35.1566]},{"code":"JA/SO-028","program":"sota","name":"Ryuumagatake","coordinates":[138.0105,35.1]},{"code":"JA/SO-033","program":"sota","name":"Tenguishidake","coordinates":[138.1841,35.1368]},{"code":"JA/SO-036","program":"sota","name":"Mitsumine","coordinates":[138.1672,35.1778]},{"code":"JA/SO-041","program":"sota","name":"JA/SO-041","coordinates":[138.1499,35.0613]},{"code":"JA/SO-056","program":"sota","name":"Kashiyama","coordinates":[138.1875,35.0226]},{"code":"JA/SO-058","program":"sota","name":"JA/SO-058","coordinates":[138.2009,35.0094]},{"code":"JA/SO-129","program":"sota","name":"Near Hagetouge","coordinates":[138.2174,35.2407]},{"code":"JA/SO-131","program":"sota","name":"Hachonodan","coordinates":[138.0573,35.1374]},{"code":"JA/SO-135","program":"sota","name":"Sawaguchiyama","coordinates":[138.1075,35.1564]},{"code":"JA/SO-136","program":"sota","name":"Near Oofudayama","coordinates":[138.059,35.1051]},{"code":"JA/SO-148","program":"sota","name":"JA/SO-148","coordinates":[138.15,35.1379]}]}