{"lat":35,"lon":33.25,"programs":["iota","pota"],"count":35,"references":[{"code":"AS-004","program":"iota","name":"CYPRUS ISLAND","coordinates":[33.449998855,35.125]},{"code":"AS-120","program":"iota","name":"CYPRUS&#039;S COASTAL ISLANDS","coordinates":[33.449998855,35.125]},{"code":"CY-0007","program":"pota","name":"Athalassa National Forest","coordinates":[33.3974,35.1294]},{"code":"CY-0011","program":"pota","name":"Pedagogiki Akademia National Forest","coordinates":[33.3819,35.1596]},{"code":"CY-0084","program":"pota","name":"Alykos Potamos (Agios Sozomenos) Natura 2000","coordinates":[33.4403,35.0648]},{"code":"CY-0100","program":"pota","name":"Athalassa Botanical Garden Ecological Site","coordinates":[33.4038,35.1441]},{"code":"CY-0108","program":"pota","name":"Idalion Archeological Reserve","coordinates":[33.423,35.0158]},{"code":"CY-0127","program":"pota","name":"Acropolis Park","coordinates":[33.3614,35.1463]},{"code":"CY-0128","program":"pota","name":"Ayios Demetrios Park","coordinates":[33.3538,35.152]},{"code":"CY-0129","program":"pota","name":"Ayios Loukas Park","coordinates":[33.3759,35.1093]},{"code":"CY-0130","program":"pota","name":"Ayios Georgios Park","coordinates":[33.4011,35.1441]},{"code":"CY-0131","program":"pota","name":"Metochi Kykkou Park","coordinates":[33.341,35.1624]},{"code":"CY-0132","program":"pota","name":"Poiiton kai Pnevmatikon Park","coordinates":[33.343,35.1647]},{"code":"CY-0133","program":"pota","name":"Ioanni Hadjipavlou Park","coordinates":[33.3449,35.1665]},{"code":"CY-0134","program":"pota","name":"Evdora Vasilara Park","coordinates":[33.3266,35.1554]},{"code":"CY-0135","program":"pota","name":"Nafpliou Park","coordinates":[33.3232,35.154]},{"code":"CY-0136","program":"pota","name":"OPAP Park","coordinates":[33.3011,35.1491]},{"code":"CY-0137","program":"pota","name":"Achaion Park","coordinates":[33.3056,35.1368]},{"code":"CY-0138","program":"pota","name":"Anthoupolis Park","coordinates":[33.2838,35.1177]},{"code":"CY-0139","program":"pota","name":"Patriarxou Petrou Park","coordinates":[33.3198,35.1397]},{"code":"CY-0140","program":"pota","name":"Alexandrou Korizi Park","coordinates":[33.3275,35.1412]},{"code":"CY-0141","program":"pota","name":"Pediaios Liniar Park","coordinates":[33.3478,35.158]},{"code":"CY-0142","program":"pota","name":"Prodromou Park","coordinates":[33.3504,35.1684]},{"code":"CY-0143","program":"pota","name":"Nicosia Municipal Garden Park","coordinates":[33.355,35.1733]},{"code":"CY-0147","program":"pota","name":"Lympia Community Park","coordinates":[33.4635,35.0006]},{"code":"CY-0149","program":"pota","name":"Michalaki Kousoulidi Community Park","coordinates":[33.2686,35.0783]},{"code":"CY-0150","program":"pota","name":"Deftera Community Park","coordinates":[33.2686,35.0733]},{"code":"CY-0151","program":"pota","name":"Andreas Christou Community Park","coordinates":[33.2538,35.0727]},{"code":"CY-0152","program":"pota","name":"Evaggelou Community Park","coordinates":[33.2555,35.077]},{"code":"CY-0155","program":"pota","name":"Barış Manço Park","coordinates":[33.3614,35.1989]},{"code":"CY-0156","program":"pota","name":"Çağlayan Park","coordinates":[33.3692,35.1809]},{"code":"CY-0159","program":"pota","name":"Dr. Fazıl Küçük Park","coordinates":[33.3489,35.2069]},{"code":"CY-0160","program":"pota","name":"Cumhuriyet Park","coordinates":[33.3249,35.2052]},{"code":"CY-0162","program":"pota","name":"Sancaktar Kale Bey Park","coordinates":[33.3362,35.1979]},{"code":"CY-0164","program":"pota","name":"Sancaktar Kale Bey Park","coordinates":[33.3362,35.1979]}]}