{"lat":35,"lon":126.5,"programs":["pota","sota"],"count":21,"references":[{"code":"KR-0052","program":"pota","name":"불갑산도립공원 Provincial Park","coordinates":[126.565,35.1908]},{"code":"KR-0192","program":"pota","name":"국립나주숲체원\tNaju Healing National Forest","coordinates":[126.704,35.0473]},{"code":"KR-0267","program":"pota","name":"나주영산포철도공원\tNaju Yeongsanpo Railroad National Memorial","coordinates":[126.708,35.0056]},{"code":"KR-0328","program":"pota","name":"나주남산공원\tNamsan(Naju) Mountain Provincial Park","coordinates":[126.723,35.0323]},{"code":"KR-0475","program":"pota","name":"대호수변공원\tDaeho Waterside Provincial Ecological Park","coordinates":[126.72,35.0405]},{"code":"KR-0618","program":"pota","name":"함평자연생태공원\tHampyeong Provincial Ecological Park","coordinates":[126.503,35.1353]},{"code":"KR-0619","program":"pota","name":"함평천수변공원\tHwayangcheon Waterside Provincial Ecological Park","coordinates":[126.526,35.0541]},{"code":"KR-0740","program":"pota","name":"함평엑스포공원\tHampyeong Expo Provincial Recreation Park","coordinates":[126.521,35.0554]},{"code":"HL/GJ-003","program":"sota","name":"용진산 (Yongjinsan)","coordinates":[126.7288,35.2071]},{"code":"HL/GJ-008","program":"sota","name":"복룡산 (Bongnyongsan)","coordinates":[126.7413,35.1426]},{"code":"HL/JN-089","program":"sota","name":"불갑산 (Bulgapsan)","coordinates":[126.5647,35.191]},{"code":"HL/JN-136","program":"sota","name":"금성산 (Geumseongsan)","coordinates":[126.6977,35.0531]},{"code":"HL/JN-191","program":"sota","name":"천주봉 (Cheonjubong)","coordinates":[126.5769,35.1331]},{"code":"HL/JN-194","program":"sota","name":"신결산 (Singyeolsan)","coordinates":[126.665,35.0259]},{"code":"HL/JN-217","program":"sota","name":"백룡산 (Baengnyongsan)","coordinates":[126.6369,35.0451]},{"code":"HL/JN-222","program":"sota","name":"월암산 (Woramsan)","coordinates":[126.5752,35.1642]},{"code":"HL/JN-223","program":"sota","name":"건무산 (Geonmusan)","coordinates":[126.5131,35.2]},{"code":"HL/JN-258","program":"sota","name":"구절봉 (Gujeolbong)","coordinates":[126.6485,35.1053]},{"code":"HL/JN-267","program":"sota","name":"국사봉 (Guksabong)","coordinates":[126.6239,35.0873]},{"code":"HL/JN-282","program":"sota","name":"철성산 (Cheolseongsan)","coordinates":[126.5743,35.0858]},{"code":"HL/JN-314","program":"sota","name":"방마산 (Bangmasan)","coordinates":[126.517,35.2187]}]}