{"lat":35.25,"lon":113.75,"programs":["pota"],"count":6,"references":[{"code":"CN-0245","program":"pota","name":"河南新乡凤凰山森林公园 Mountain Park","coordinates":[113.923,35.4291]},{"code":"CN-0645","program":"pota","name":"河南新乡新乡市人民公园 Regional Park","coordinates":[113.884,35.2994]},{"code":"CN-0655","program":"pota","name":"河南新乡牧野公园 Regional Park","coordinates":[113.905,35.3061]},{"code":"CN-0656","program":"pota","name":"河南新乡定国湖公园 Regional Park","coordinates":[113.957,35.312]},{"code":"CN-0685","program":"pota","name":"河南新乡南湖公园 Regional Park","coordinates":[113.933,35.2535]},{"code":"CN-0916","program":"pota","name":"河南新乡西山森林公园 Mountain Park","coordinates":[113.965,35.4409]}]}