{"lat":35.25,"lon":-83.75,"programs":["gma","sota"],"count":18,"references":[{"code":"XW4C/WM-108","program":"gma","name":"Briertown Mountain","coordinates":[-83.64199829,35.30070114]},{"code":"W4C/WM-025","program":"sota","name":"High Rocks","coordinates":[-83.621,35.4998]},{"code":"W4C/WM-030","program":"sota","name":"Cheoah Bald","coordinates":[-83.6809,35.3255]},{"code":"W4C/WM-058","program":"sota","name":"Wesser Bald","coordinates":[-83.5774,35.2771]},{"code":"W4C/WM-097","program":"sota","name":"Rattlesnake Knob","coordinates":[-83.6794,35.2565]},{"code":"W4C/WM-105","program":"sota","name":"Tyre Knob","coordinates":[-83.6158,35.3528]},{"code":"W4C/WM-107","program":"sota","name":"The Pinnacle","coordinates":[-83.7258,35.4985]},{"code":"W4C/WM-113","program":"sota","name":"Franks Creek Lead","coordinates":[-83.7475,35.3258]},{"code":"W4C/WM-115","program":"sota","name":"Shope Knob","coordinates":[-83.5007,35.2648]},{"code":"W4C/WM-116","program":"sota","name":"Hogback Mountain","coordinates":[-83.6959,35.3846]},{"code":"W4C/WM-122","program":"sota","name":"Potato Hill","coordinates":[-83.5004,35.4133]},{"code":"W4C/WM-127","program":"sota","name":"Big Butte","coordinates":[-83.7457,35.4698]},{"code":"W4C/WM-129","program":"sota","name":"Bushnell 8 Benchmark","coordinates":[-83.6222,35.3277]},{"code":"W4C/WM-133","program":"sota","name":"Meetinghouse Mountain","coordinates":[-83.6594,35.4038]},{"code":"W4C/WM-139","program":"sota","name":"Collins Mountain","coordinates":[-83.5273,35.4247]},{"code":"W4C/WM-157","program":"sota","name":"McHan Knob","coordinates":[-83.5121,35.3819]},{"code":"W4C/WM-158","program":"sota","name":"White Top","coordinates":[-83.5293,35.3629]},{"code":"W4C/WM-165","program":"sota","name":"Evans Knob","coordinates":[-83.552,35.4351]}]}