{"lat":35.25,"lon":139,"programs":["gma","pota","sota"],"count":18,"references":[{"code":"XJA/KN-008","program":"gma","name":"Ameyama","coordinates":[139.1234,35.4379]},{"code":"JP-0118","program":"pota","name":"Tanzawa-Oyama Quasi-National Park","coordinates":[139.21,35.4105]},{"code":"JP-1293","program":"pota","name":"Odawara Suwanohara Prefectural Park","coordinates":[139.134,35.2825]},{"code":"JP-1309","program":"pota","name":"Hadano Tokawa Prefectural Park","coordinates":[139.173,35.403]},{"code":"JP-1791","program":"pota","name":"Yamakita Tsuburano Prefectural Park","coordinates":[139.052,35.3697]},{"code":"JA/KN-001","program":"sota","name":"Hirugatake","coordinates":[139.1389,35.4863]},{"code":"JA/KN-002","program":"sota","name":"Hinokiboramaru","coordinates":[139.1027,35.4789]},{"code":"JA/KN-006","program":"sota","name":"Ooyama","coordinates":[139.2312,35.4408]},{"code":"JA/KN-007","program":"sota","name":"Kintokizan","coordinates":[139.0049,35.2897]},{"code":"JA/KN-009","program":"sota","name":"Myoujingatake","coordinates":[139.0525,35.2795]},{"code":"JA/KN-012","program":"sota","name":"Gongenyama","coordinates":[139.0253,35.4306]},{"code":"JA/KN-015","program":"sota","name":"Furouzan","coordinates":[139.0031,35.3997]},{"code":"JA/KN-016","program":"sota","name":"Yaguradake","coordinates":[139.0354,35.3286]},{"code":"JA/KN-023","program":"sota","name":"Fudouyama","coordinates":[139.1978,35.3164]},{"code":"JA/KN-024","program":"sota","name":"Doukakunoatama","coordinates":[139.1046,35.4659]},{"code":"JA/KN-025","program":"sota","name":"Isezawanoatama","coordinates":[139.1057,35.4259]},{"code":"JA/KN-029","program":"sota","name":"Nabewarashi","coordinates":[139.2362,35.4854]},{"code":"JA/YN-101","program":"sota","name":"Torinomuneyama (Tonnomuneyama)","coordinates":[139.0066,35.4987]}]}