{"lat":35.25,"lon":128.25,"programs":["pota","sota"],"count":23,"references":[{"code":"KR-0140","program":"pota","name":"의령관문 및 정암유적지 National Historic Site","coordinates":[128.294,35.3148]},{"code":"KR-0385","program":"pota","name":"의령남산\tUiryeong Namsan Mountain Provincial Park","coordinates":[128.267,35.3059]},{"code":"KR-0413","program":"pota","name":"입곡문화공원\tIpgok Culture Arboretum Provincial Park","coordinates":[128.446,35.261]},{"code":"KR-0469","program":"pota","name":"농경문화테마파크\tAgricultural Culture Theme Provincial Ecological Park","coordinates":[128.284,35.3193]},{"code":"KR-0739","program":"pota","name":"함안연꽃테마공원\tHam-an Lotus Flower Provincial Recreation Park","coordinates":[128.395,35.2806]},{"code":"KR-0763","program":"pota","name":"검안산공원\tGeomamsan Mountain Provincial Park","coordinates":[128.429,35.2709]},{"code":"KR-1057","program":"pota","name":"자양산공원\tJayangsanMountain Provincial Park","coordinates":[128.449,35.2914]},{"code":"KR-1193","program":"pota","name":"청강공원 \tCheonggang Neighborhood Provincial Park","coordinates":[128.498,35.2601]},{"code":"HL/GN-077","program":"sota","name":"국사봉 (Guksabong)","coordinates":[128.2596,35.4934]},{"code":"HL/GN-145","program":"sota","name":"방어산 (Bangeosan)","coordinates":[128.2942,35.2533]},{"code":"HL/GN-179","program":"sota","name":"화개산 (Hwagaesan)","coordinates":[128.4864,35.2579]},{"code":"HL/GN-210","program":"sota","name":"자양산 (Jayangsan)","coordinates":[128.4489,35.2914]},{"code":"HL/GN-222","program":"sota","name":"장등산 (Jangdeungsan)","coordinates":[128.2708,35.4543]},{"code":"HL/GN-244","program":"sota","name":"안국산 (Anguksan)","coordinates":[128.4831,35.3217]},{"code":"HL/GN-246","program":"sota","name":"옥녀봉 (Ongnyeobong)","coordinates":[128.329,35.4268]},{"code":"HL/GN-257","program":"sota","name":"거장산 (Geojangsan)","coordinates":[128.2573,35.4446]},{"code":"HL/GN-258","program":"sota","name":"남산 (Namsan)","coordinates":[128.2667,35.3059]},{"code":"HL/GN-265","program":"sota","name":"구진산 (Gujinsan)","coordinates":[128.4116,35.4405]},{"code":"HL/GN-267","program":"sota","name":"삼봉산 (Sambongsan)","coordinates":[128.3691,35.2867]},{"code":"HL/GN-270","program":"sota","name":"HL/GN-270","coordinates":[128.389,35.4172]},{"code":"HL/GN-295","program":"sota","name":"진등산 (Jindeungsan)","coordinates":[128.3649,35.4585]},{"code":"HL/GN-319","program":"sota","name":"HL/GN-319","coordinates":[128.4385,35.42]},{"code":"HL/GN-322","program":"sota","name":"용화산 (Yonghwasan)","coordinates":[128.4466,35.3793]}]}