{"lat":35.25,"lon":127.75,"programs":["pota","sota"],"count":19,"references":[{"code":"KR-0116","program":"pota","name":"산청전구형왕릉\tTomb of King Guhyeong, Sancheong National Historic Site","coordinates":[127.803,35.4471]},{"code":"KR-0390","program":"pota","name":"적벽산공원\tJeokbyeoksan Mountain Provincial Park","coordinates":[127.971,35.304]},{"code":"KR-0643","program":"pota","name":"성철공원\tSeongcheol Forest Provincial Park","coordinates":[127.965,35.28]},{"code":"HL/GN-015","program":"sota","name":"황매산 (Hwangmaesan)","coordinates":[127.9743,35.4954]},{"code":"HL/GN-017","program":"sota","name":"웅석봉 (Ungseokbong)","coordinates":[127.8774,35.3629]},{"code":"HL/GN-018","program":"sota","name":"왕등재 (Wangdeungjae)","coordinates":[127.7903,35.3895]},{"code":"HL/GN-027","program":"sota","name":"도토리봉 (Dotoribong)","coordinates":[127.8384,35.3822]},{"code":"HL/GN-030","program":"sota","name":"왕산 (Wangsan)","coordinates":[127.8122,35.4309]},{"code":"HL/GN-047","program":"sota","name":"정수산 (Jeongsusan)","coordinates":[127.9413,35.4178]},{"code":"HL/GN-049","program":"sota","name":"둔철산 (Duncheolsan)","coordinates":[127.945,35.3883]},{"code":"HL/GN-067","program":"sota","name":"벌목봉 (Beolmokbong)","coordinates":[127.8692,35.2934]},{"code":"HL/GN-100","program":"sota","name":"수양산 (Suyangsan)","coordinates":[127.8754,35.2541]},{"code":"HL/GN-113","program":"sota","name":"화장산 (Hwajangsan)","coordinates":[127.7782,35.4916]},{"code":"HL/GN-118","program":"sota","name":"수리봉 (Suribong)","coordinates":[127.9166,35.3391]},{"code":"HL/GN-140","program":"sota","name":"매봉 (Maebong)","coordinates":[127.9068,35.4853]},{"code":"HL/GN-151","program":"sota","name":"봉화산 (Bonghwasan)","coordinates":[127.8335,35.4509]},{"code":"HL/GN-238","program":"sota","name":"HL/GN-238","coordinates":[127.9033,35.2744]},{"code":"HL/GN-252","program":"sota","name":"팔암산 (Palamsan)","coordinates":[127.922,35.2523]},{"code":"HL/GN-277","program":"sota","name":"검무봉 (Geommubong)","coordinates":[127.9796,35.2709]}]}