{"lat":35.25,"lon":-111.75,"programs":["pota","sota"],"count":17,"references":[{"code":"US-0964","program":"pota","name":"Sunset Crater Volcano National Monument","coordinates":[-111.503,35.3633]},{"code":"W7A/AE-001","program":"sota","name":"Humphreys Peak","coordinates":[-111.6779,35.3464]},{"code":"W7A/AE-002","program":"sota","name":"Agassiz Peak","coordinates":[-111.6776,35.3259]},{"code":"W7A/AE-003","program":"sota","name":"Doyle Peak","coordinates":[-111.6459,35.3302]},{"code":"W7A/AE-023","program":"sota","name":"Saddle Mountain","coordinates":[-111.7317,35.4386]},{"code":"W7A/AE-038","program":"sota","name":"Sunset Crater","coordinates":[-111.5004,35.3655]},{"code":"W7A/CS-001","program":"sota","name":"Fremont Peak","coordinates":[-111.6608,35.323]},{"code":"W7A/CS-003","program":"sota","name":"Sugarloaf Peak","coordinates":[-111.6147,35.3634]},{"code":"W7A/CS-005","program":"sota","name":"White Horse Hills","coordinates":[-111.7042,35.3896]},{"code":"W7A/CS-006","program":"sota","name":"O'Leary Peak - West","coordinates":[-111.5325,35.4021]},{"code":"W7A/CS-007","program":"sota","name":"Shadows Mountain","coordinates":[-111.7091,35.3992]},{"code":"W7A/CS-009","program":"sota","name":"Horny Toad Hill","coordinates":[-111.7125,35.4456]},{"code":"W7A/CS-024","program":"sota","name":"Chop Benchmark","coordinates":[-111.6713,35.4813]},{"code":"W7A/CS-027","program":"sota","name":"Shard Summit","coordinates":[-111.6299,35.4734]},{"code":"W7A/CS-031","program":"sota","name":"Sunset Summit","coordinates":[-111.5446,35.3559]},{"code":"W7A/CS-033","program":"sota","name":"Arrowhead","coordinates":[-111.643,35.4858]},{"code":"W7A/CS-035","program":"sota","name":"Five O'clock Hill","coordinates":[-111.6524,35.4969]}]}