{"lat":35.25,"lon":-121,"programs":["pota","sota"],"count":16,"references":[{"code":"US-1148","program":"pota","name":"Estero Bluffs State Park","coordinates":[-120.952,35.4502]},{"code":"US-1157","program":"pota","name":"Harmony Headlands State Park","coordinates":[-120.992,35.4778]},{"code":"US-1174","program":"pota","name":"Montana de Oro State Park","coordinates":[-120.889,35.2729]},{"code":"US-1175","program":"pota","name":"Morro Bay State Park","coordinates":[-120.827,35.3428]},{"code":"US-3418","program":"pota","name":"Cayucos State Beach","coordinates":[-120.904,35.4475]},{"code":"US-3464","program":"pota","name":"Los Osos Oaks Reserve State Conservation Area","coordinates":[-120.814,35.3064]},{"code":"US-3480","program":"pota","name":"Morro Strand State Beach","coordinates":[-120.866,35.3951]},{"code":"W6/SC-265","program":"sota","name":"Prospect Benchmark","coordinates":[-120.7506,35.4724]},{"code":"W6/SC-281","program":"sota","name":"2060","coordinates":[-120.7735,35.4411]},{"code":"W6/SC-312","program":"sota","name":"Rusty Peak","coordinates":[-120.8162,35.4634]},{"code":"W6/SC-351","program":"sota","name":"Hollister Peak","coordinates":[-120.7866,35.344]},{"code":"W6/SC-353","program":"sota","name":"Valencia Peak","coordinates":[-120.872,35.2631]},{"code":"W6/SC-373","program":"sota","name":"Cerro Cabrillo","coordinates":[-120.815,35.352]},{"code":"W6/SC-378","program":"sota","name":"Black Hill","coordinates":[-120.8314,35.3585]},{"code":"W6/SC-380","program":"sota","name":"Morro Rock","coordinates":[-120.8673,35.3694]},{"code":"W6/SC-455","program":"sota","name":"1193","coordinates":[-120.7816,35.4034]}]}