{"lat":35.25,"lon":133,"programs":["pota","sota"],"count":13,"references":[{"code":"JP-1589","program":"pota","name":"Kiyomizu Gassan Prefectural Nature Park","coordinates":[133.185,35.3612]},{"code":"JA/SN-039","program":"sota","name":"JA/SN-039","coordinates":[133.2062,35.264]},{"code":"JA/SN-054","program":"sota","name":"JA/SN-054","coordinates":[133.0615,35.3056]},{"code":"JA/SN-066","program":"sota","name":"Kawaoku","coordinates":[133.1633,35.2671]},{"code":"JA/SN-073","program":"sota","name":"Takigami","coordinates":[133.1101,35.2894]},{"code":"JA/SN-100","program":"sota","name":"Kyoragisan","coordinates":[133.1642,35.3872]},{"code":"JA/SN-101","program":"sota","name":"JA/SN-101","coordinates":[133.0087,35.3682]},{"code":"JA/SN-128","program":"sota","name":"Dakesan","coordinates":[133.1076,35.4866]},{"code":"JA/SN-152","program":"sota","name":"JA/SN-152","coordinates":[133.0057,35.2755]},{"code":"JA/SN-173","program":"sota","name":"Yakumosan","coordinates":[133.0496,35.3648]},{"code":"JA/SN-177","program":"sota","name":"Kyougatani","coordinates":[133.1848,35.3244]},{"code":"JA/SN-179","program":"sota","name":"Ootsujiyama","coordinates":[133.1829,35.3447]},{"code":"JA/SN-202","program":"sota","name":"Chausuyama","coordinates":[133.094,35.4361]}]}