{"lat":35.25,"lon":127.25,"programs":["pota","sota"],"count":12,"references":[{"code":"KR-0106","program":"pota","name":"만인의총\tManin Patriotic Martyrs National Historical Site","coordinates":[127.377,35.4204]},{"code":"KR-0607","program":"pota","name":"침실습지\tChimsil Waterland Provincial Ecological Park","coordinates":[127.326,35.2702]},{"code":"KR-1097","program":"pota","name":"충의공원\tChung-ui Neighborhood Provincial Park","coordinates":[127.295,35.2698]},{"code":"HL/JB-053","program":"sota","name":"견두산 (Gyeondusan)","coordinates":[127.4084,35.331]},{"code":"HL/JB-073","program":"sota","name":"고리봉 (Goribong)","coordinates":[127.2552,35.3377]},{"code":"HL/JB-107","program":"sota","name":"풍악산 (Pungaksan)","coordinates":[127.2975,35.4453]},{"code":"HL/JB-108","program":"sota","name":"문덕봉 (Mundeokbong)","coordinates":[127.2522,35.3712]},{"code":"HL/JB-137","program":"sota","name":"교룡산 (Gyoryongsan)","coordinates":[127.3523,35.4303]},{"code":"HL/JB-154","program":"sota","name":"청룡산 (Cheongnyongsan)","coordinates":[127.4262,35.463]},{"code":"HL/JB-160","program":"sota","name":"장백산 (Jangbaeksan)","coordinates":[127.4418,35.4101]},{"code":"HL/JB-169","program":"sota","name":"고산봉 (Gosanbong)","coordinates":[127.4044,35.4508]},{"code":"HL/JN-017","program":"sota","name":"동악산 (Dongaksan)","coordinates":[127.2502,35.2846]}]}