{"lat":35.25,"lon":134,"programs":["pota","sota"],"count":15,"references":[{"code":"JP-1587","program":"pota","name":"Fuse Sports Prefectural Park","coordinates":[134.182,35.4991]},{"code":"JP-2013","program":"pota","name":"Forest Park Tottori Deainomori Prefectural Park","coordinates":[134.17,35.4907]},{"code":"JP-2014","program":"pota","name":"Forest Park 21st Century Prefectural Park","coordinates":[134.207,35.4168]},{"code":"JA/OY-014","program":"sota","name":"Miharayama","coordinates":[134.0647,35.3016]},{"code":"JA/OY-147","program":"sota","name":"Tenguiwa","coordinates":[134.0178,35.2676]},{"code":"JA/TT-007","program":"sota","name":"Mikunigasen Hokurei","coordinates":[134.0195,35.357]},{"code":"JA/TT-009","program":"sota","name":"Takahachiyama","coordinates":[134.0511,35.3603]},{"code":"JA/TT-019","program":"sota","name":"Jubouzan","coordinates":[134.0443,35.4223]},{"code":"JA/TT-020","program":"sota","name":"Kagoyama","coordinates":[134.1892,35.2794]},{"code":"JA/TT-030","program":"sota","name":"Senzokusan","coordinates":[134.2182,35.3143]},{"code":"JA/TT-043","program":"sota","name":"Matsukami","coordinates":[134.1225,35.4202]},{"code":"JA/TT-045","program":"sota","name":"JA/TT-045","coordinates":[134.1851,35.3468]},{"code":"JA/TT-048","program":"sota","name":"Sorayama","coordinates":[134.2428,35.4285]},{"code":"JA/TT-060","program":"sota","name":"Arimitsu","coordinates":[134.2389,35.3039]},{"code":"JA/TT-061","program":"sota","name":"Oonaruyama","coordinates":[134.2203,35.329]}]}