{"lat":35.25,"lon":134.25,"programs":["sota"],"count":11,"references":[{"code":"JA/HG-005","program":"sota","name":"Aogamaru","coordinates":[134.4759,35.4236]},{"code":"JA/TT-002","program":"sota","name":"Tousen","coordinates":[134.383,35.2923]},{"code":"JA/TT-005","program":"sota","name":"Ouginosen","coordinates":[134.4409,35.4398]},{"code":"JA/TT-006","program":"sota","name":"Kuramasu","coordinates":[134.4355,35.2597]},{"code":"JA/TT-008","program":"sota","name":"Jinpachiyama","coordinates":[134.4577,35.3754]},{"code":"JA/TT-024","program":"sota","name":"Fukuchi","coordinates":[134.3602,35.4172]},{"code":"JA/TT-025","program":"sota","name":"Kaijyosantenboudai","coordinates":[134.2612,35.2788]},{"code":"JA/TT-036","program":"sota","name":"Oogayasan","coordinates":[134.3732,35.4918]},{"code":"JA/TT-037","program":"sota","name":"Rokuroudani","coordinates":[134.3407,35.3895]},{"code":"JA/TT-040","program":"sota","name":"JA/TT-040","coordinates":[134.3505,35.4779]},{"code":"JA/TT-054","program":"sota","name":"Dakedan","coordinates":[134.3756,35.3983]}]}