{"lat":35.25,"lon":135.5,"programs":["pota","sota"],"count":13,"references":[{"code":"JP-0134","program":"pota","name":"Kyoto Tamba Kogen Quasi-National Park","coordinates":[135.589,35.2765]},{"code":"JA/FI-033","program":"sota","name":"Hachigamine","coordinates":[135.668,35.3572]},{"code":"JA/FI-052","program":"sota","name":"Shirataki","coordinates":[135.5697,35.4077]},{"code":"JA/FI-061","program":"sota","name":"Hanseizan","coordinates":[135.6601,35.4519]},{"code":"JA/FI-067","program":"sota","name":"JA/FI-067","coordinates":[135.6103,35.4172]},{"code":"JA/KT-004","program":"sota","name":"Bunanokitouge","coordinates":[135.743,35.3249]},{"code":"JA/KT-008","program":"sota","name":"Jizousugi","coordinates":[135.5027,35.3252]},{"code":"JA/KT-010","program":"sota","name":"Toukinzan","coordinates":[135.5344,35.3774]},{"code":"JA/KT-013","program":"sota","name":"Ishizareyama","coordinates":[135.6787,35.3021]},{"code":"JA/KT-016","program":"sota","name":"Hachigamine","coordinates":[135.6071,35.3335]},{"code":"JA/KT-110","program":"sota","name":"Hatchoyama","coordinates":[135.7335,35.2555]},{"code":"JA/KT-112","program":"sota","name":"Ashio","coordinates":[135.7037,35.3187]},{"code":"JA/KT-113","program":"sota","name":"Hosabiyama","coordinates":[135.6273,35.2848]}]}