{"lat":35.25,"lon":128.5,"programs":["pota","sota"],"count":29,"references":[{"code":"KR-0676","program":"pota","name":"단감테마공원\tDangam Theme Provincial Recreation Park","coordinates":[128.663,35.2972]},{"code":"KR-0738","program":"pota","name":"함박산농촌테마공원\tHambaksan Culture Provincial Recreation Park","coordinates":[128.536,35.4555]},{"code":"KR-0749","program":"pota","name":"3.15공원\t3.15 Neighborhood Provincial Park","coordinates":[128.588,35.2526]},{"code":"KR-0815","program":"pota","name":"달천계곡\tDalcheon Valley Neighborhood Provincial Park","coordinates":[128.598,35.2832]},{"code":"KR-1082","program":"pota","name":"창원남산공원\tChangwon Namsan Neighborhood Provincial Park","coordinates":[128.619,35.2577]},{"code":"KR-1282","program":"pota","name":"Changwon Bukbyun Waterside Ecological Park","coordinates":[128.613,35.3765]},{"code":"HL/GN-080","program":"sota","name":"영취산 (Yeongchwisan)","coordinates":[128.551,35.4803]},{"code":"HL/GN-086","program":"sota","name":"종남산 (Jongnamsan)","coordinates":[128.722,35.4487]},{"code":"HL/GN-091","program":"sota","name":"작대산 (Jakdaesan)","coordinates":[128.5655,35.3017]},{"code":"HL/GN-095","program":"sota","name":"상봉 (Sangbong)","coordinates":[128.5831,35.2785]},{"code":"HL/GN-101","program":"sota","name":"덕대산 (Deokdaesan)","coordinates":[128.709,35.4283]},{"code":"HL/GN-111","program":"sota","name":"우령산 (Uryeongsan)","coordinates":[128.7117,35.4626]},{"code":"HL/GN-127","program":"sota","name":"정병산 (Jeongbyeongsan)","coordinates":[128.6921,35.2634]},{"code":"HL/GN-128","program":"sota","name":"무릉산 (Mureungsan)","coordinates":[128.5648,35.3286]},{"code":"HL/GN-138","program":"sota","name":"덕암산 (Deogamsan)","coordinates":[128.6005,35.4518]},{"code":"HL/GN-169","program":"sota","name":"강태봉 (Gangtaebong)","coordinates":[128.5776,35.4186]},{"code":"HL/GN-183","program":"sota","name":"처녀봉 (Cheonyeobong)","coordinates":[128.6242,35.3993]},{"code":"HL/GN-189","program":"sota","name":"HL/GN-189","coordinates":[128.6231,35.4192]},{"code":"HL/GN-194","program":"sota","name":"구룡산 (Guryongsan)","coordinates":[128.6414,35.2867]},{"code":"HL/GN-197","program":"sota","name":"백월산 (Baegwolsan)","coordinates":[128.6335,35.3334]},{"code":"HL/GN-199","program":"sota","name":"HL/GN-199","coordinates":[128.6712,35.4337]},{"code":"HL/GN-206","program":"sota","name":"큰등 (Keundeung)","coordinates":[128.5552,35.4117]},{"code":"HL/GN-212","program":"sota","name":"HL/GN-212","coordinates":[128.5614,35.3417]},{"code":"HL/GN-228","program":"sota","name":"도덕봉 (Dodeokbong)","coordinates":[128.5641,35.4343]},{"code":"HL/GN-229","program":"sota","name":"천마산 (Cheonmasan)","coordinates":[128.6155,35.3658]},{"code":"HL/GN-255","program":"sota","name":"어시미산 (Eosimisan)","coordinates":[128.5473,35.3701]},{"code":"HL/GN-261","program":"sota","name":"HL/GN-261","coordinates":[128.7083,35.4962]},{"code":"HL/GN-280","program":"sota","name":"함박산 (Hambaksan)","coordinates":[128.5709,35.358]},{"code":"HL/GN-285","program":"sota","name":"은산 (Eunsan)","coordinates":[128.7426,35.3999]}]}