{"lat":35.25,"lon":-84.25,"programs":["gma","sota"],"count":6,"references":[{"code":"K4C/WM-006","program":"gma","name":"Beaverdam Bald","coordinates":[-84.125,35.25]},{"code":"W4T/SU-028","program":"sota","name":"Big Fodderstack","coordinates":[-84.0274,35.4123]},{"code":"W4T/SU-036","program":"sota","name":"Beaverdam Bald","coordinates":[-84.125,35.25]},{"code":"W4T/SU-043","program":"sota","name":"Hemlock Knob","coordinates":[-84.1029,35.3598]},{"code":"W4T/SU-051","program":"sota","name":"Waucheesi Mountain","coordinates":[-84.2184,35.2761]},{"code":"W4T/SU-128","program":"sota","name":"Peaked Top","coordinates":[-84.2346,35.4402]}]}