{"lat":35.5,"lon":126.5,"programs":["pota","sota"],"count":20,"references":[{"code":"KR-0019","program":"pota","name":"변산반도국립공원 Mountain Park","coordinates":[126.583,35.6232]},{"code":"KR-0033","program":"pota","name":"선운산도립공원 Provincial Park","coordinates":[126.576,35.5191]},{"code":"KR-0208","program":"pota","name":"국립변산자연휴양림\tByeonsan Natural Recreation National Forest","coordinates":[126.525,35.5819]},{"code":"KR-0527","program":"pota","name":"서림공원\tSeorim Provincial Ecological Park","coordinates":[126.731,35.7329]},{"code":"KR-0594","program":"pota","name":"줄포만갯벌생태공원\tJulpoman Mudflat Provincial Ecological Park","coordinates":[126.669,35.5809]},{"code":"KR-0286","program":"pota","name":"고창갯벌습지보호구역\tGochang Mudflat Wetland National Nature Reserve","coordinates":[126.611,35.5528]},{"code":"HL/JB-125","program":"sota","name":"의상봉 (Uisangbong)","coordinates":[126.5988,35.6782]},{"code":"HL/JB-143","program":"sota","name":"망포대 (Mangpodae)","coordinates":[126.5404,35.6244]},{"code":"HL/JB-157","program":"sota","name":"와우봉 (Waubong)","coordinates":[126.6203,35.6792]},{"code":"HL/JB-161","program":"sota","name":"소요산 (Soyosan)","coordinates":[126.6146,35.5241]},{"code":"HL/JB-162","program":"sota","name":"경수산 (Gyeongsusan)","coordinates":[126.5758,35.5195]},{"code":"HL/JB-166","program":"sota","name":"옥녀봉 (Ongnyeobong)","coordinates":[126.622,35.6357]},{"code":"HL/JB-171","program":"sota","name":"관음봉 (Gwaneumbong)","coordinates":[126.5898,35.6266]},{"code":"HL/JB-176","program":"sota","name":"갑남산 (Gapnamsan)","coordinates":[126.508,35.6079]},{"code":"HL/JB-188","program":"sota","name":"HL/JB-188","coordinates":[126.6467,35.638]},{"code":"HL/JB-189","program":"sota","name":"사자봉 (Sajabong)","coordinates":[126.6367,35.5168]},{"code":"HL/JB-190","program":"sota","name":"HL/JB-190","coordinates":[126.6009,35.6581]},{"code":"HL/JB-191","program":"sota","name":"흑남봉 (Heuknambong)","coordinates":[126.5476,35.664]},{"code":"HL/JB-196","program":"sota","name":"석불산 (Seokbulsan)","coordinates":[126.6393,35.7343]},{"code":"HL/JB-203","program":"sota","name":"주산 (Jusan)","coordinates":[126.6913,35.6502]}]}