{"lat":35.5,"lon":-83,"programs":["sota"],"count":21,"references":[{"code":"W4C/CM-017","program":"sota","name":"Crabtree Bald","coordinates":[-82.9129,35.6497]},{"code":"W4C/CM-031","program":"sota","name":"Big Butt Mountain","coordinates":[-82.7991,35.5976]},{"code":"W4C/CM-033","program":"sota","name":"Mary Knob","coordinates":[-82.9078,35.7278]},{"code":"W4C/CM-037","program":"sota","name":"Naked Place Mountain","coordinates":[-82.9477,35.7301]},{"code":"W4C/CM-038","program":"sota","name":"Rockyface Mountain","coordinates":[-82.7808,35.5887]},{"code":"W4C/CM-041","program":"sota","name":"Fines Creek 9 Benchmark","coordinates":[-82.8187,35.6252]},{"code":"W4C/CM-042","program":"sota","name":"Mikes Knob","coordinates":[-82.8247,35.7299]},{"code":"W4C/CM-043","program":"sota","name":"The Glades","coordinates":[-82.8462,35.6143]},{"code":"W4C/CM-044","program":"sota","name":"Chambers Mountain","coordinates":[-82.907,35.5684]},{"code":"W4C/CM-046","program":"sota","name":"Buck Cove Mountain","coordinates":[-82.8534,35.5841]},{"code":"W4C/CM-049","program":"sota","name":"CHS 14 Benchmark","coordinates":[-82.8685,35.6448]},{"code":"W4C/CM-058","program":"sota","name":"Oakes Knob","coordinates":[-82.9524,35.6567]},{"code":"W4C/CM-065","program":"sota","name":"Ferguson Mountain","coordinates":[-82.9572,35.6358]},{"code":"W4C/CM-069","program":"sota","name":"High Top","coordinates":[-82.9911,35.5548]},{"code":"W4C/CM-073","program":"sota","name":"Grassy Top","coordinates":[-82.7755,35.5577]},{"code":"W4C/CM-090","program":"sota","name":"Pressley Mountain","coordinates":[-82.8936,35.5044]},{"code":"W4C/CM-093","program":"sota","name":"Rocky Knob","coordinates":[-82.9113,35.5855]},{"code":"W4C/CM-107","program":"sota","name":"Anderson Mountain","coordinates":[-82.8823,35.521]},{"code":"W4C/CM-123","program":"sota","name":"Cansadie Top","coordinates":[-82.985,35.5928]},{"code":"W4C/CM-151","program":"sota","name":"High Knob","coordinates":[-82.7516,35.6916]},{"code":"W4C/CM-192","program":"sota","name":"Sandymush Bald","coordinates":[-82.8826,35.6799]}]}