{"lat":35.5,"lon":134.25,"programs":["pota","sota"],"count":13,"references":[{"code":"JP-1550","program":"pota","name":"Tajima Bokujyo Prefectural Park","coordinates":[134.488,35.5165]},{"code":"JA/HG-059","program":"sota","name":"Kaneo","coordinates":[134.4346,35.555]},{"code":"JA/HG-112","program":"sota","name":"Minarusan","coordinates":[134.4501,35.5888]},{"code":"JA/HG-122","program":"sota","name":"Kusabutoyama","coordinates":[134.4798,35.536]},{"code":"JA/HG-191","program":"sota","name":"JA/HG-191","coordinates":[134.4923,35.6358]},{"code":"JA/HG-274","program":"sota","name":"Kannonyama","coordinates":[134.4622,35.6333]},{"code":"JA/HG-288","program":"sota","name":"JA/HG-288","coordinates":[134.4373,35.6314]},{"code":"JA/TT-046","program":"sota","name":"Tateiwayama","coordinates":[134.3069,35.5447]},{"code":"JA/TT-047","program":"sota","name":"Manisan","coordinates":[134.2701,35.5325]},{"code":"JA/TT-050","program":"sota","name":"Shichiyama","coordinates":[134.2827,35.567]},{"code":"JA/TT-063","program":"sota","name":"Motoyasan","coordinates":[134.357,35.5432]},{"code":"JA/TT-064","program":"sota","name":"JA/TT-064","coordinates":[134.2934,35.5261]},{"code":"JA/TT-065","program":"sota","name":"Kiriyama","coordinates":[134.3138,35.5859]}]}