{"lat":35.5,"lon":139.5,"programs":["pota"],"count":34,"references":[{"code":"JP-1306","program":"pota","name":"Higashitakane Shinrin Prefectural Park","coordinates":[139.587,35.6043]},{"code":"JP-1307","program":"pota","name":"Shikinomori Prefectural Park","coordinates":[139.536,35.5025]},{"code":"JP-1317","program":"pota","name":"Mitsuike Prefectural Park","coordinates":[139.661,35.5226]},{"code":"JP-1212","program":"pota","name":"Kyu-Furukawa Gardens Prefectural Park","coordinates":[139.746,35.7422]},{"code":"JP-1214","program":"pota","name":"Koishikawa-Korakuen Gardens Prefectural Park","coordinates":[139.749,35.7054]},{"code":"JP-1218","program":"pota","name":"Rikugi-en Gardens Prefectural Park","coordinates":[139.746,35.7332]},{"code":"JP-1219","program":"pota","name":"Aoyama Prefectural Park","coordinates":[139.724,35.6633]},{"code":"JP-1229","program":"pota","name":"Kinuta Prefectural Park","coordinates":[139.62,35.6303]},{"code":"JP-1231","program":"pota","name":"Komazawa Olympic Prefectural Park","coordinates":[139.662,35.6257]},{"code":"JP-1236","program":"pota","name":"Shiba Prefectural Park","coordinates":[139.748,35.6549]},{"code":"JP-1237","program":"pota","name":"Shakujii Prefectural Park","coordinates":[139.599,35.7383]},{"code":"JP-1239","program":"pota","name":"Zenpukujigawa Prefectural Park","coordinates":[139.632,35.6906]},{"code":"JP-1240","program":"pota","name":"Zenpukuji Prefectural Park","coordinates":[139.591,35.7146]},{"code":"JP-1241","program":"pota","name":"Soshigaya Prefectural Park","coordinates":[139.599,35.6546]},{"code":"JP-1245","program":"pota","name":"Toyama Prefectural Park","coordinates":[139.704,35.7055]},{"code":"JP-1252","program":"pota","name":"Meiji Prefectural Park","coordinates":[139.712,35.6791]},{"code":"JP-1255","program":"pota","name":"Yoyogi Prefectural Park","coordinates":[139.696,35.6716]},{"code":"JP-1256","program":"pota","name":"Rinshinomori Prefectural Park","coordinates":[139.703,35.6249]},{"code":"JP-1257","program":"pota","name":"Roka Koshunen Prefectural Park","coordinates":[139.613,35.6617]},{"code":"JP-1258","program":"pota","name":"Wadabori Prefectural Park","coordinates":[139.641,35.6845]},{"code":"JP-1260","program":"pota","name":"Inokashira Prefectural Park","coordinates":[139.576,35.7]},{"code":"JP-1264","program":"pota","name":"Koganei Prefectural Park","coordinates":[139.518,35.7164]},{"code":"JP-1269","program":"pota","name":"Sengenyama Prefectural Park","coordinates":[139.5,35.68]},{"code":"JP-1273","program":"pota","name":"Nogawa Prefectural Park","coordinates":[139.525,35.6832]},{"code":"JP-1276","program":"pota","name":"Higashifushimi Prefectural Park","coordinates":[139.557,35.7287]},{"code":"JP-1283","program":"pota","name":"Musashino Prefectural Park","coordinates":[139.519,35.6894]},{"code":"JP-1284","program":"pota","name":"Musashino Chuo Prefectural Park","coordinates":[139.556,35.7181]},{"code":"JP-1285","program":"pota","name":"Musashinonomori Prefectural Park","coordinates":[139.523,35.6765]},{"code":"JP-1823","program":"pota","name":"Keihin Canalside Greenway Prefectural Park","coordinates":[139.749,35.5972]},{"code":"JP-1927","program":"pota","name":"Jindai Botanical Garden Prefectural Park","coordinates":[139.548,35.6715]},{"code":"JP-1929","program":"pota","name":"Takaido Prefectural Park","coordinates":[139.604,35.6842]},{"code":"JP-2040","program":"pota","name":"Shinjuku Gyoen National Government Park","coordinates":[139.71,35.6852]},{"code":"JP-2074","program":"pota","name":"Nerima-joshi Prefectural Park","coordinates":[139.642,35.7463]},{"code":"JP-2109","program":"pota","name":"Garden of the Diet Front Park","coordinates":[139.748,35.6767]}]}