{"lat":35.5,"lon":136.5,"programs":["sota"],"count":22,"references":[{"code":"JA/GF-085","program":"sota","name":"Ojirogiyama","coordinates":[136.6341,35.7068]},{"code":"JA/GF-090","program":"sota","name":"Ninagadake","coordinates":[136.7028,35.7202]},{"code":"JA/GF-094","program":"sota","name":"Hanabusayama","coordinates":[136.5193,35.6202]},{"code":"JA/GF-097","program":"sota","name":"Kaminarikura","coordinates":[136.5469,35.6366]},{"code":"JA/GF-121","program":"sota","name":"Near Iwadake","coordinates":[136.6186,35.6749]},{"code":"JA/GF-123","program":"sota","name":"Funabuseyama","coordinates":[136.6815,35.6583]},{"code":"JA/GF-124","program":"sota","name":"JA/GF-124","coordinates":[136.7432,35.6983]},{"code":"JA/GF-149","program":"sota","name":"JA/GF-149","coordinates":[136.5894,35.7351]},{"code":"JA/GF-165","program":"sota","name":"Kokashibora","coordinates":[136.6634,35.6025]},{"code":"JA/GF-170","program":"sota","name":"Tounokura","coordinates":[136.5362,35.5509]},{"code":"JA/GF-176","program":"sota","name":"Myouhougatake","coordinates":[136.5962,35.545]},{"code":"JA/GF-191","program":"sota","name":"Oomoyama","coordinates":[136.6597,35.5439]},{"code":"JA/GF-194","program":"sota","name":"Matoyama","coordinates":[136.538,35.5243]},{"code":"JA/GF-198","program":"sota","name":"Ganmatayama","coordinates":[136.6361,35.5055]},{"code":"JA/GF-202","program":"sota","name":"Yukouyama","coordinates":[136.6853,35.5145]},{"code":"JA/GF-206","program":"sota","name":"Oobora","coordinates":[136.7133,35.5057]},{"code":"JA/GF-223","program":"sota","name":"Kobokura","coordinates":[136.6864,35.7315]},{"code":"JA/GF-231","program":"sota","name":"Tsukiyodaniyama","coordinates":[136.5619,35.5993]},{"code":"JA/GF-236","program":"sota","name":"Youkinyama","coordinates":[136.5986,35.5967]},{"code":"JA/GF-237","program":"sota","name":"Kurami","coordinates":[136.5949,35.6796]},{"code":"JA/GF-264","program":"sota","name":"Near Kinbara","coordinates":[136.6427,35.5695]},{"code":"JA/GF-275","program":"sota","name":"Yamaguchi","coordinates":[136.6643,35.5126]}]}