{"lat":35.5,"lon":136.75,"programs":["sota"],"count":22,"references":[{"code":"JA/GF-087","program":"sota","name":"Kougasan","coordinates":[136.8593,35.6718]},{"code":"JA/GF-109","program":"sota","name":"Mitsuoyama","coordinates":[136.7695,35.679]},{"code":"JA/GF-115","program":"sota","name":"Kaburayama","coordinates":[136.7996,35.7367]},{"code":"JA/GF-120","program":"sota","name":"Takane","coordinates":[136.8418,35.6684]},{"code":"JA/GF-122","program":"sota","name":"Imabuchigatake","coordinates":[136.8779,35.632]},{"code":"JA/GF-133","program":"sota","name":"JA/GF-133","coordinates":[136.756,35.7313]},{"code":"JA/GF-147","program":"sota","name":"Mineyama","coordinates":[136.7574,35.6456]},{"code":"JA/GF-186","program":"sota","name":"Nakazako","coordinates":[136.9866,35.6189]},{"code":"JA/GF-188","program":"sota","name":"Tennouzan","coordinates":[136.8668,35.5611]},{"code":"JA/GF-189","program":"sota","name":"Funnyoujisan","coordinates":[136.8238,35.5692]},{"code":"JA/GF-190","program":"sota","name":"Gongenyama","coordinates":[136.839,35.5636]},{"code":"JA/GF-192","program":"sota","name":"JA/GF-192","coordinates":[136.954,35.6911]},{"code":"JA/GF-193","program":"sota","name":"JA/GF-193","coordinates":[136.8013,35.6041]},{"code":"JA/GF-196","program":"sota","name":"Kojyouzan","coordinates":[136.9317,35.5585]},{"code":"JA/GF-197","program":"sota","name":"Oobotoke","coordinates":[136.9593,35.5497]},{"code":"JA/GF-228","program":"sota","name":"Oobora","coordinates":[136.7793,35.6685]},{"code":"JA/GF-242","program":"sota","name":"JA/GF-242","coordinates":[136.8148,35.7227]},{"code":"JA/GF-245","program":"sota","name":"Nishinohara","coordinates":[136.9266,35.7074]},{"code":"JA/GF-249","program":"sota","name":"Aidodake","coordinates":[136.7886,35.6159]},{"code":"JA/GF-253","program":"sota","name":"Hakusan2","coordinates":[136.9626,35.7287]},{"code":"JA/GF-257","program":"sota","name":"Tanjyoyama","coordinates":[136.8883,35.5574]},{"code":"JA/GF-265","program":"sota","name":"Matsukurayama","coordinates":[136.9187,35.5335]}]}