{"lat":35.5,"lon":138.75,"programs":["pota","sota"],"count":15,"references":[{"code":"JP-1915","program":"pota","name":"Katsuragawa Wellness Prefectural Park","coordinates":[138.996,35.6221]},{"code":"JA/YN-024","program":"sota","name":"Daibosatsurei","coordinates":[138.8455,35.7487]},{"code":"JA/YN-032","program":"sota","name":"Mitsutougeyama","coordinates":[138.8092,35.5493]},{"code":"JA/YN-043","program":"sota","name":"Honjagamaru","coordinates":[138.8073,35.5748]},{"code":"JA/YN-046","program":"sota","name":"JA/YN-046","coordinates":[138.7593,35.6058]},{"code":"JA/YN-047","program":"sota","name":"Gozeriyama","coordinates":[138.9698,35.5218]},{"code":"JA/YN-050","program":"sota","name":"Obouyama","coordinates":[138.8133,35.6221]},{"code":"JA/YN-060","program":"sota","name":"Momokurasan","coordinates":[138.981,35.6381]},{"code":"JA/YN-062","program":"sota","name":"Takagawayama","coordinates":[138.9019,35.5861]},{"code":"JA/YN-063","program":"sota","name":"Kukisan","coordinates":[138.9511,35.5766]},{"code":"JA/YN-067","program":"sota","name":"Matateyama","coordinates":[138.9518,35.5953]},{"code":"JA/YN-075","program":"sota","name":"Gangaharasuriyama","coordinates":[138.8848,35.6868]},{"code":"JA/YN-087","program":"sota","name":"Kuramiyama","coordinates":[138.8557,35.508]},{"code":"JA/YN-094","program":"sota","name":"Hanasakiyama","coordinates":[138.9177,35.6163]},{"code":"JA/YN-095","program":"sota","name":"Iwadonosan","coordinates":[138.9498,35.6217]}]}