{"lat":35.5,"lon":127,"programs":["pota","sota"],"count":24,"references":[{"code":"KR-0025","program":"pota","name":"모악산도립공원 Provincial Park","coordinates":[127.085,35.7286]},{"code":"KR-0242","program":"pota","name":"국립회문산자연휴양림\tHoemunsan Natural Recreation National Forest","coordinates":[127.109,35.5016]},{"code":"HL/JB-042","program":"sota","name":"회문산 (Hoemunsan)","coordinates":[127.1053,35.5053]},{"code":"HL/JB-048","program":"sota","name":"모악산 (Moaksan)","coordinates":[127.0855,35.7282]},{"code":"HL/JB-055","program":"sota","name":"천마봉 (Cheonmabong)","coordinates":[127.1318,35.5034]},{"code":"HL/JB-064","program":"sota","name":"백련산 (Baengnyeonsan)","coordinates":[127.1682,35.5676]},{"code":"HL/JB-087","program":"sota","name":"경각산 (Gyeonggagsan)","coordinates":[127.1629,35.726]},{"code":"HL/JB-100","program":"sota","name":"필봉산 (Pilbongsan)","coordinates":[127.1332,35.5344]},{"code":"HL/JB-116","program":"sota","name":"상두산 (Sangdusan)","coordinates":[127.0337,35.6666]},{"code":"HL/JB-118","program":"sota","name":"원통산 (Wontongsan)","coordinates":[127.2086,35.5118]},{"code":"HL/JB-120","program":"sota","name":"치마산 (Chimasan)","coordinates":[127.1384,35.6982]},{"code":"HL/JB-127","program":"sota","name":"나래산 (Nareasan)","coordinates":[127.125,35.6116]},{"code":"HL/JB-128","program":"sota","name":"국사봉 (Guksabong)","coordinates":[127.0644,35.6774]},{"code":"HL/JB-129","program":"sota","name":"갈미봉 (Galmibong)","coordinates":[127.2095,35.709]},{"code":"HL/JB-130","program":"sota","name":"묵방산 (Mukbangsan)","coordinates":[127.0931,35.6098]},{"code":"HL/JB-132","program":"sota","name":"백이산 (Baegisan)","coordinates":[127.2245,35.6014]},{"code":"HL/JB-139","program":"sota","name":"오봉산 (Obongsan)","coordinates":[127.1324,35.6453]},{"code":"HL/JB-142","program":"sota","name":"HL/JB-142","coordinates":[127.1304,35.6708]},{"code":"HL/JB-146","program":"sota","name":"구성산 (Guseongsan)","coordinates":[127.0226,35.7475]},{"code":"HL/JB-149","program":"sota","name":"HL/JB-149","coordinates":[127.1925,35.6356]},{"code":"HL/JB-152","program":"sota","name":"HL/JB-152","coordinates":[127.0321,35.5867]},{"code":"HL/JB-164","program":"sota","name":"HL/JB-164","coordinates":[127.0449,35.5666]},{"code":"HL/JB-170","program":"sota","name":"약담산 (Yakdamsan)","coordinates":[127.1709,35.505]},{"code":"HL/JB-181","program":"sota","name":"성옥산 (Seongoksan)","coordinates":[127.0865,35.5761]}]}