{"lat":35.5,"lon":-118.75,"programs":["sota"],"count":9,"references":[{"code":"W6/SS-364","program":"sota","name":"Black Mountain","coordinates":[-118.5239,35.7417]},{"code":"W6/SS-375","program":"sota","name":"7140","coordinates":[-118.5611,35.7192]},{"code":"W6/SS-386","program":"sota","name":"Oak Ridge","coordinates":[-118.5902,35.6787]},{"code":"W6/SS-400","program":"sota","name":"Lightner Peak","coordinates":[-118.5626,35.5293]},{"code":"W6/SS-436","program":"sota","name":"5620","coordinates":[-118.6442,35.585]},{"code":"W6/SS-458","program":"sota","name":"Brushy Hell Benchmark","coordinates":[-118.7073,35.5354]},{"code":"W6/SS-467","program":"sota","name":"Hooper Hill","coordinates":[-118.5124,35.567]},{"code":"W6/SS-477","program":"sota","name":"4022","coordinates":[-118.6808,35.7096]},{"code":"W6/SS-479","program":"sota","name":"3950","coordinates":[-118.6982,35.6927]}]}