{"lat":35.5,"lon":-105.5,"programs":["sota"],"count":6,"references":[{"code":"W5N/PW-015","program":"sota","name":"Hermit Peak","coordinates":[-105.4155,35.7446]},{"code":"W5N/PW-016","program":"sota","name":"El Cielo Mountain","coordinates":[-105.4528,35.7343]},{"code":"W5N/PW-017","program":"sota","name":"Johnson Mesa","coordinates":[-105.4627,35.6948]},{"code":"W5N/PW-022","program":"sota","name":"Barillas Peak","coordinates":[-105.4731,35.5725]},{"code":"W5N/PW-026","program":"sota","name":"8420","coordinates":[-105.2974,35.6964]},{"code":"W5N/PW-036","program":"sota","name":"Tecolote Peak","coordinates":[-105.3,35.52]}]}