{"lat":35.5,"lon":135,"programs":["pota","sota"],"count":22,"references":[{"code":"JP-0133","program":"pota","name":"Tango-Amanohashidate-Oeyama Quasi-National Park","coordinates":[135.19,35.5669]},{"code":"JP-1502","program":"pota","name":"Amanohashidate Prefectural Park","coordinates":[135.188,35.5643]},{"code":"JP-1503","program":"pota","name":"Tango Eco-Future Prefectural Park","coordinates":[135.236,35.6232]},{"code":"JA/HG-214","program":"sota","name":"JA/HG-214","coordinates":[135.0012,35.5342]},{"code":"JA/KT-026","program":"sota","name":"Takayama","coordinates":[135.1694,35.6262]},{"code":"JA/KT-029","program":"sota","name":"Taikoyama","coordinates":[135.2042,35.6953]},{"code":"JA/KT-033","program":"sota","name":"Isanagosan","coordinates":[135.0381,35.5485]},{"code":"JA/KT-043","program":"sota","name":"Gongenyama","coordinates":[135.22,35.7417]},{"code":"JA/KT-055","program":"sota","name":"Funatsuyama","coordinates":[135.2332,35.7415]},{"code":"JA/KT-056","program":"sota","name":"Hisatsugidake","coordinates":[135.007,35.5921]},{"code":"JA/KT-057","program":"sota","name":"Ichigaosan","coordinates":[135.1375,35.7341]},{"code":"JA/KT-076","program":"sota","name":"Ooishi","coordinates":[135.1408,35.7079]},{"code":"JA/KT-077","program":"sota","name":"JA/KT-077","coordinates":[135.0017,35.622]},{"code":"JA/KT-086","program":"sota","name":"JA/KT-086","coordinates":[135.1126,35.6405]},{"code":"JA/KT-093","program":"sota","name":"Aratayama","coordinates":[135.0937,35.5487]},{"code":"JA/KT-096","program":"sota","name":"Miemura","coordinates":[135.1275,35.5555]},{"code":"JA/KT-119","program":"sota","name":"Kongoudoujiyama","coordinates":[135.142,35.6595]},{"code":"JA/KT-125","program":"sota","name":"JA/KT-125","coordinates":[135.2024,35.7351]},{"code":"JA/KT-135","program":"sota","name":"JA/KT-135","coordinates":[135.0466,35.5091]},{"code":"JA/KT-151","program":"sota","name":"Ootani","coordinates":[135.0812,35.6932]},{"code":"JA/KT-153","program":"sota","name":"Tokura","coordinates":[135.0781,35.7143]},{"code":"JA/KT-156","program":"sota","name":"Horagaya","coordinates":[135.2422,35.5672]}]}