{"lat":35.5,"lon":127.5,"programs":["pota","sota"],"count":19,"references":[{"code":"KR-0149","program":"pota","name":"최치원역사공원\tChoichiwon National Historic Site","coordinates":[127.723,35.5264]},{"code":"KR-0615","program":"pota","name":"하림공원\tHarim Provincial Ecological Park","coordinates":[127.743,35.512]},{"code":"KR-0727","program":"pota","name":"장계체육공원\tJanggye Soprts Provincial Recreation Park","coordinates":[127.592,35.7277]},{"code":"KR-1046","program":"pota","name":"의암공원(장수)\tJangsu Uiam Neighborhood Provincial Park","coordinates":[127.518,35.6411]},{"code":"HL/GN-005","program":"sota","name":"월봉산 (Wolbongsan)","coordinates":[127.7209,35.7275]},{"code":"HL/GN-006","program":"sota","name":"백운산 (Baegunsan)","coordinates":[127.635,35.6183]},{"code":"HL/GN-007","program":"sota","name":"대봉산 (Daebongsan)","coordinates":[127.6969,35.6033]},{"code":"HL/GN-009","program":"sota","name":"거망산 (Geomangsan)","coordinates":[127.7376,35.6767]},{"code":"HL/GN-022","program":"sota","name":"월경산 (Wolgyeongsan)","coordinates":[127.6124,35.5833]},{"code":"HL/GN-061","program":"sota","name":"우락산 (Uraksan)","coordinates":[127.6946,35.6644]},{"code":"HL/JB-012","program":"sota","name":"장안산 (Jangansan)","coordinates":[127.5952,35.6293]},{"code":"HL/JB-024","program":"sota","name":"구시봉 (Gusibong)","coordinates":[127.6493,35.7041]},{"code":"HL/JB-025","program":"sota","name":"사두봉 (Sadubong)","coordinates":[127.5362,35.6097]},{"code":"HL/JB-026","program":"sota","name":"깃대봉 (Gitdaebong)","coordinates":[127.6193,35.7483]},{"code":"HL/JB-032","program":"sota","name":"대성산 (Daeseongsan)","coordinates":[127.5019,35.5214]},{"code":"HL/JB-036","program":"sota","name":"백화산 (Baekhwasan)","coordinates":[127.6026,35.7034]},{"code":"HL/JB-049","program":"sota","name":"봉화산 (Bonghwasan)","coordinates":[127.5485,35.7007]},{"code":"HL/JB-054","program":"sota","name":"시리봉 (Siribong)","coordinates":[127.5808,35.5078]},{"code":"HL/JB-075","program":"sota","name":"감투봉 (Gamtubong)","coordinates":[127.5101,35.5526]}]}