{"lat":35.5,"lon":139,"programs":["pota","sota"],"count":25,"references":[{"code":"JP-1290","program":"pota","name":"Jinba Sagamiko Prefectural Nature Park","coordinates":[139.154,35.6581]},{"code":"JP-1305","program":"pota","name":"Sagamiko Prefectural Park","coordinates":[139.191,35.6125]},{"code":"JP-1205","program":"pota","name":"Takao Jinba Prefectural Nature Park","coordinates":[139.221,35.6506]},{"code":"JP-1829","program":"pota","name":"Komine Prefectural Park","coordinates":[139.23,35.7197]},{"code":"JP-1947","program":"pota","name":"Hinohara Tokyo Citizens' Forest Prefectural Park","coordinates":[139.029,35.7393]},{"code":"JA/KN-003","program":"sota","name":"Oomuroyama","coordinates":[139.0686,35.511]},{"code":"JA/KN-013","program":"sota","name":"Kayamaru","coordinates":[139.1363,35.6723]},{"code":"JA/KN-018","program":"sota","name":"Sekirouzan","coordinates":[139.1906,35.5852]},{"code":"JA/KN-019","program":"sota","name":"Sendoujiyama","coordinates":[139.2254,35.5616]},{"code":"JA/KN-020","program":"sota","name":"Gongendaira","coordinates":[139.2357,35.5457]},{"code":"JA/KN-028","program":"sota","name":"Jinbasan","coordinates":[139.1666,35.6521]},{"code":"JA/KN-030","program":"sota","name":"Ishizareyama","coordinates":[139.1694,35.5726]},{"code":"JA/KN-031","program":"sota","name":"Takatoriyama","coordinates":[139.1318,35.6343]},{"code":"JA/KN-032","program":"sota","name":"Arashiyama","coordinates":[139.1987,35.6116]},{"code":"JA/TK-005","program":"sota","name":"Mitousan","coordinates":[139.0137,35.739]},{"code":"JA/TK-012","program":"sota","name":"Usugiyama","coordinates":[139.1654,35.7065]},{"code":"JA/TK-034","program":"sota","name":"Toyama","coordinates":[139.0348,35.7424]},{"code":"JA/TK-037","program":"sota","name":"Hikagehondayama","coordinates":[139.1906,35.7125]},{"code":"JA/YN-054","program":"sota","name":"Gongenyama","coordinates":[139.0214,35.6679]},{"code":"JA/YN-059","program":"sota","name":"Ougiyama","coordinates":[139.0134,35.6371]},{"code":"JA/YN-061","program":"sota","name":"Kuratakeyama","coordinates":[139.0198,35.584]},{"code":"JA/YN-065","program":"sota","name":"Yadairayama","coordinates":[139.0671,35.5863]},{"code":"JA/YN-086","program":"sota","name":"Akakuragatake","coordinates":[139.0245,35.5443]},{"code":"JA/YN-096","program":"sota","name":"Syoumureyama","coordinates":[139.0986,35.6602]},{"code":"JA/YN-098","program":"sota","name":"Gozenyama","coordinates":[139.0841,35.6184]}]}