{"lat":35.5,"lon":129.25,"programs":["pota","sota"],"count":24,"references":[{"code":"KR-0061","program":"pota","name":"경북동해안국가지질공원 Geopark","coordinates":[129.474,35.6867]},{"code":"KR-0424","program":"pota","name":"봉길대왕암해변\tBonggil Daewang-am Coast Provincial Park","coordinates":[129.483,35.7407]},{"code":"KR-1036","program":"pota","name":"월성한마음동산\tWolseong Hanmaumdongsan Neighborhood Provincial Park","coordinates":[129.467,35.7043]},{"code":"KR-0098","program":"pota","name":"다운역사공원\tDaun National Historical Site","coordinates":[129.264,35.5627]},{"code":"KR-0377","program":"pota","name":"우가산공원\tUgasan Mountain Provincial Park","coordinates":[129.452,35.597]},{"code":"KR-0383","program":"pota","name":"울산남산공원\tUlsan Namsan Mountain Provincial Park","coordinates":[129.301,35.5437]},{"code":"KR-0411","program":"pota","name":"울산테마식물수목원 \tUlsan Theme Arboretum Provincial Park","coordinates":[129.427,35.5539]},{"code":"KR-0433","program":"pota","name":"방어진도시자연공원구역\tBang-eojin Provincial Conservation Park","coordinates":[129.411,35.5107]},{"code":"KR-0530","program":"pota","name":"선암호수공원\tSeon-am Lake Provincial Ecological Park","coordinates":[129.322,35.5169]},{"code":"KR-0544","program":"pota","name":"신천자연마당\tSincheon Provincial Ecological Park","coordinates":[129.345,35.6429]},{"code":"KR-0612","program":"pota","name":"태화강국가정원\tTaehwagang Garden National Park","coordinates":[129.37,35.5372]},{"code":"KR-0715","program":"pota","name":"울산대공원\tUlsan Grand Provincial Recreation Park","coordinates":[129.294,35.531]},{"code":"KR-0716","program":"pota","name":"울산종합운동장(동천)\tUlsan Stadium(Dongchun) Provincial Recreation Park","coordinates":[129.348,35.5623]},{"code":"KR-0717","program":"pota","name":"울산체육공원(문수)\tUlsan Sports(Munsu) Provincial Recreation Park","coordinates":[129.26,35.5353]},{"code":"KR-1022","program":"pota","name":"울산문화공원\tUlsan Culture Neighborhood Provincial Park","coordinates":[129.327,35.5429]},{"code":"KR-1064","program":"pota","name":"장무공원\tJangmu Neighborhood Provincial Park","coordinates":[129.336,35.5587]},{"code":"KR-1103","program":"pota","name":"태화근린공원\tTaehwa Neighborhood Provincial Park","coordinates":[129.298,35.5559]},{"code":"KR-1111","program":"pota","name":"학성공원(울산)\tUlsan Hakseong Neighborhood Provincial Park","coordinates":[129.339,35.5545]},{"code":"HL/GB-223","program":"sota","name":"HL/GB-223","coordinates":[129.3656,35.7055]},{"code":"HL/GB-287","program":"sota","name":"마석산 (Maseoksan)","coordinates":[129.2623,35.7385]},{"code":"HL/GB-375","program":"sota","name":"우산 (Usan)","coordinates":[129.4123,35.7432]},{"code":"HL/GB-414","program":"sota","name":"천마산 (Cheonmasan)","coordinates":[129.3035,35.652]},{"code":"HL/US-005","program":"sota","name":"묵장산 (Mukjangsan)","coordinates":[129.25797,35.683544]},{"code":"HL/US-016","program":"sota","name":"무룡산 (Muryongsan)","coordinates":[129.39827,35.590164]}]}