{"lat":35.5,"lon":-82.5,"programs":["pota","sota"],"count":17,"references":[{"code":"US-6856","program":"pota","name":"Zebulon B. Vance Birthplace State Historic Site","coordinates":[-82.4963,35.701]},{"code":"W4C/CM-007","program":"sota","name":"Craggy Dome","coordinates":[-82.3667,35.706]},{"code":"W4C/CM-018","program":"sota","name":"Lane Pinnacle","coordinates":[-82.4214,35.6813]},{"code":"W4C/CM-026","program":"sota","name":"4940","coordinates":[-82.3825,35.6596]},{"code":"W4C/CM-050","program":"sota","name":"Little Pisgah Mountain","coordinates":[-82.3327,35.5003]},{"code":"W4C/CM-052","program":"sota","name":"High Windy","coordinates":[-82.3372,35.5695]},{"code":"W4C/CM-055","program":"sota","name":"Montreat 6 Benchmark","coordinates":[-82.3839,35.5681]},{"code":"W4C/CM-066","program":"sota","name":"Frosty Knob","coordinates":[-82.479,35.7421]},{"code":"W4C/CM-082","program":"sota","name":"Rice Knob","coordinates":[-82.4897,35.6561]},{"code":"W4C/CM-085","program":"sota","name":"3980","coordinates":[-82.4442,35.5603]},{"code":"W4C/CM-091","program":"sota","name":"Dill Knob","coordinates":[-82.3036,35.5561]},{"code":"W4C/CM-097","program":"sota","name":"Peach Knob","coordinates":[-82.4965,35.6383]},{"code":"W4C/CM-113","program":"sota","name":"3660","coordinates":[-82.291,35.5912]},{"code":"W4C/CM-120","program":"sota","name":"Butler Mountain","coordinates":[-82.4684,35.5313]},{"code":"W4C/CM-128","program":"sota","name":"3500","coordinates":[-82.322,35.5472]},{"code":"W4C/CM-130","program":"sota","name":"Cross Mountain","coordinates":[-82.2512,35.56]},{"code":"W4C/CM-143","program":"sota","name":"Allen Mountain","coordinates":[-82.3463,35.6292]}]}