{"lat":35.5,"lon":128.25,"programs":["pota","sota"],"count":18,"references":[{"code":"KR-0835","program":"pota","name":"돌구산공원\tDolgusan Neighborhood Provincial Park","coordinates":[128.462,35.7377]},{"code":"KR-1104","program":"pota","name":"테크노폴리스중앙공원\tTechnopolis Central Neighborhood Provincial Park","coordinates":[128.46,35.6914]},{"code":"KR-0099","program":"pota","name":"대가야박물관\tDaegaya Museum National Historic Site","coordinates":[128.257,35.7227]},{"code":"KR-0281","program":"pota","name":"창녕 우포늪 천연보호구역\tChangnyeong Uponeup Wetland National Nature Reserve","coordinates":[128.412,35.5515]},{"code":"KR-1081","program":"pota","name":"창녕문화공원\tChangnyeong Culture Neighborhood Provincial Park","coordinates":[128.497,35.5484]},{"code":"HL/DG-013","program":"sota","name":"대니산 (Daenisan)","coordinates":[128.4131,35.6759]},{"code":"HL/DG-014","program":"sota","name":"잠용산 (Jamyongsan)","coordinates":[128.4407,35.737]},{"code":"HL/DG-018","program":"sota","name":"쌍산 (Ssangsan)","coordinates":[128.4425,35.7195]},{"code":"HL/GB-373","program":"sota","name":"제석산 (Jeseoksan)","coordinates":[128.365,35.7297]},{"code":"HL/GB-409","program":"sota","name":"청룡산 (Cheongnyongsan)","coordinates":[128.3492,35.6669]},{"code":"HL/GB-417","program":"sota","name":"금산 (Geumsan)","coordinates":[128.292,35.7317]},{"code":"HL/GN-163","program":"sota","name":"소학산 (Sohaksan)","coordinates":[128.3245,35.6423]},{"code":"HL/GN-209","program":"sota","name":"다남산 (Danamsan)","coordinates":[128.3178,35.6149]},{"code":"HL/GN-275","program":"sota","name":"태백산 (Taebaeksan)","coordinates":[128.4579,35.6193]},{"code":"HL/GN-286","program":"sota","name":"퇴포산 (Toeposan)","coordinates":[128.4775,35.6341]},{"code":"HL/GN-290","program":"sota","name":"왕령산 (Wangnyeongsan)","coordinates":[128.4982,35.6074]},{"code":"HL/GN-308","program":"sota","name":"험듬산 (Heomdeumsan)","coordinates":[128.3754,35.5738]},{"code":"HL/GN-330","program":"sota","name":"HL/GN-330","coordinates":[128.3669,35.606]}]}