{"lat":35.5,"lon":138,"programs":["gma","pota","sota"],"count":19,"references":[{"code":"XJA/YN-003","program":"gma","name":"Nakashiranesan","coordinates":[138.2282,35.6586]},{"code":"JP-0019","program":"pota","name":"Minami Alps National Park","coordinates":[138.217,35.6421]},{"code":"JA/NN-047","program":"sota","name":"Kosetoyama","coordinates":[138.1629,35.6848]},{"code":"JA/NN-050","program":"sota","name":"Futagoyama","coordinates":[138.1025,35.6487]},{"code":"JA/NN-093","program":"sota","name":"Kitagawa","coordinates":[138.0437,35.6751]},{"code":"JA/NN-098","program":"sota","name":"Tokurayama (Inafuji)","coordinates":[138.052,35.745]},{"code":"JA/NN-208","program":"sota","name":"JA/NN-208","coordinates":[138.0934,35.5633]},{"code":"JA/NN-212","program":"sota","name":"Ooidosawa","coordinates":[138.1359,35.6161]},{"code":"JA/NN-225","program":"sota","name":"Near Minamimukai","coordinates":[138.0203,35.6324]},{"code":"JA/NN-236","program":"sota","name":"Nakasokura","coordinates":[138.0159,35.7284]},{"code":"JA/SO-002","program":"sota","name":"Warusawadake","coordinates":[138.1823,35.5007]},{"code":"JA/SO-005","program":"sota","name":"Noutoridake (Nishinoutoridake)","coordinates":[138.2303,35.6247]},{"code":"JA/SO-006","program":"sota","name":"Shiomidake","coordinates":[138.1831,35.5738]},{"code":"JA/SO-009","program":"sota","name":"Kogouchidake","coordinates":[138.1529,35.5378]},{"code":"JA/SO-160","program":"sota","name":"Koumoridake","coordinates":[138.2073,35.5569]},{"code":"JA/YN-001","program":"sota","name":"Kitadake","coordinates":[138.2388,35.6743]},{"code":"JA/YN-002","program":"sota","name":"Ainodake","coordinates":[138.2284,35.646]},{"code":"JA/YN-004","program":"sota","name":"Senjyougatake","coordinates":[138.1836,35.7201]},{"code":"JA/YN-008","program":"sota","name":"Asayomine","coordinates":[138.2413,35.7317]}]}