{"lat":35.75,"lon":-83.5,"programs":["sota"],"count":9,"references":[{"code":"W4T/SU-053","program":"sota","name":"English Mountain","coordinates":[-83.298,35.9011]},{"code":"W4T/SU-072","program":"sota","name":"Webb Mountain","coordinates":[-83.3508,35.7857]},{"code":"W4T/SU-082","program":"sota","name":"Rich Mountain","coordinates":[-83.3088,35.8717]},{"code":"W4T/SU-120","program":"sota","name":"Shields Mountain","coordinates":[-83.4886,35.8068]},{"code":"W4T/SU-121","program":"sota","name":"Dixon Mountain","coordinates":[-83.3632,35.8334]},{"code":"W4T/SU-122","program":"sota","name":"Short Mountain","coordinates":[-83.3993,35.8178]},{"code":"W4T/SU-123","program":"sota","name":"Short Mountain","coordinates":[-83.2541,35.8609]},{"code":"W4T/SU-124","program":"sota","name":"Pine Mountain","coordinates":[-83.3548,35.8513]},{"code":"W4T/SU-131","program":"sota","name":"Bearwallow Mountain","coordinates":[-83.4105,35.8251]}]}