{"lat":35.75,"lon":-83,"programs":["gma","pota","sota"],"count":26,"references":[{"code":"K4C/CM-007","program":"gma","name":"Walnut Mountain","coordinates":[-82.93409729,35.83670044]},{"code":"K4T/SU-009","program":"gma","name":"Spring Mountain","coordinates":[-82.78700256,35.95439911]},{"code":"K4T/SU-010","program":"gma","name":"Rich Mountain","coordinates":[-82.80500031,35.92710114]},{"code":"US-6936","program":"pota","name":"Pisgah State Game Land","coordinates":[-82.8731,35.7984]},{"code":"US-12662","program":"pota","name":"Harmon Den Wildlife Management Area","coordinates":[-82.9778,35.7617]},{"code":"W4C/CM-035","program":"sota","name":"Bluff Mountain","coordinates":[-82.9066,35.8412]},{"code":"W4C/CM-036","program":"sota","name":"Max Patch Mountain","coordinates":[-82.9569,35.7973]},{"code":"W4C/CM-071","program":"sota","name":"Starret Knob","coordinates":[-82.7909,35.7714]},{"code":"W4C/CM-078","program":"sota","name":"Hap Mountain","coordinates":[-82.8267,35.8088]},{"code":"W4C/CM-105","program":"sota","name":"Spring Mountain","coordinates":[-82.787,35.9544]},{"code":"W4C/CM-110","program":"sota","name":"Rich Mountain","coordinates":[-82.805,35.9271]},{"code":"W4C/CM-124","program":"sota","name":"Piney Mountain","coordinates":[-82.8951,35.7945]},{"code":"W4C/CM-147","program":"sota","name":"Lamb Knob","coordinates":[-82.8697,35.8631]},{"code":"W4C/CM-163","program":"sota","name":"Slaty Knob","coordinates":[-82.7731,35.8466]},{"code":"W4C/CM-164","program":"sota","name":"Mill Ridge","coordinates":[-82.7804,35.9067]},{"code":"W4C/CM-166","program":"sota","name":"Little Mountain","coordinates":[-82.7511,35.7913]},{"code":"W4C/CM-168","program":"sota","name":"Walnut Knob","coordinates":[-82.7562,35.8932]},{"code":"W4T/SU-029","program":"sota","name":"Round Mountain","coordinates":[-82.9586,35.8495]},{"code":"W4T/SU-033","program":"sota","name":"Walnut Mountain","coordinates":[-82.9341,35.8367]},{"code":"W4T/SU-071","program":"sota","name":"Chuckey Mountain","coordinates":[-82.8951,35.9944]},{"code":"W4T/SU-075","program":"sota","name":"3070","coordinates":[-82.8971,35.8783]},{"code":"W4T/SU-087","program":"sota","name":"Ricker Mountain","coordinates":[-82.8263,35.9841]},{"code":"W4T/SU-090","program":"sota","name":"Brush Creek Mountain","coordinates":[-82.9614,35.9479]},{"code":"W4T/SU-095","program":"sota","name":"Paint Mountain","coordinates":[-82.905,35.9638]},{"code":"W4T/SU-107","program":"sota","name":"Cross Mountain","coordinates":[-82.9234,35.9334]},{"code":"W4T/SU-117","program":"sota","name":"Sawyer Mountain","coordinates":[-82.9575,35.9098]}]}