{"lat":35.75,"lon":138.75,"programs":["pota","sota"],"count":16,"references":[{"code":"JP-0014","program":"pota","name":"Chichibu-Tama-Kai National Park","coordinates":[138.863,35.8593]},{"code":"JP-1858","program":"pota","name":"Saino-Kuni Fureai Forest Prefectural Park","coordinates":[138.801,35.9947]},{"code":"JA/ST-016","program":"sota","name":"Shibaharayama","coordinates":[138.9931,35.9761]},{"code":"JA/ST-022","program":"sota","name":"Ryuubamiyama","coordinates":[138.8723,35.8549]},{"code":"JA/ST-023","program":"sota","name":"Akazawayama","coordinates":[138.7745,35.9606]},{"code":"JA/TK-001","program":"sota","name":"Kumotoriyama","coordinates":[138.9438,35.8555]},{"code":"JA/TK-002","program":"sota","name":"Imokinodokke","coordinates":[138.9543,35.8741]},{"code":"JA/TK-032","program":"sota","name":"Tensosan","coordinates":[138.9899,35.8645]},{"code":"JA/YN-017","program":"sota","name":"Nishihafuusan","coordinates":[138.7588,35.9019]},{"code":"JA/YN-022","program":"sota","name":"Karamatsuoyama","coordinates":[138.8454,35.8677]},{"code":"JA/YN-023","program":"sota","name":"Ooborayama (Hiryuuyama)","coordinates":[138.8922,35.8398]},{"code":"JA/YN-033","program":"sota","name":"Kurakakeyama","coordinates":[138.7832,35.8117]},{"code":"JA/YN-044","program":"sota","name":"Fujioyama","coordinates":[138.8393,35.8166]},{"code":"JA/YN-055","program":"sota","name":"Shishigurayama","coordinates":[138.9497,35.7703]},{"code":"JA/YN-077","program":"sota","name":"Kurokawakeikanzan","coordinates":[138.8356,35.7885]},{"code":"JA/YN-080","program":"sota","name":"Sakariyama","coordinates":[138.8881,35.7675]}]}