{"lat":35.75,"lon":137.5,"programs":["sota"],"count":8,"references":[{"code":"JA/NN-065","program":"sota","name":"Oosasazawayama","coordinates":[137.6969,35.9761]},{"code":"JA/NN-095","program":"sota","name":"Nishimatayama","coordinates":[137.5333,35.7547]},{"code":"JA/NN-117","program":"sota","name":"Saburouzawa","coordinates":[137.5726,35.8529]},{"code":"JA/NN-121","program":"sota","name":"Daigamine","coordinates":[137.6628,35.7919]},{"code":"JA/NN-126","program":"sota","name":"Masu","coordinates":[137.6542,35.7514]},{"code":"JA/NN-128","program":"sota","name":"Ichinokurasawa","coordinates":[137.5805,35.7789]},{"code":"JA/NN-132","program":"sota","name":"Uematsu","coordinates":[137.7204,35.8208]},{"code":"JA/NN-211","program":"sota","name":"Fuji","coordinates":[137.6978,35.9956]}]}