{"lat":35.75,"lon":128.25,"programs":["pota","sota"],"count":12,"references":[{"code":"KR-0122","program":"pota","name":"성주성산동고분군\tSeongju Seongsandong Ancient Tombs National Historic Site","coordinates":[128.299,35.9063]},{"code":"HL/DG-010","program":"sota","name":"금계산 (Geumgyesan)","coordinates":[128.449,35.7707]},{"code":"HL/DG-017","program":"sota","name":"마천산 (Macheonsan)","coordinates":[128.4606,35.8991]},{"code":"HL/DG-019","program":"sota","name":"궁산 (Gungsan)","coordinates":[128.4831,35.8674]},{"code":"HL/GB-275","program":"sota","name":"죽전상봉 (Jukjeonsangbong)","coordinates":[128.2533,35.8767]},{"code":"HL/GB-277","program":"sota","name":"의봉산 (Uibongsan)","coordinates":[128.331,35.7899]},{"code":"HL/GB-336","program":"sota","name":"봉화산 (Bonghwasan)","coordinates":[128.3297,35.9782]},{"code":"HL/GB-372","program":"sota","name":"HL/GB-372","coordinates":[128.3051,35.8098]},{"code":"HL/GB-377","program":"sota","name":"성산 (Seongsan)","coordinates":[128.3135,35.8996]},{"code":"HL/GB-393","program":"sota","name":"도고산 (Dogosan)","coordinates":[128.3648,35.9482]},{"code":"HL/GB-425","program":"sota","name":"금무산 (Geummusan)","coordinates":[128.4254,35.9602]},{"code":"HL/GN-170","program":"sota","name":"금동산 (Geumdongsan)","coordinates":[128.3349,35.9101]}]}