{"lat":35.75,"lon":-82.25,"programs":["pota","sota"],"count":15,"references":[{"code":"US-8008","program":"pota","name":"Armstrong State Fish Hatchery","coordinates":[-82.0966,35.803]},{"code":"W4C/CM-003","program":"sota","name":"Celo Knob","coordinates":[-82.2488,35.8523]},{"code":"W4C/CM-051","program":"sota","name":"Pig Pen Bluff","coordinates":[-82.2484,35.9602]},{"code":"W4C/CM-056","program":"sota","name":"Cow Mill Knob","coordinates":[-82.0952,35.9947]},{"code":"W4C/CM-072","program":"sota","name":"Woodys Knob","coordinates":[-82.1043,35.8801]},{"code":"W4C/CM-077","program":"sota","name":"Three Knobs","coordinates":[-82.1366,35.8185]},{"code":"W4C/CM-096","program":"sota","name":"The Peak","coordinates":[-82.1332,35.9232]},{"code":"W4C/CM-098","program":"sota","name":"Sevenmile Ridge","coordinates":[-82.1583,35.8791]},{"code":"W4C/CM-106","program":"sota","name":"Otter Knobs","coordinates":[-82.1247,35.9483]},{"code":"W4C/CM-111","program":"sota","name":"Woods Mountain","coordinates":[-82.0881,35.7784]},{"code":"W4C/CM-127","program":"sota","name":"Burnt Mountain","coordinates":[-82.1542,35.9774]},{"code":"W4C/CM-138","program":"sota","name":"3340","coordinates":[-82.0285,35.8794]},{"code":"W4C/CM-144","program":"sota","name":"Boone Knob","coordinates":[-82.1614,35.9208]},{"code":"W4C/CM-178","program":"sota","name":"Graveyard Mountain","coordinates":[-82.0314,35.7744]},{"code":"W4C/EM-009","program":"sota","name":"Big Bald","coordinates":[-82.059,35.9878]}]}