{"lat":35.75,"lon":137.25,"programs":["pota","sota"],"count":13,"references":[{"code":"JP-2123","program":"pota","name":"Ontakesan Quasi-National Park","coordinates":[137.481,35.8931]},{"code":"JA/GF-027","program":"sota","name":"JA/GF-027","coordinates":[137.2685,35.8833]},{"code":"JA/GF-028","program":"sota","name":"Nigorigoyama","coordinates":[137.3992,35.9612]},{"code":"JA/GF-051","program":"sota","name":"Karataniyama","coordinates":[137.2775,35.8375]},{"code":"JA/GF-209","program":"sota","name":"Sangenyama","coordinates":[137.4214,35.9367]},{"code":"JA/GF-215","program":"sota","name":"Oozoreyama","coordinates":[137.3123,35.9414]},{"code":"JA/GF-239","program":"sota","name":"Notakiyama","coordinates":[137.2767,35.7606]},{"code":"JA/NN-005","program":"sota","name":"Ontakesan (Kengamine)","coordinates":[137.4804,35.893]},{"code":"JA/NN-070","program":"sota","name":"Kohideyama","coordinates":[137.397,35.7854]},{"code":"JA/NN-097","program":"sota","name":"Okegasawa","coordinates":[137.4348,35.7658]},{"code":"JA/NN-102","program":"sota","name":"Hakoiwayama","coordinates":[137.3314,35.8071]},{"code":"JA/NN-105","program":"sota","name":"Warisawa","coordinates":[137.4624,35.7943]},{"code":"JA/NN-218","program":"sota","name":"Mayumizawa","coordinates":[137.4786,35.772]}]}