{"lat":35.75,"lon":139,"programs":["pota","sota"],"count":20,"references":[{"code":"JP-1146","program":"pota","name":"Okumusashi Prefectural Nature Park","coordinates":[139.19,35.9061]},{"code":"JP-1147","program":"pota","name":"Kuroyama Prefectural Nature Park","coordinates":[139.236,35.9592]},{"code":"JP-1151","program":"pota","name":"Buko Prefectural Nature Park","coordinates":[139.013,35.9539]},{"code":"JP-1164","program":"pota","name":"Saitama Prefectural Forest","coordinates":[139.157,35.9895]},{"code":"JP-1834","program":"pota","name":"Chichibu Muse Prefectural Park","coordinates":[139.055,35.9962]},{"code":"JP-1828","program":"pota","name":"Lake Okutama Hotori Prefectural Park","coordinates":[139.022,35.7663]},{"code":"JP-1948","program":"pota","name":"Okutama Tokyo Citizens' Forest Prefectural Park","coordinates":[139.082,35.7768]},{"code":"JA/ST-004","program":"sota","name":"Bukousan","coordinates":[139.0976,35.9516]},{"code":"JA/ST-005","program":"sota","name":"Oomochiyama","coordinates":[139.1005,35.9285]},{"code":"JA/ST-008","program":"sota","name":"Takegawadake","coordinates":[139.1302,35.9369]},{"code":"JA/ST-012","program":"sota","name":"Maruyama","coordinates":[139.1596,35.9886]},{"code":"JA/ST-013","program":"sota","name":"Izugatake","coordinates":[139.1607,35.9269]},{"code":"JA/ST-015","program":"sota","name":"Atagoyama (Nenogongen)","coordinates":[139.1852,35.9071]},{"code":"JA/TK-003","program":"sota","name":"Takanosuyama","coordinates":[139.0123,35.8299]},{"code":"JA/TK-004","program":"sota","name":"Toridaniyama","coordinates":[139.0102,35.8971]},{"code":"JA/TK-006","program":"sota","name":"Gozenyama","coordinates":[139.0807,35.7701]},{"code":"JA/TK-007","program":"sota","name":"Oodakesan","coordinates":[139.1304,35.7652]},{"code":"JA/TK-008","program":"sota","name":"Honitayama","coordinates":[139.1019,35.83]},{"code":"JA/TK-033","program":"sota","name":"Kawanoriyama","coordinates":[139.1069,35.8508]},{"code":"JA/TK-035","program":"sota","name":"Raidenyama","coordinates":[139.2152,35.8155]}]}