{"lat":35.75,"lon":14.5,"programs":["pota"],"count":9,"references":[{"code":"MT-0040","program":"pota","name":"Megalithic Temples of Malta World Heritage Site","coordinates":[14.5111,35.8797]},{"code":"MT-0014","program":"pota","name":"Il-Ballut ta' Marsaxlokk Natura 2000","coordinates":[14.548,35.839]},{"code":"MT-0023","program":"pota","name":"Il-Magħluq tal-Baħar ta' Marsaskala Natura 2000","coordinates":[14.562,35.861]},{"code":"MT-0038","program":"pota","name":"City of Valletta World Heritage Site","coordinates":[14.5136,35.8996]},{"code":"MT-0039","program":"pota","name":"Ħal Saflieni Hypogeum World Heritage Site","coordinates":[14.507,35.8697]},{"code":"MT-0045","program":"pota","name":"Ta' San Klement National Recreation Area","coordinates":[14.5287,35.877]},{"code":"MT-0011","program":"pota","name":"Għar Dalam Natura 2000","coordinates":[14.528,35.837]},{"code":"MT-0033","program":"pota","name":"Rdumijiet ta' Malta: Wied Moqbol sal-Ponta ta' Bengħisa Natura 2000","coordinates":[14.53,35.807]},{"code":"MT-0035","program":"pota","name":"L-Inħawi ta' Ħas-Saptan Natura 2000","coordinates":[14.517,35.838]}]}