{"lat":35.75,"lon":127.75,"programs":["pota","sota"],"count":18,"references":[{"code":"KR-0201","program":"pota","name":"국립덕유산자연휴양림\tDeogyusan Natural Recreation National Forest","coordinates":[127.814,35.9066]},{"code":"HL/GB-003","program":"sota","name":"수도산 (Sudosan)","coordinates":[127.9818,35.8598]},{"code":"HL/GB-030","program":"sota","name":"월매산 (Wolmaesan)","coordinates":[127.9643,35.8792]},{"code":"HL/GB-078","program":"sota","name":"국사봉 (Guksabong)","coordinates":[127.922,35.8941]},{"code":"HL/GB-089","program":"sota","name":"HL/GB-089","coordinates":[127.9028,35.9562]},{"code":"HL/GN-025","program":"sota","name":"시루봉 (Sirubong)","coordinates":[127.8369,35.816]},{"code":"HL/GN-032","program":"sota","name":"보해산 (Bohaesan)","coordinates":[127.9694,35.7534]},{"code":"HL/GN-034","program":"sota","name":"거말산 (Geomalsan)","coordinates":[127.9258,35.8551]},{"code":"HL/GN-036","program":"sota","name":"시루봉 (Sirubong)","coordinates":[127.7698,35.7927]},{"code":"HL/GN-040","program":"sota","name":"금오산 (Geumosan)","coordinates":[127.8699,35.9927]},{"code":"HL/GN-043","program":"sota","name":"HL/GN-043","coordinates":[127.9653,35.7859]},{"code":"HL/GN-182","program":"sota","name":"연대봉 (Yeondaebong)","coordinates":[127.8658,35.961]},{"code":"HL/GN-188","program":"sota","name":"HL/GN-188","coordinates":[127.9241,35.7509]},{"code":"HL/JB-008","program":"sota","name":"대덕산 (Daedeoksan)","coordinates":[127.8835,35.9249]},{"code":"HL/JB-010","program":"sota","name":"흥덕산 (Heungdeoksan)","coordinates":[127.8013,35.869]},{"code":"HL/JB-011","program":"sota","name":"삼봉산 (Sambongsan)","coordinates":[127.8527,35.8838]},{"code":"HL/JB-014","program":"sota","name":"거칠봉 (Geochilbong)","coordinates":[127.7831,35.941]},{"code":"HL/JB-034","program":"sota","name":"망덕산 (Mangdeoksan)","coordinates":[127.8493,35.9308]}]}