{"lat":36,"lon":27.75,"programs":["pota","sota"],"count":5,"references":[{"code":"GR-0183","program":"pota","name":"Chortis ( Lardou Rodou) National Wildlife Refuge","coordinates":[27.9991,36.0816]},{"code":"GR-0184","program":"pota","name":"Vounokalathos National Wildlife Refuge","coordinates":[27.9832,36.1517]},{"code":"GR-0259","program":"pota","name":"RODOS: AKRAMYTIS, ARMENISTIS, ATTAVYROS, REMATA KAI THALASSIA ZONI (KARAVOLA-ORMOS GLYFADA) Natura 2000","coordinates":[27.8046,36.1597]},{"code":"SV/AG-002","program":"sota","name":"Ataviros","coordinates":[27.86389,36.21]},{"code":"SV/AG-055","program":"sota","name":"Akramytis","coordinates":[27.763334,36.15889]}]}