{"lat":36,"lon":133.25,"programs":["sota"],"count":6,"references":[{"code":"JA/SN-119","program":"sota","name":"JA/SN-119","coordinates":[133.277,36.2077]},{"code":"JA/SN-132","program":"sota","name":"Kakigibata","coordinates":[133.2911,36.1988]},{"code":"JA/SN-169","program":"sota","name":"Oominesan","coordinates":[133.2501,36.2243]},{"code":"JA/SN-193","program":"sota","name":"Koguwashiyama","coordinates":[133.2963,36.1875]},{"code":"JA/SN-198","program":"sota","name":"Iinoyama","coordinates":[133.3165,36.192]},{"code":"JA/SN-200","program":"sota","name":"Kinbusen","coordinates":[133.3473,36.2001]}]}