{"lat":36,"lon":-118.75,"programs":["pota","sota"],"count":10,"references":[{"code":"US-4607","program":"pota","name":"Mountain Home Demonstration State Forest","coordinates":[-118.713,36.231]},{"code":"W6/SS-289","program":"sota","name":"Slate Mountain","coordinates":[-118.5761,36.0834]},{"code":"W6/SS-292","program":"sota","name":"9236","coordinates":[-118.592,36.1902]},{"code":"W6/SS-308","program":"sota","name":"8774","coordinates":[-118.596,36.2168]},{"code":"W6/SS-311","program":"sota","name":"Fish Benchmark","coordinates":[-118.5224,36.1688]},{"code":"W6/SS-326","program":"sota","name":"Onion Meadow Peak","coordinates":[-118.6028,36.0275]},{"code":"W6/SS-331","program":"sota","name":"Eye Benchmark","coordinates":[-118.5045,36.1193]},{"code":"W6/SS-367","program":"sota","name":"Solo Peak","coordinates":[-118.6725,36.104]},{"code":"W6/SS-373","program":"sota","name":"7180","coordinates":[-118.6669,36.2287]},{"code":"W6/SS-409","program":"sota","name":"Black Mountain","coordinates":[-118.7347,36.0969]}]}