{"lat":36,"lon":137.5,"programs":["pota","sota"],"count":18,"references":[{"code":"JP-1429","program":"pota","name":"Nomugi Prefectural Nature Park","coordinates":[137.603,36.0525]},{"code":"JA/GF-001","program":"sota","name":"Norikuradake (Kengamine)","coordinates":[137.5536,36.1065]},{"code":"JA/GF-006","program":"sota","name":"Yotsudake","coordinates":[137.5525,36.1477]},{"code":"JA/GF-011","program":"sota","name":"Terashiyama","coordinates":[137.5221,36.1941]},{"code":"JA/GF-033","program":"sota","name":"Sekibutsu","coordinates":[137.5099,36.0365]},{"code":"JA/NN-025","program":"sota","name":"Kasumizawadake","coordinates":[137.6406,36.2212]},{"code":"JA/NN-030","program":"sota","name":"Jyukkokusan","coordinates":[137.5804,36.16]},{"code":"JA/NN-038","program":"sota","name":"Kotakezawayama","coordinates":[137.7119,36.2078]},{"code":"JA/NN-040","program":"sota","name":"Kohachimoriyama","coordinates":[137.7356,36.0693]},{"code":"JA/NN-054","program":"sota","name":"Shirataniyama","coordinates":[137.5733,36.2107]},{"code":"JA/NN-057","program":"sota","name":"Kamagamine","coordinates":[137.599,36.0266]},{"code":"JA/NN-068","program":"sota","name":"Tochibora","coordinates":[137.6781,36.0149]},{"code":"JA/NN-088","program":"sota","name":"Ookubo","coordinates":[137.6668,36.0586]},{"code":"JA/NN-115","program":"sota","name":"Hokurayama","coordinates":[137.6881,36.1303]},{"code":"JA/NN-202","program":"sota","name":"Yakedake","coordinates":[137.5871,36.2269]},{"code":"JA/NN-203","program":"sota","name":"Junction peak","coordinates":[137.6705,36.2227]},{"code":"JA/NN-206","program":"sota","name":"Abousan","coordinates":[137.5951,36.1906]},{"code":"JA/NN-213","program":"sota","name":"Motoyazu","coordinates":[137.6517,36.0206]}]}