{"lat":36,"lon":128,"programs":["pota","sota"],"count":17,"references":[{"code":"KR-0146","program":"pota","name":"직지문화공원\tJikji Culture Park National Historic Site","coordinates":[128.014,36.1155]},{"code":"KR-0974","program":"pota","name":"안산공원(김천)\tAnsan (Gimcheon) Neighborhood Provincial Park","coordinates":[128.184,36.1223]},{"code":"HL/GB-109","program":"sota","name":"덕대산 (Deokdaesan)","coordinates":[128.0378,36.0871]},{"code":"HL/GB-152","program":"sota","name":"난함산 (Nanhamsan)","coordinates":[128.0672,36.2066]},{"code":"HL/GB-159","program":"sota","name":"진밭산 (Jinbatsan)","coordinates":[128.0035,36.0853]},{"code":"HL/GB-162","program":"sota","name":"백마산 (Baengmasan)","coordinates":[128.1958,36.0423]},{"code":"HL/GB-237","program":"sota","name":"HL/GB-237","coordinates":[128.2215,36.0383]},{"code":"HL/GB-251","program":"sota","name":"HL/GB-251","coordinates":[128.2172,36.016]},{"code":"HL/GB-269","program":"sota","name":"HL/GB-269","coordinates":[128.2495,36.0483]},{"code":"HL/GB-270","program":"sota","name":"송림산 (Songnimsan)","coordinates":[128.0537,36.006]},{"code":"HL/GB-307","program":"sota","name":"제석봉 (Jeseokbong)","coordinates":[128.2469,36.134]},{"code":"HL/GB-323","program":"sota","name":"고성산 (Goseongsan)","coordinates":[128.0944,36.1059]},{"code":"HL/GB-334","program":"sota","name":"우태산 (Utaesan)","coordinates":[128.1878,36.2383]},{"code":"HL/GB-369","program":"sota","name":"광덕산 (Gwangdeoksan)","coordinates":[128.2156,36.2274]},{"code":"HL/GB-396","program":"sota","name":"봉화산 (Bonghwasan)","coordinates":[128.2008,36.1402]},{"code":"HL/GB-402","program":"sota","name":"월유봉 (Woryubong)","coordinates":[128.2495,36.2282]},{"code":"HL/GB-410","program":"sota","name":"취적봉 (Chwijeokbong)","coordinates":[128.1801,36.1766]}]}