{"lat":36,"lon":128.5,"programs":["pota","sota"],"count":14,"references":[{"code":"KR-0034","program":"pota","name":"팔공산국립공원 National Park","coordinates":[128.648,36.0154]},{"code":"KR-0658","program":"pota","name":"팔공산금화자연휴양림\tPalgongsan Geumhwa Natural Recreation Forest Provincial Park","coordinates":[128.564,36.0516]},{"code":"HL/GB-011","program":"sota","name":"팔공산 (Palgongsan)","coordinates":[128.6948,36.0166]},{"code":"HL/GB-068","program":"sota","name":"가산 (Gasan)","coordinates":[128.5825,36.0376]},{"code":"HL/GB-151","program":"sota","name":"갈정산 (Galjeongsan)","coordinates":[128.5667,36.0585]},{"code":"HL/GB-204","program":"sota","name":"HL/GB-204","coordinates":[128.6267,36.0695]},{"code":"HL/GB-216","program":"sota","name":"조림산 (Jorimsan)","coordinates":[128.7379,36.121]},{"code":"HL/GB-262","program":"sota","name":"지마산 (Jimasan)","coordinates":[128.5664,36.0118]},{"code":"HL/GB-325","program":"sota","name":"HL/GB-325","coordinates":[128.5862,36.0025]},{"code":"HL/GB-327","program":"sota","name":"매봉산 (Maebongsan)","coordinates":[128.6046,36.1628]},{"code":"HL/GB-364","program":"sota","name":"HL/GB-364","coordinates":[128.565,36.1413]},{"code":"HL/GB-365","program":"sota","name":"마정산 (Majeongsan)","coordinates":[128.5876,36.2166]},{"code":"HL/GB-391","program":"sota","name":"물부리산 (Mulburisan)","coordinates":[128.5148,36.2025]},{"code":"HL/GB-397","program":"sota","name":"적라산 (Jeongnasan)","coordinates":[128.559,36.1793]}]}