{"lat":36,"lon":-84.75,"programs":["pota","sota"],"count":9,"references":[{"code":"US-0685","program":"pota","name":"Obed National Wild and Scenic River","coordinates":[-84.722,36.1024]},{"code":"US-2948","program":"pota","name":"Frozen Head State Park","coordinates":[-84.5047,36.1255]},{"code":"US-5496","program":"pota","name":"Lone Mountain State Forest","coordinates":[-84.5694,36.0481]},{"code":"W4T/CA-007","program":"sota","name":"3050","coordinates":[-84.531,36.1397]},{"code":"W4T/CA-011","program":"sota","name":"Landrom Mountain","coordinates":[-84.5558,36.2016]},{"code":"W4T/CA-021","program":"sota","name":"Lone Mountain","coordinates":[-84.5522,36.0516]},{"code":"W4T/CA-022","program":"sota","name":"Pilot Mountain","coordinates":[-84.628,36.1872]},{"code":"W4T/CA-034","program":"sota","name":"Little Brushy Mountain West","coordinates":[-84.5092,36.0443]},{"code":"W4T/CA-052","program":"sota","name":"Cooke Knob","coordinates":[-84.5389,36.0113]}]}