{"lat":36,"lon":-114.75,"programs":["sota"],"count":24,"references":[{"code":"W7A/AW-061","program":"sota","name":"Sugarloaf Mountain","coordinates":[-114.7372,36.0087]},{"code":"W7A/NM-068","program":"sota","name":"Wilson Ridge North","coordinates":[-114.6189,36.0232]},{"code":"W7A/NM-123","program":"sota","name":"Canyon Ridge","coordinates":[-114.6347,36.0848]},{"code":"W7A/NM-130","program":"sota","name":"Arch Mountain Highpoint","coordinates":[-114.562,36.1166]},{"code":"W7A/NM-131","program":"sota","name":"Fortification Hill","coordinates":[-114.6811,36.0443]},{"code":"W7N/CK-219","program":"sota","name":"Endless Peak","coordinates":[-114.7076,36.2312]},{"code":"W7N/CK-229","program":"sota","name":"Northshore Peak","coordinates":[-114.6281,36.216]},{"code":"W7N/CK-231","program":"sota","name":"Hamblin Mountain","coordinates":[-114.6451,36.1787]},{"code":"W7N/CK-245","program":"sota","name":"Boulder Peak","coordinates":[-114.5803,36.1721]},{"code":"W7N/CK-249","program":"sota","name":"3054","coordinates":[-114.6634,36.1733]},{"code":"W7N/CK-250","program":"sota","name":"Pyramid Peak","coordinates":[-114.5403,36.1863]},{"code":"W7N/CK-251","program":"sota","name":"Pinto Ridge","coordinates":[-114.5852,36.2159]},{"code":"W7N/CK-253","program":"sota","name":"Mount Graybeard","coordinates":[-114.5595,36.2327]},{"code":"W7N/CK-267","program":"sota","name":"Ram Skull Peak","coordinates":[-114.5613,36.1661]},{"code":"W7N/CK-268","program":"sota","name":"Hamblin Butte","coordinates":[-114.6648,36.192]},{"code":"W7N/CK-272","program":"sota","name":"Murphys Peak","coordinates":[-114.673,36.2187]},{"code":"W7N/CK-274","program":"sota","name":"Knob Peak","coordinates":[-114.7216,36.2028]},{"code":"W7N/CK-275","program":"sota","name":"Knife Peak","coordinates":[-114.75,36.2041]},{"code":"W7N/CK-276","program":"sota","name":"Slabs Peak","coordinates":[-114.7328,36.2102]},{"code":"W7N/CK-277","program":"sota","name":"Bearing Peak","coordinates":[-114.6192,36.1619]},{"code":"W7N/CK-279","program":"sota","name":"Canyon Point","coordinates":[-114.6103,36.1394]},{"code":"W7N/CK-280","program":"sota","name":"After-Work Peak","coordinates":[-114.7266,36.1875]},{"code":"W7N/CK-281","program":"sota","name":"Promontory Point","coordinates":[-114.7376,36.0294]},{"code":"W7N/CK-293","program":"sota","name":"\"\"Redstone Peak\"\"","coordinates":[-114.5038,36.2337]}]}