{"lat":36,"lon":129.25,"programs":["pota","sota"],"count":7,"references":[{"code":"KR-0270","program":"pota","name":"사방기념공원\tSabang National Memorial","coordinates":[129.398,36.1637]},{"code":"KR-0405","program":"pota","name":"경상북도도립수목원\tGyeongsangbuk-do Arboretum Provincial Park","coordinates":[129.258,36.22]},{"code":"KR-0428","program":"pota","name":"연오랑세오녀테마공원\tYeon-orang Se-o-nyeo Coast Provincial Park","coordinates":[129.461,36.0034]},{"code":"KR-0431","program":"pota","name":"환호공원\tHwanho Coast Provincial Park","coordinates":[129.39,36.0665]},{"code":"KR-1117","program":"pota","name":"해도근린공원\tHaedo Neighborhood Provincial Park","coordinates":[129.368,36.0105]},{"code":"HL/GB-129","program":"sota","name":"천령산 (Cheollyeongsan)","coordinates":[129.2824,36.2446]},{"code":"HL/GB-376","program":"sota","name":"도음산 (Doeumsan)","coordinates":[129.2779,36.0766]}]}