{"lat":36,"lon":-93.25,"programs":["pota","sota"],"count":6,"references":[{"code":"US-7156","program":"pota","name":"Baker Prairie State Natural Area","coordinates":[-93.1346,36.2427]},{"code":"US-7270","program":"pota","name":"Buffalo National River Wildlife Management Area","coordinates":[-93.134,36.057]},{"code":"W5A/BR-002","program":"sota","name":"Boat Mountain","coordinates":[-93.0318,36.1115]},{"code":"W5A/BR-004","program":"sota","name":"Sulphur Mountain","coordinates":[-93.0584,36.1082]},{"code":"W5A/BR-005","program":"sota","name":"Pinnacle Mountain","coordinates":[-93.0538,36.084]},{"code":"W5A/BR-006","program":"sota","name":"Kennedy Mountain","coordinates":[-93.2251,36.2412]}]}