{"lat":36,"lon":-82,"programs":["pota","sota"],"count":11,"references":[{"code":"US-2733","program":"pota","name":"Grandfather Mountain State Park","coordinates":[-81.835,36.1198]},{"code":"W4C/EM-002","program":"sota","name":"Grandfather Mountain","coordinates":[-81.8116,36.1115]},{"code":"W4C/EM-007","program":"sota","name":"Beech Mountain","coordinates":[-81.8813,36.1843]},{"code":"W4C/EM-010","program":"sota","name":"Hanging Rock","coordinates":[-81.8244,36.1539]},{"code":"W4C/EM-011","program":"sota","name":"Sugar Mountain","coordinates":[-81.8758,36.1247]},{"code":"W4C/EM-020","program":"sota","name":"Big Haw Mountain","coordinates":[-81.9594,36.0765]},{"code":"W4C/EM-022","program":"sota","name":"Grandmother Mountain","coordinates":[-81.8428,36.063]},{"code":"W4C/EM-025","program":"sota","name":"High Point","coordinates":[-81.9571,36.1137]},{"code":"W4C/EM-029","program":"sota","name":"Big Elk Mountain","coordinates":[-81.9732,36.0504]},{"code":"W4C/EM-030","program":"sota","name":"Little Haw Mountain","coordinates":[-81.9815,36.0853]},{"code":"W4C/EM-038","program":"sota","name":"Buck Hill","coordinates":[-81.9945,36.0038]}]}