{"lat":36,"lon":138,"programs":["pota","sota"],"count":8,"references":[{"code":"JP-1337","program":"pota","name":"Enrei Ojo Prefectural Nature Park","coordinates":[138.029,36.0859]},{"code":"JA/NN-067","program":"sota","name":"Utsukushigahara (Ougatou)","coordinates":[138.1074,36.2258]},{"code":"JA/NN-075","program":"sota","name":"Hachibuseyama","coordinates":[138.0603,36.1616]},{"code":"JA/NN-076","program":"sota","name":"Kirigamine (Kurumayama)","coordinates":[138.1967,36.1029]},{"code":"JA/NN-080","program":"sota","name":"Mitsuminesan","coordinates":[138.1285,36.1662]},{"code":"JA/NN-089","program":"sota","name":"Washigamine","coordinates":[138.1544,36.1301]},{"code":"JA/NN-101","program":"sota","name":"Takamatsu","coordinates":[138.1937,36.1585]},{"code":"JA/NN-219","program":"sota","name":"Mushikurayama","coordinates":[138.2193,36.1514]}]}