{"lat":36,"lon":136.5,"programs":["pota","sota"],"count":11,"references":[{"code":"JP-1405","program":"pota","name":"Okuetsu Kogen Prefectural Nature Park","coordinates":[136.596,36.0035]},{"code":"JA/FI-001","program":"sota","name":"Akausagiyama","coordinates":[136.6619,36.0676]},{"code":"JA/FI-002","program":"sota","name":"Kyougadake","coordinates":[136.6219,36.0464]},{"code":"JA/FI-004","program":"sota","name":"Hachibuseyama","coordinates":[136.6374,36.0983]},{"code":"JA/GF-024","program":"sota","name":"Nobusegadake","coordinates":[136.7324,36.0129]},{"code":"JA/GF-026","program":"sota","name":"JA/GF-026","coordinates":[136.7354,36.0412]},{"code":"JA/IK-001","program":"sota","name":"Oochousan","coordinates":[136.6514,36.0905]},{"code":"JA/IK-002","program":"sota","name":"Shougasan","coordinates":[136.685,36.2205]},{"code":"JA/IK-003","program":"sota","name":"JA/IK-003","coordinates":[136.6863,36.2042]},{"code":"JA/IK-006","program":"sota","name":"Shirakiyama","coordinates":[136.5562,36.1778]},{"code":"JA/IK-025","program":"sota","name":"JA/IK-025","coordinates":[136.7326,36.1611]}]}