{"lat":36,"lon":-115.75,"programs":["sota"],"count":11,"references":[{"code":"W7N/CK-008","program":"sota","name":"Harris Mountain","coordinates":[-115.6115,36.2414]},{"code":"W7N/CK-019","program":"sota","name":"Wilson Ridge","coordinates":[-115.5545,36.1948]},{"code":"W7N/CK-028","program":"sota","name":"Tio Grande","coordinates":[-115.5405,36.1465]},{"code":"W7N/CK-029","program":"sota","name":"Cactus Flower Point","coordinates":[-115.5378,36.1128]},{"code":"W7N/CK-030","program":"sota","name":"Mount Alexander","coordinates":[-115.6141,36.1485]},{"code":"W7N/CK-034","program":"sota","name":"Oak Creek Overlook","coordinates":[-115.51,36.0961]},{"code":"W7N/CK-040","program":"sota","name":"Bridge Mountain","coordinates":[-115.5014,36.132]},{"code":"W7N/CK-047","program":"sota","name":"6830","coordinates":[-115.6454,36.1563]},{"code":"W7N/CK-051","program":"sota","name":"6601","coordinates":[-115.6713,36.1346]},{"code":"W7N/CK-054","program":"sota","name":"Misty Mountain","coordinates":[-115.5137,36.0107]},{"code":"W7N/CK-061","program":"sota","name":"Mesa Benchmark","coordinates":[-115.5712,36.0401]}]}