{"lat":36,"lon":127,"programs":["pota","sota"],"count":11,"references":[{"code":"KR-0079","program":"pota","name":"미륵사지\tIksan Mireuksaji National Historic Site","coordinates":[127.031,36.0123]},{"code":"HL/CN-060","program":"sota","name":"까치봉 (Kkachibong)","coordinates":[127.1803,36.0943]},{"code":"HL/CN-073","program":"sota","name":"구운산 (Guunsan)","coordinates":[127.2464,36.2303]},{"code":"HL/CN-079","program":"sota","name":"정토산 (Jeongtosan)","coordinates":[127.1522,36.1106]},{"code":"HL/JB-140","program":"sota","name":"천호산 (Cheonhosan)","coordinates":[127.1293,36.044]},{"code":"HL/JB-168","program":"sota","name":"미륵산 (Mireuksan)","coordinates":[127.0395,36.025]},{"code":"HL/JB-174","program":"sota","name":"옥녀봉 (Ongnyeobong)","coordinates":[127.1582,36.0835]},{"code":"HL/JB-179","program":"sota","name":"HL/JB-179","coordinates":[127.2429,36.0599]},{"code":"HL/JB-180","program":"sota","name":"성뫼산 (Seongmoesan)","coordinates":[127.1695,36.0105]},{"code":"HL/JB-183","program":"sota","name":"고성산 (Goseongsan)","coordinates":[127.2015,36.0433]},{"code":"HL/JB-192","program":"sota","name":"용리산 (Yongnisan)","coordinates":[127.0665,36.0223]}]}