{"lat":36.25,"lon":129,"programs":["pota","sota"],"count":20,"references":[{"code":"KR-0012","program":"pota","name":"주왕산국립공원 Mountain Park","coordinates":[129.208,36.4078]},{"code":"HL/GB-057","program":"sota","name":"태행산 (Taehaengsan)","coordinates":[129.1317,36.4553]},{"code":"HL/GB-062","program":"sota","name":"두수람 (Dusuram)","coordinates":[129.1732,36.4238]},{"code":"HL/GB-066","program":"sota","name":"왕거암 (Wanggeoam)","coordinates":[129.2082,36.4079]},{"code":"HL/GB-071","program":"sota","name":"대둔산 (Daedunsan)","coordinates":[129.1599,36.4533]},{"code":"HL/GB-123","program":"sota","name":"HL/GB-123","coordinates":[129.2235,36.2839]},{"code":"HL/GB-135","program":"sota","name":"자초산 (Jachosan)","coordinates":[129.0523,36.2625]},{"code":"HL/GB-145","program":"sota","name":"별바위봉 (Byeolbawibong)","coordinates":[129.2096,36.3606]},{"code":"HL/GB-154","program":"sota","name":"HL/GB-154","coordinates":[129.1345,36.3268]},{"code":"HL/GB-161","program":"sota","name":"무포산 (Muposan)","coordinates":[129.1719,36.3413]},{"code":"HL/GB-168","program":"sota","name":"중대산 (Jungdaesan)","coordinates":[129.0907,36.4639]},{"code":"HL/GB-195","program":"sota","name":"HL/GB-195","coordinates":[129.0746,36.4909]},{"code":"HL/GB-197","program":"sota","name":"HL/GB-197","coordinates":[129.1417,36.4776]},{"code":"HL/GB-200","program":"sota","name":"HL/GB-200","coordinates":[129.0946,36.2914]},{"code":"HL/GB-201","program":"sota","name":"HL/GB-201","coordinates":[129.1006,36.4747]},{"code":"HL/GB-203","program":"sota","name":"HL/GB-203","coordinates":[129.2473,36.4689]},{"code":"HL/GB-236","program":"sota","name":"HL/GB-236","coordinates":[129.2331,36.2518]},{"code":"HL/GB-283","program":"sota","name":"HL/GB-283","coordinates":[129.033,36.2624]},{"code":"HL/GB-303","program":"sota","name":"방광산 (Banggwangsan)","coordinates":[129.063,36.4462]},{"code":"HL/GB-312","program":"sota","name":"HL/GB-312","coordinates":[129.0926,36.4277]}]}