{"lat":36.25,"lon":-118.5,"programs":["sota"],"count":10,"references":[{"code":"W6/SN-031","program":"sota","name":"Kern Peak","coordinates":[-118.2878,36.3084]},{"code":"W6/SS-176","program":"sota","name":"Mount Anna Mills","coordinates":[-118.35,36.4745]},{"code":"W6/SS-182","program":"sota","name":"11896","coordinates":[-118.4672,36.3926]},{"code":"W6/SS-200","program":"sota","name":"11557","coordinates":[-118.3036,36.4546]},{"code":"W6/SS-210","program":"sota","name":"Johnson Peak","coordinates":[-118.3335,36.4198]},{"code":"W6/SS-231","program":"sota","name":"10900","coordinates":[-118.4564,36.3004]},{"code":"W6/SS-248","program":"sota","name":"Overlook Mountain","coordinates":[-118.3725,36.3343]},{"code":"W6/SS-597","program":"sota","name":"10755","coordinates":[-118.3093,36.3987]},{"code":"W6/SS-607","program":"sota","name":"9196","coordinates":[-118.3794,36.3014]},{"code":"W6/SS-612","program":"sota","name":"White Mountain","coordinates":[-118.4766,36.257]}]}