{"lat":36.25,"lon":140,"programs":["pota","sota"],"count":15,"references":[{"code":"JP-1113","program":"pota","name":"Wagakuni Atago Prefectural Nature Park","coordinates":[140.225,36.3047]},{"code":"JP-1124","program":"pota","name":"Kensei Sogo Prefectural Park","coordinates":[140.017,36.3052]},{"code":"JP-1131","program":"pota","name":"Mashiko Prefectural Nature Park","coordinates":[140.119,36.4661]},{"code":"JA/IB-004","program":"sota","name":"Kabasan","coordinates":[140.1435,36.2988]},{"code":"JA/IB-006","program":"sota","name":"Ashiosan","coordinates":[140.1477,36.2797]},{"code":"JA/IB-008","program":"sota","name":"Nandaisan","coordinates":[140.2223,36.3046]},{"code":"JA/IB-010","program":"sota","name":"Takamine","coordinates":[140.1654,36.4003]},{"code":"JA/IB-011","program":"sota","name":"Wagakunisan","coordinates":[140.2011,36.3219]},{"code":"JA/IB-015","program":"sota","name":"Keisokusan","coordinates":[140.2075,36.457]},{"code":"JA/IB-016","program":"sota","name":"Kunimiyama","coordinates":[140.227,36.4269]},{"code":"JA/IB-017","program":"sota","name":"Tomiyasan","coordinates":[140.1068,36.38851]},{"code":"JA/IB-018","program":"sota","name":"JA/IB-018","coordinates":[140.1803,36.368]},{"code":"JA/IB-023","program":"sota","name":"Kagadayama","coordinates":[140.2476,36.3241]},{"code":"JA/IB-025","program":"sota","name":"Daisyozan","coordinates":[140.0607,36.38]},{"code":"JA/TG-071","program":"sota","name":"Amamakisan","coordinates":[140.1428,36.4172]}]}