{"lat":36.25,"lon":-121,"programs":["sota"],"count":11,"references":[{"code":"W6/CC-029","program":"sota","name":"Laguna Mountain","coordinates":[-120.8094,36.3391]},{"code":"W6/SC-063","program":"sota","name":"Hepsedam Peak","coordinates":[-120.8246,36.3145]},{"code":"W6/SC-075","program":"sota","name":"Bucks Peak","coordinates":[-120.8203,36.4563]},{"code":"W6/SC-080","program":"sota","name":"Tucker Mountain","coordinates":[-120.7816,36.4133]},{"code":"W6/SC-084","program":"sota","name":"Rock Spring Peak","coordinates":[-120.9066,36.467]},{"code":"W6/SC-101","program":"sota","name":"Red Mountain","coordinates":[-120.8732,36.4091]},{"code":"W6/SC-108","program":"sota","name":"Black Mountain","coordinates":[-120.8559,36.3828]},{"code":"W6/SC-178","program":"sota","name":"Lookout Peak","coordinates":[-120.9215,36.4275]},{"code":"W6/SC-202","program":"sota","name":"2809","coordinates":[-120.9532,36.4469]},{"code":"W6/SC-231","program":"sota","name":"2496","coordinates":[-120.9818,36.3362]},{"code":"W6/SC-398","program":"sota","name":"Vasquez Rock","coordinates":[-120.8691,36.3266]}]}