{"lat":36.25,"lon":-119,"programs":["sota"],"count":10,"references":[{"code":"W6/SS-387","program":"sota","name":"Case Mountain","coordinates":[-118.803,36.4112]},{"code":"W6/SS-429","program":"sota","name":"Blue Ridge","coordinates":[-118.8396,36.2869]},{"code":"W6/SS-445","program":"sota","name":"Grouse Peak","coordinates":[-118.8193,36.3336]},{"code":"W6/SS-493","program":"sota","name":"Shepherd Peak","coordinates":[-118.8779,36.4914]},{"code":"W6/SS-498","program":"sota","name":"Greasy Benchmark","coordinates":[-118.983,36.4774]},{"code":"W6/SS-502","program":"sota","name":"Homer Benchmark","coordinates":[-118.95,36.4528]},{"code":"W6/SS-514","program":"sota","name":"2991","coordinates":[-118.9035,36.3794]},{"code":"W6/SS-519","program":"sota","name":"Potato Hill","coordinates":[-118.9443,36.3201]},{"code":"W6/SS-544","program":"sota","name":"2260","coordinates":[-118.9825,36.3788]},{"code":"W6/SS-654","program":"sota","name":"1452","coordinates":[-118.9725,36.2793]}]}