{"lat":36.25,"lon":-112.5,"programs":["sota"],"count":7,"references":[{"code":"W7A/CN-006","program":"sota","name":"Powell Plateau","coordinates":[-112.3726,36.3368]},{"code":"W7A/CN-015","program":"sota","name":"Steamboat Mountain","coordinates":[-112.3987,36.3658]},{"code":"W7A/CN-018","program":"sota","name":"King Arthur Castle","coordinates":[-112.2713,36.2644]},{"code":"W7A/CN-037","program":"sota","name":"Great Thumb Mesa","coordinates":[-112.4845,36.3419]},{"code":"W7A/CN-038","program":"sota","name":"Holy Grail Temple","coordinates":[-112.3046,36.2751]},{"code":"W7A/CN-110","program":"sota","name":"Cogswell Butte","coordinates":[-112.4857,36.393]},{"code":"W7A/CN-115","program":"sota","name":"Elaine Castle","coordinates":[-112.2846,36.3047]}]}