{"lat":36.25,"lon":-83.75,"programs":["sota"],"count":9,"references":[{"code":"W4T/RV-018","program":"sota","name":"2510","coordinates":[-83.6328,36.2567]},{"code":"W4T/RV-031","program":"sota","name":"Lone Mountain","coordinates":[-83.6256,36.3636]},{"code":"W4T/RV-036","program":"sota","name":"Henderson Knob","coordinates":[-83.5133,36.4788]},{"code":"W4T/RV-043","program":"sota","name":"Lone Mountain","coordinates":[-83.6821,36.3317]},{"code":"W4T/RV-046","program":"sota","name":"Log Mountain","coordinates":[-83.6863,36.2813]},{"code":"W4T/RV-048","program":"sota","name":"1910","coordinates":[-83.6354,36.3046]},{"code":"W4T/RV-064","program":"sota","name":"1830","coordinates":[-83.5547,36.3425]},{"code":"W4T/RV-071","program":"sota","name":"River Ridge","coordinates":[-83.5057,36.3897]},{"code":"W4T/RV-072","program":"sota","name":"Richland Knobs HP","coordinates":[-83.5149,36.2665]}]}