{"lat":36.25,"lon":128.25,"programs":["sota"],"count":14,"references":[{"code":"HL/GB-167","program":"sota","name":"청화산 (Cheonghwasan)","coordinates":[128.4025,36.2891]},{"code":"HL/GB-174","program":"sota","name":"냉산 (Naengsan)","coordinates":[128.4036,36.2596]},{"code":"HL/GB-253","program":"sota","name":"비봉산 (Bibongsan)","coordinates":[128.3607,36.489]},{"code":"HL/GB-289","program":"sota","name":"형제봉 (Hyeongjebong)","coordinates":[128.2763,36.2689]},{"code":"HL/GB-296","program":"sota","name":"국사봉 (Guksabong)","coordinates":[128.4982,36.4324]},{"code":"HL/GB-297","program":"sota","name":"옥녀봉 (Ongnyeobong)","coordinates":[128.2533,36.3028]},{"code":"HL/GB-313","program":"sota","name":"만경산 (Mangyeongsan)","coordinates":[128.3522,36.3503]},{"code":"HL/GB-330","program":"sota","name":"HL/GB-330","coordinates":[128.4267,36.4612]},{"code":"HL/GB-335","program":"sota","name":"문암산 (Munamsan)","coordinates":[128.4272,36.4425]},{"code":"HL/GB-338","program":"sota","name":"삼봉산 (Sambongsan)","coordinates":[128.2541,36.3609]},{"code":"HL/GB-355","program":"sota","name":"장자봉 (Jangjabong)","coordinates":[128.3673,36.3338]},{"code":"HL/GB-356","program":"sota","name":"건지봉 (Geonjibong)","coordinates":[128.2904,36.4615]},{"code":"HL/GB-387","program":"sota","name":"HL/GB-387","coordinates":[128.4349,36.3057]},{"code":"HL/GB-420","program":"sota","name":"토봉 (Tobong)","coordinates":[128.3291,36.3888]}]}