{"lat":36.25,"lon":127.5,"programs":["pota","sota"],"count":29,"references":[{"code":"KR-0134","program":"pota","name":"옥천선사공원\tOkcheon Prehistoric Remains National Historic Site","coordinates":[127.61,36.3157]},{"code":"HL/CB-084","program":"sota","name":"금적산 (Geumjeoksan)","coordinates":[127.7079,36.4065]},{"code":"HL/CB-111","program":"sota","name":"환산 (Hwansan)","coordinates":[127.5424,36.3607]},{"code":"HL/CB-117","program":"sota","name":"덕대산 (Deokdaesan)","coordinates":[127.6838,36.4176]},{"code":"HL/CB-126","program":"sota","name":"HL/CB-126","coordinates":[127.6276,36.4527]},{"code":"HL/CB-154","program":"sota","name":"막지봉 (Makjibong)","coordinates":[127.6124,36.3851]},{"code":"HL/CB-159","program":"sota","name":"탑산 (Tapsan)","coordinates":[127.6543,36.3146]},{"code":"HL/CB-161","program":"sota","name":"HL/CB-161","coordinates":[127.6406,36.441]},{"code":"HL/CB-169","program":"sota","name":"마성산 (Maseongsan)","coordinates":[127.5986,36.3276]},{"code":"HL/CB-170","program":"sota","name":"거멍산 (Geomeongsan)","coordinates":[127.6755,36.4375]},{"code":"HL/CB-181","program":"sota","name":"HL/CB-181","coordinates":[127.7085,36.3794]},{"code":"HL/CB-186","program":"sota","name":"HL/CB-186","coordinates":[127.7099,36.3498]},{"code":"HL/CB-190","program":"sota","name":"닭이치 (Dalgichi)","coordinates":[127.5369,36.2508]},{"code":"HL/CB-195","program":"sota","name":"HL/CB-195","coordinates":[127.5909,36.3968]},{"code":"HL/CB-199","program":"sota","name":"이슬봉 (Iseulbong)","coordinates":[127.611,36.3547]},{"code":"HL/CB-201","program":"sota","name":"가재봉 (Gajaebong)","coordinates":[127.6565,36.4231]},{"code":"HL/CB-203","program":"sota","name":"철봉산 (Cheolbongsan)","coordinates":[127.6632,36.2699]},{"code":"HL/CB-204","program":"sota","name":"국사봉 (Guksabong)","coordinates":[127.7449,36.281]},{"code":"HL/CB-206","program":"sota","name":"가운데날산 (Gaundenalsan)","coordinates":[127.7071,36.2866]},{"code":"HL/CB-210","program":"sota","name":"어깨산 (Eokkaesan)","coordinates":[127.6598,36.2913]},{"code":"HL/CB-222","program":"sota","name":"갓모봉 (Gatmobong)","coordinates":[127.7471,36.2652]},{"code":"HL/CB-225","program":"sota","name":"도덕봉 (Dodeokbong)","coordinates":[127.5985,36.2592]},{"code":"HL/CB-231","program":"sota","name":"둔주봉 (Dunjubong)","coordinates":[127.6577,36.3489]},{"code":"HL/CB-235","program":"sota","name":"HL/CB-235","coordinates":[127.6843,36.2993]},{"code":"HL/CB-238","program":"sota","name":"HL/CB-238","coordinates":[127.6511,36.3641]},{"code":"HL/CB-241","program":"sota","name":"HL/CB-241","coordinates":[127.5712,36.4087]},{"code":"HL/CB-243","program":"sota","name":"국사봉 (Guksabong)","coordinates":[127.5375,36.4209]},{"code":"HL/CB-244","program":"sota","name":"곰실봉 (Gomsilbong)","coordinates":[127.5032,36.4801]},{"code":"HL/CB-248","program":"sota","name":"HL/CB-248","coordinates":[127.5547,36.4194]}]}