{"lat":36.25,"lon":-105.25,"programs":["gma","sota"],"count":11,"references":[{"code":"XW5N/CM-011","program":"gma","name":"Bear Mountain","coordinates":[-105.09449768,36.46459961]},{"code":"XW5N/CM-015","program":"gma","name":"Lookout Peak","coordinates":[-105.08589935,36.38840103]},{"code":"W5N/CM-004","program":"sota","name":"Mount Phillips","coordinates":[-105.1594,36.4766]},{"code":"W5N/CM-008","program":"sota","name":"Agua Fria Peak","coordinates":[-105.2071,36.3601]},{"code":"W5N/CM-009","program":"sota","name":"Garcia Peak","coordinates":[-105.1848,36.445]},{"code":"W5N/CM-010","program":"sota","name":"Black Mountain","coordinates":[-105.0813,36.45]},{"code":"W5N/CM-012","program":"sota","name":"Ocate Mesa","coordinates":[-105.1913,36.2599]},{"code":"W5N/CM-013","program":"sota","name":"Trail Peak","coordinates":[-105.0674,36.4076]},{"code":"W5N/CM-014","program":"sota","name":"Burn Peak","coordinates":[-105.094,36.4001]},{"code":"W5N/CM-016","program":"sota","name":"Shaefers Peak","coordinates":[-105.0376,36.4504]},{"code":"W5N/CM-021","program":"sota","name":"8881","coordinates":[-105.0359,36.4332]}]}