{"lat":36.25,"lon":138.5,"programs":["pota","sota"],"count":24,"references":[{"code":"JP-1320","program":"pota","name":"Myogi Prefectural Park","coordinates":[138.74,36.2865]},{"code":"JP-1848","program":"pota","name":"Sakuranosato Forest Prefectural Park","coordinates":[138.744,36.2827]},{"code":"JP-1855","program":"pota","name":"Oneyama Bird Forest Prefectural Park","coordinates":[138.738,36.3524]},{"code":"JA/GM-024","program":"sota","name":"Asamakakushiyama","coordinates":[138.6525,36.4537]},{"code":"JA/GM-027","program":"sota","name":"Hanamagariyama","coordinates":[138.6452,36.4108]},{"code":"JA/GM-029","program":"sota","name":"Tomebuyama","coordinates":[138.652,36.3961]},{"code":"JA/GM-037","program":"sota","name":"Ryugadake","coordinates":[138.6819,36.4655]},{"code":"JA/GM-054","program":"sota","name":"Nikkureyama","coordinates":[138.6327,36.2845]},{"code":"JA/GM-055","program":"sota","name":"Atagoyama","coordinates":[138.6585,36.3003]},{"code":"JA/GM-056","program":"sota","name":"Ooyama","coordinates":[138.6576,36.2901]},{"code":"JA/GM-058","program":"sota","name":"Yakyusan","coordinates":[138.6989,36.304]},{"code":"JA/GM-064","program":"sota","name":"Myougisan (Soumadake)","coordinates":[138.7488,36.2986]},{"code":"JA/GM-066","program":"sota","name":"Midouyama","coordinates":[138.7311,36.2568]},{"code":"JA/GM-078","program":"sota","name":"Kennomine","coordinates":[138.6814,36.4157]},{"code":"JA/GM-079","program":"sota","name":"Tsunoochiyama","coordinates":[138.6882,36.4218]},{"code":"JA/GM-086","program":"sota","name":"Yagasakiyama","coordinates":[138.6504,36.3342]},{"code":"JA/GM-088","program":"sota","name":"Eboshiiwa","coordinates":[138.7149,36.3136]},{"code":"JA/GM-090","program":"sota","name":"Kondouzan","coordinates":[138.7383,36.2883]},{"code":"JA/GM-096","program":"sota","name":"Sankyusan","coordinates":[138.6969,36.3388]},{"code":"JA/GM-098","program":"sota","name":"Inamurayama","coordinates":[138.6778,36.3232]},{"code":"JA/NN-026","program":"sota","name":"Asamayama","coordinates":[138.523,36.4065]},{"code":"JA/NN-153","program":"sota","name":"Happuuzan","coordinates":[138.5974,36.2797]},{"code":"JA/NN-205","program":"sota","name":"Kengamine","coordinates":[138.5034,36.3929]},{"code":"JA/NN-232","program":"sota","name":"Hanareyama","coordinates":[138.6119,36.3538]}]}