{"lat":36.25,"lon":137.5,"programs":["gma","pota","sota"],"count":26,"references":[{"code":"XJA/NN-008","program":"gma","name":"Washibadake","coordinates":[137.6053,36.403]},{"code":"JP-0017","program":"pota","name":"Chubusangaku National Park","coordinates":[137.622,36.449]},{"code":"JA/GF-003","program":"sota","name":"Kasagatake","coordinates":[137.5504,36.3155]},{"code":"JA/GF-004","program":"sota","name":"Sugorokudake","coordinates":[137.587,36.3719]},{"code":"JA/GF-005","program":"sota","name":"Kurobegoroudake (Nakanomatadake)","coordinates":[137.54,36.3925]},{"code":"JA/GF-009","program":"sota","name":"Ookibanotsuji","coordinates":[137.5421,36.2726]},{"code":"JA/GF-208","program":"sota","name":"Momisawadake","coordinates":[137.6079,36.3666]},{"code":"JA/NN-001","program":"sota","name":"Okuhotakadake","coordinates":[137.648,36.2892]},{"code":"JA/NN-002","program":"sota","name":"Yarigatake","coordinates":[137.6476,36.342]},{"code":"JA/NN-003","program":"sota","name":"Kitahotakadake","coordinates":[137.652,36.3025]},{"code":"JA/NN-004","program":"sota","name":"Maehotakadake","coordinates":[137.6606,36.282]},{"code":"JA/NN-009","program":"sota","name":"Noguchigoroudake","coordinates":[137.6379,36.4327]},{"code":"JA/NN-010","program":"sota","name":"Otenshodake","coordinates":[137.7011,36.365]},{"code":"JA/NN-014","program":"sota","name":"Jyounendake","coordinates":[137.7276,36.3255]},{"code":"JA/NN-018","program":"sota","name":"Akaiwadake","coordinates":[137.6841,36.3433]},{"code":"JA/NN-019","program":"sota","name":"Tsubakurodake","coordinates":[137.7128,36.4068]},{"code":"JA/NN-021","program":"sota","name":"Chyougatake","coordinates":[137.7261,36.2874]},{"code":"JA/NN-023","program":"sota","name":"Gakidake","coordinates":[137.736,36.4473]},{"code":"JA/NN-027","program":"sota","name":"Byoubunoatama","coordinates":[137.6783,36.2993]},{"code":"JA/NN-028","program":"sota","name":"Ioudake","coordinates":[137.6506,36.3806]},{"code":"JA/NN-197","program":"sota","name":"Karasawadake","coordinates":[137.7167,36.4612]},{"code":"JA/NN-199","program":"sota","name":"Fudoudake","coordinates":[137.6675,36.4955]},{"code":"JA/NN-201","program":"sota","name":"Nakayama","coordinates":[137.7046,36.3253]},{"code":"JA/TY-003","program":"sota","name":"Suishoudake (Kurodake)","coordinates":[137.6028,36.4264]},{"code":"JA/TY-004","program":"sota","name":"Yakushidake","coordinates":[137.5448,36.4688]},{"code":"JA/TY-009","program":"sota","name":"Kitanomatadake (Kaminodake)","coordinates":[137.5122,36.421]}]}