{"lat":36.25,"lon":-94,"programs":["pota","sota"],"count":5,"references":[{"code":"US-1085","program":"pota","name":"Hobbs State Park","coordinates":[-93.9391,36.2851]},{"code":"US-7164","program":"pota","name":"Devil's Eyebrow State Natural Area","coordinates":[-93.923,36.483]},{"code":"US-7293","program":"pota","name":"Hobbs State Park Wildlife Management Area","coordinates":[-93.969,36.31]},{"code":"US-11353","program":"pota","name":"Kirk Dupps Beaver Lake Wildlife Management Area","coordinates":[-93.8448,36.4225]},{"code":"W5A/BR-012","program":"sota","name":"Whitney Mountain","coordinates":[-93.9169,36.4014]}]}