{"lat":36.25,"lon":-5.25,"programs":["pota","sota"],"count":8,"references":[{"code":"ES-0042","program":"pota","name":"Los Reales de Sierra Bermeja Nature and Landscape Complex","coordinates":[-5.19992,36.4911]},{"code":"ES-0639","program":"pota","name":"Rio de Castor Natura 2000","coordinates":[-5.1058,36.4624]},{"code":"ES-0643","program":"pota","name":"Rio Guadalmina Natura 2000","coordinates":[-5.0201,36.4983]},{"code":"ES-0646","program":"pota","name":"Rio Guadalmansa Natura 2000","coordinates":[-5.0793,36.4983]},{"code":"ES-0648","program":"pota","name":"Rio del Padron Natura 2000","coordinates":[-5.1258,36.4502]},{"code":"ES-0649","program":"pota","name":"Arroyo de La Cala Natura 2000","coordinates":[-5.1495,36.4604]},{"code":"ES-1932","program":"pota","name":"Puerta Verde De Estepona State Trail","coordinates":[-5.12891,36.4614]},{"code":"EA7/MA-008","program":"sota","name":"Reales","coordinates":[-5.2083,36.4844]}]}