{"lat":36.25,"lon":-81.25,"programs":["pota","sota"],"count":11,"references":[{"code":"US-2754","program":"pota","name":"Stone Mountain State Park","coordinates":[-81.0688,36.3993]},{"code":"US-6958","program":"pota","name":"Thurmond Chatham State Game Land","coordinates":[-81.2063,36.356]},{"code":"US-12414","program":"pota","name":"Doughton Recreation Park","coordinates":[-81.1544,36.4312]},{"code":"W4C/EM-040","program":"sota","name":"Catherine Knob","coordinates":[-81.216,36.4672]},{"code":"W4C/EM-054","program":"sota","name":"Bullhead Mountain","coordinates":[-81.067,36.4473]},{"code":"W4C/EM-056","program":"sota","name":"Little Grandfather Mountain","coordinates":[-81.2259,36.3765]},{"code":"W4C/EM-083","program":"sota","name":"Rich Mountain","coordinates":[-81.2008,36.3475]},{"code":"W4C/EM-088","program":"sota","name":"Bell Mountain","coordinates":[-81.161,36.3599]},{"code":"W4C/EM-090","program":"sota","name":"Chestnut Mountain","coordinates":[-81.1786,36.301]},{"code":"W4C/EM-094","program":"sota","name":"Carters Mountain","coordinates":[-81.1251,36.3354]},{"code":"W4C/EM-098","program":"sota","name":"Greenstreets Mountain","coordinates":[-81.077,36.3629]}]}