{"lat":36.25,"lon":-85.75,"programs":["pota"],"count":5,"references":[{"code":"US-2940","program":"pota","name":"Cummins Falls State Park","coordinates":[-85.5658,36.253]},{"code":"US-3962","program":"pota","name":"The Boils State Wildlife Area","coordinates":[-85.5735,36.3513]},{"code":"US-6277","program":"pota","name":"Washmorgan Hollow State Natural Area","coordinates":[-85.5432,36.3481]},{"code":"US-7574","program":"pota","name":"Blackburn Fork Wildlife Management Area","coordinates":[-85.5626,36.3173]},{"code":"US-7580","program":"pota","name":"Cordell Hull Wildlife Management Area","coordinates":[-85.6794,36.3608]}]}