{"lat":36.25,"lon":-120.75,"programs":["sota"],"count":9,"references":[{"code":"W6/CC-021","program":"sota","name":"San Benito Mountain","coordinates":[-120.6446,36.3697]},{"code":"W6/CC-022","program":"sota","name":"Santa Rita Peak","coordinates":[-120.6019,36.3468]},{"code":"W6/SC-047","program":"sota","name":"4850","coordinates":[-120.5957,36.3745]},{"code":"W6/SC-055","program":"sota","name":"The Picachos","coordinates":[-120.6947,36.3528]},{"code":"W6/SC-073","program":"sota","name":"Loma Atravesada","coordinates":[-120.5351,36.357]},{"code":"W6/SC-143","program":"sota","name":"Ciervo Mountain","coordinates":[-120.5799,36.4735]},{"code":"W6/SC-387","program":"sota","name":"Condon Peak","coordinates":[-120.6182,36.3171]},{"code":"W6/SC-396","program":"sota","name":"3970","coordinates":[-120.5601,36.3655]},{"code":"W6/SC-426","program":"sota","name":"2460","coordinates":[-120.5364,36.4292]}]}