{"lat":36.25,"lon":-114.75,"programs":["pota","sota"],"count":23,"references":[{"code":"US-2637","program":"pota","name":"Valley of Fire State Park","coordinates":[-114.514,36.4303]},{"code":"US-9271","program":"pota","name":"Muddy Mountains BLM Wilderness Area","coordinates":[-114.682,36.2891]},{"code":"US-13139","program":"pota","name":"Muddy Mountains BLM Herd Management Area","coordinates":[-114.728,36.4576]},{"code":"W7N/CK-089","program":"sota","name":"Muddy Mountains HP","coordinates":[-114.7142,36.2986]},{"code":"W7N/CK-092","program":"sota","name":"Muddy Peak","coordinates":[-114.6933,36.2984]},{"code":"W7N/CK-139","program":"sota","name":"White Basin Overlook","coordinates":[-114.6641,36.3627]},{"code":"W7N/CK-153","program":"sota","name":"4288","coordinates":[-114.5989,36.397]},{"code":"W7N/CK-157","program":"sota","name":"Colorock Summit","coordinates":[-114.7255,36.3474]},{"code":"W7N/CK-181","program":"sota","name":"Fire Benchmark","coordinates":[-114.5127,36.3632]},{"code":"W7N/CK-197","program":"sota","name":"Thin Peak","coordinates":[-114.5814,36.4159]},{"code":"W7N/CK-205","program":"sota","name":"3550","coordinates":[-114.6632,36.264]},{"code":"W7N/CK-208","program":"sota","name":"3537","coordinates":[-114.675,36.2507]},{"code":"W7N/CK-213","program":"sota","name":"3491","coordinates":[-114.6526,36.2714]},{"code":"W7N/CK-216","program":"sota","name":"Bitter Ridge","coordinates":[-114.6457,36.2893]},{"code":"W7N/CK-241","program":"sota","name":"West Longwell Ridge","coordinates":[-114.5322,36.3358]},{"code":"W7N/CK-252","program":"sota","name":"3035","coordinates":[-114.5818,36.3073]},{"code":"W7N/CK-257","program":"sota","name":"Echo Hills","coordinates":[-114.5102,36.251]},{"code":"W7N/CK-258","program":"sota","name":"3005","coordinates":[-114.5626,36.3063]},{"code":"W7N/CK-259","program":"sota","name":"Duane Peak","coordinates":[-114.5535,36.4564]},{"code":"W7N/CK-261","program":"sota","name":"Valley of Fire Summit","coordinates":[-114.531,36.4393]},{"code":"W7N/CK-288","program":"sota","name":"\"\"Midridge Peak\"\"","coordinates":[-114.6402,36.3967]},{"code":"W7N/CK-290","program":"sota","name":"3757","coordinates":[-114.5234,36.3843]},{"code":"W7N/CK-294","program":"sota","name":"3284","coordinates":[-114.6104,36.4965]}]}