{"lat":36.5,"lon":126.75,"programs":["pota","sota"],"count":12,"references":[{"code":"KR-0131","program":"pota","name":"예산산성공원\tYesansanseong National Historic Site","coordinates":[126.823,36.6922]},{"code":"KR-0219","program":"pota","name":"국립예산치유의숲\tYesan Healing National Forest","coordinates":[126.858,36.7007]},{"code":"KR-0914","program":"pota","name":"삽티공원\tSapti Neighborhood Provincial Park","coordinates":[126.857,36.6788]},{"code":"HL/CN-023","program":"sota","name":"금계산 (Geumgyesan)","coordinates":[126.99021,36.6263]},{"code":"HL/CN-032","program":"sota","name":"봉수산 (Bongsusan)","coordinates":[126.9683,36.6806]},{"code":"HL/CN-042","program":"sota","name":"국사봉 (Guksabong)","coordinates":[126.8941,36.5268]},{"code":"HL/CN-043","program":"sota","name":"봉수산 (Bongsusan)","coordinates":[126.7725,36.5939]},{"code":"HL/CN-044","program":"sota","name":"도고산 (Dogosan)","coordinates":[126.8946,36.7252]},{"code":"HL/CN-052","program":"sota","name":"법산 (Beopsan)","coordinates":[126.8248,36.5267]},{"code":"HL/CN-069","program":"sota","name":"용굴봉 (Yonggulbong)","coordinates":[126.8674,36.7039]},{"code":"HL/CN-088","program":"sota","name":"광덕산 (Gwangdeoksan)","coordinates":[126.9819,36.5439]},{"code":"HL/CN-098","program":"sota","name":"황산 (Hwangsan)","coordinates":[126.98,36.7364]}]}