{"lat":36.5,"lon":-115,"programs":["pota","sota"],"count":21,"references":[{"code":"US-9235","program":"pota","name":"Arrow Canyon BLM Wilderness Area","coordinates":[-114.86,36.6969]},{"code":"W7N/CK-102","program":"sota","name":"Arrow Canyon Range HP","coordinates":[-114.8873,36.6632]},{"code":"W7N/CK-103","program":"sota","name":"South Arrow Peak","coordinates":[-114.8816,36.6453]},{"code":"W7N/CK-111","program":"sota","name":"Broken Arrow Peak","coordinates":[-114.8784,36.7005]},{"code":"W7N/CK-122","program":"sota","name":"Question Mark Peak","coordinates":[-114.8707,36.6736]},{"code":"W7N/CK-135","program":"sota","name":"4819","coordinates":[-114.8579,36.6513]},{"code":"W7N/CK-136","program":"sota","name":"4650","coordinates":[-114.9531,36.6387]},{"code":"W7N/CK-158","program":"sota","name":"Center Benchmark","coordinates":[-114.9712,36.6814]},{"code":"W7N/CK-167","program":"sota","name":"Marble Mountain","coordinates":[-114.8912,36.5721]},{"code":"W7N/CK-172","program":"sota","name":"Landfill Peak","coordinates":[-114.8711,36.5689]},{"code":"W7N/CK-173","program":"sota","name":"Toy Train Peak","coordinates":[-114.9789,36.7015]},{"code":"W7N/CK-178","program":"sota","name":"Dry Benchmark","coordinates":[-114.925,36.5091]},{"code":"W7N/CK-188","program":"sota","name":"Birthday Peak","coordinates":[-114.8828,36.7489]},{"code":"W7N/CK-198","program":"sota","name":"Hand Peak","coordinates":[-114.9339,36.5932]},{"code":"W7N/CK-214","program":"sota","name":"Painted Prow","coordinates":[-114.9051,36.5504]},{"code":"W7N/CK-222","program":"sota","name":"3399","coordinates":[-114.8636,36.5466]},{"code":"W7N/CK-236","program":"sota","name":"Coburn Benchmark","coordinates":[-114.7691,36.6618]},{"code":"W7N/CK-287","program":"sota","name":"\"\"Pasture Mountain\"\"","coordinates":[-114.8753,36.6085]},{"code":"W7N/CK-291","program":"sota","name":"3667","coordinates":[-114.8189,36.67]},{"code":"W7N/CK-295","program":"sota","name":"\"\"Reale Peak\"\"","coordinates":[-114.7532,36.7154]},{"code":"W7N/CK-297","program":"sota","name":"\"\"Fossil Peak\"\"","coordinates":[-114.7661,36.736]}]}