{"lat":36.5,"lon":-93.25,"programs":["pota"],"count":5,"references":[{"code":"US-7189","program":"pota","name":"Beaver Creek State Recreation Area","coordinates":[-93.0442,36.6383]},{"code":"US-8254","program":"pota","name":"Mincy State Conservation Area","coordinates":[-93.1083,36.5521]},{"code":"US-10218","program":"pota","name":"The Lewis Family, Dean, Anna Mae and David D. Lewis State Conservation Area","coordinates":[-93.1717,36.7193]},{"code":"US-10392","program":"pota","name":"Boston Ferry State Conservation Area","coordinates":[-93.2008,36.6963]},{"code":"US-12350","program":"pota","name":"Cooper Creek Access State Conservation Area","coordinates":[-93.2453,36.6206]}]}