{"lat":36.5,"lon":116.75,"programs":["pota"],"count":8,"references":[{"code":"CN-0440","program":"pota","name":"山东济南济南森林公园 Ecological Park","coordinates":[116.936,36.6678]},{"code":"CN-0441","program":"pota","name":"山东济南美里湖湿地公园 Wetland Reserve","coordinates":[116.869,36.7303]},{"code":"CN-0523","program":"pota","name":"山东济南济南花圃公园 Regional Park","coordinates":[116.937,36.6533]},{"code":"CN-0524","program":"pota","name":"山东济南黄河森林公园 Forest Reserve","coordinates":[116.985,36.7284]},{"code":"CN-0526","program":"pota","name":"山东济南腊山公园 Mountain Park","coordinates":[116.9,36.6407]},{"code":"CN-0527","program":"pota","name":"山东济南济南国际园博园 Botanical Gardens","coordinates":[116.804,36.5378]},{"code":"CN-1283","program":"pota","name":"山东济西国家湿地公园 Wetland Reserve","coordinates":[116.788,36.6589]},{"code":"CN-1285","program":"pota","name":"山东齐河黄河水乡国家湿地公园 Wetland Reserve","coordinates":[116.788,36.6581]}]}