{"lat":36.5,"lon":-84,"programs":["pota","sota"],"count":16,"references":[{"code":"US-4689","program":"pota","name":"Kentucky Ridge State Forest","coordinates":[-83.8208,36.6811]},{"code":"W4K/EC-016","program":"sota","name":"3070","coordinates":[-83.802,36.6616]},{"code":"W4K/EC-022","program":"sota","name":"2710","coordinates":[-83.7831,36.6894]},{"code":"W4K/EC-042","program":"sota","name":"Knox County HP","coordinates":[-83.8651,36.7182]},{"code":"W4K/EC-057","program":"sota","name":"Bear Wallow Mountain","coordinates":[-83.9907,36.657]},{"code":"W4K/EC-079","program":"sota","name":"2090","coordinates":[-83.8292,36.7433]},{"code":"W4K/EC-104","program":"sota","name":"Lawson Mountain","coordinates":[-83.9432,36.688]},{"code":"W4K/EC-128","program":"sota","name":"Little Round Mountain","coordinates":[-83.918,36.6754]},{"code":"W4T/CA-016","program":"sota","name":"2690","coordinates":[-83.7508,36.5834]},{"code":"W4T/CA-030","program":"sota","name":"2310","coordinates":[-83.9864,36.5178]},{"code":"W4T/RV-008","program":"sota","name":"Bryson Mountain","coordinates":[-83.8352,36.5691]},{"code":"W4T/RV-010","program":"sota","name":"Bull Ridge","coordinates":[-83.8005,36.5623]},{"code":"W4T/RV-011","program":"sota","name":"Yellow Creek Ridge","coordinates":[-83.7706,36.577]},{"code":"W4T/RV-014","program":"sota","name":"Horseshoe Mountain","coordinates":[-83.8616,36.5383]},{"code":"W4T/RV-020","program":"sota","name":"Leach Mountain","coordinates":[-83.8907,36.515]},{"code":"W4T/RV-025","program":"sota","name":"King Mountain","coordinates":[-83.9579,36.5319]}]}