{"lat":36.5,"lon":136.75,"programs":["pota","sota"],"count":6,"references":[{"code":"JP-1387","program":"pota","name":"Iozen Prefectural Nature Park","coordinates":[136.8,36.5372]},{"code":"JP-2005","program":"pota","name":"Ishikawa Prefectural Forest","coordinates":[136.75,36.6891]},{"code":"JP-1373","program":"pota","name":"Iozen Prefectural Nature Park","coordinates":[136.814,36.5364]},{"code":"JA/TY-047","program":"sota","name":"Iouzen (Okuiouzen)","coordinates":[136.796,36.5128]},{"code":"JA/TY-054","program":"sota","name":"Matsuneyama","coordinates":[136.7835,36.6162]},{"code":"JA/TY-069","program":"sota","name":"Inabayama","coordinates":[136.8697,36.7064]}]}