{"lat":36.5,"lon":-5.25,"programs":["gma","pota","sota"],"count":19,"references":[{"code":"EC/MA-001","program":"gma","name":"Jarastepar","coordinates":[-5.18830013,36.66540146]},{"code":"ES-0633","program":"pota","name":"Sierras Bermeja y Real Natura 2000","coordinates":[-5.1041,36.553]},{"code":"ES-0638","program":"pota","name":"Valle del Rio del Genal National Park","coordinates":[-5.2411,36.5709]},{"code":"ES-0655","program":"pota","name":"Rio Guadalevin Natura 2000","coordinates":[-5.1959,36.749]},{"code":"EA7/MA-007","program":"sota","name":"Abanto","coordinates":[-5.0442,36.6443]},{"code":"EA7/MA-036","program":"sota","name":"La Hidalga","coordinates":[-5.0706,36.7232]},{"code":"EA7/MA-038","program":"sota","name":"Cerro Alcojada","coordinates":[-5.0497,36.6572]},{"code":"EA7/MA-039","program":"sota","name":"Encinetas","coordinates":[-5.0517,36.5864]},{"code":"EA7/MA-040","program":"sota","name":"Fuentezuela","coordinates":[-5.178,36.6669]},{"code":"EA7/MA-042","program":"sota","name":"Cancho de Almola","coordinates":[-5.1502,36.6738]},{"code":"EA7/MA-047","program":"sota","name":"Cerro del Duque","coordinates":[-5.0246,36.6276]},{"code":"EA7/MA-052","program":"sota","name":"Alto del Unicornio","coordinates":[-5.2426,36.6659]},{"code":"EA7/MA-055","program":"sota","name":"Nicola","coordinates":[-5.1637,36.5396]},{"code":"EA7/MA-056","program":"sota","name":"Cerro de los Conejillos","coordinates":[-5.2115,36.6854]},{"code":"EA7/MA-057","program":"sota","name":"Alto Porrejón","coordinates":[-5.1827,36.5188]},{"code":"EA7/MA-059","program":"sota","name":"Cerro del Canalizo","coordinates":[-5.1655,36.565]},{"code":"EA7/MA-062","program":"sota","name":"Jardón","coordinates":[-5.1613,36.5878]},{"code":"EA7/MA-065","program":"sota","name":"Cerro del Fraile","coordinates":[-5.2265,36.6625]},{"code":"EA7/MA-084","program":"sota","name":"Pico de la Umbría","coordinates":[-5.2108,36.5469]}]}