{"lat":36.5,"lon":138.5,"programs":["gma","pota","sota"],"count":13,"references":[{"code":"XJA/GM-052","program":"gma","name":"Oono","coordinates":[138.6752,36.5219]},{"code":"JP-0012","program":"pota","name":"Joshinetsu Kogen National Park","coordinates":[138.519,36.6919]},{"code":"JA/GM-007","program":"sota","name":"Shirasunayama","coordinates":[138.6935,36.7381]},{"code":"JA/GM-009","program":"sota","name":"Akaishiyama","coordinates":[138.5435,36.7038]},{"code":"JA/GM-015","program":"sota","name":"Mitsukabeyama","coordinates":[138.6208,36.719]},{"code":"JA/GM-031","program":"sota","name":"Matsuiwayama","coordinates":[138.6904,36.6384]},{"code":"JA/GM-042","program":"sota","name":"Takamayama","coordinates":[138.6815,36.5751]},{"code":"JA/GM-069","program":"sota","name":"Motoshiranesan","coordinates":[138.5317,36.6229]},{"code":"JA/GM-077","program":"sota","name":"Kanpou","coordinates":[138.6446,36.5152]},{"code":"JA/GM-091","program":"sota","name":"JA/GM-091","coordinates":[138.73,36.5444]},{"code":"JA/GM-107","program":"sota","name":"Takajyokki","coordinates":[138.6718,36.5228]},{"code":"JA/NN-045","program":"sota","name":"Yokoteyama","coordinates":[138.5259,36.6689]},{"code":"JA/NN-055","program":"sota","name":"Near Ootakayama","coordinates":[138.598,36.72]}]}