{"lat":36.5,"lon":-5.5,"programs":["pota","sota"],"count":25,"references":[{"code":"ES-0015","program":"pota","name":"Sierra de Grazalema Nature Park","coordinates":[-5.35241,36.705]},{"code":"ES-0652","program":"pota","name":"Rio Guadiaro Natura 2000","coordinates":[-5.3106,36.6309]},{"code":"EA7/CA-002","program":"sota","name":"Simancón","coordinates":[-5.382,36.7347]},{"code":"EA7/CA-003","program":"sota","name":"Navazo Alto","coordinates":[-5.4002,36.6983]},{"code":"EA7/CA-009","program":"sota","name":"Silla","coordinates":[-5.4941,36.6991]},{"code":"EA7/CA-018","program":"sota","name":"Picón de los Quejigos","coordinates":[-5.3561,36.6523]},{"code":"EA7/CA-020","program":"sota","name":"Majano de Aguilar","coordinates":[-5.4071,36.6805]},{"code":"EA7/CA-022","program":"sota","name":"Cerro de las Cuevas","coordinates":[-5.4375,36.7442]},{"code":"EA7/CA-023","program":"sota","name":"Casa de la Huerta de Castril","coordinates":[-5.4322,36.7041]},{"code":"EA7/CA-027","program":"sota","name":"Palmarejo","coordinates":[-5.4722,36.6925]},{"code":"EA7/CA-039","program":"sota","name":"Mulera","coordinates":[-5.4677,36.6623]},{"code":"EA7/MA-011","program":"sota","name":"Palo","coordinates":[-5.3074,36.6678]},{"code":"EA7/MA-015","program":"sota","name":"Ventana","coordinates":[-5.2739,36.7089]},{"code":"EA7/MA-024","program":"sota","name":"Poyato","coordinates":[-5.2844,36.5949]},{"code":"EA7/MA-028","program":"sota","name":"Gaucín, Hacho de","coordinates":[-5.3393,36.5197]},{"code":"EA7/MA-043","program":"sota","name":"Sierra de los Pinos","coordinates":[-5.3785,36.6321]},{"code":"EA7/MA-044","program":"sota","name":"Cerro de Martín Gil","coordinates":[-5.3215,36.653]},{"code":"EA7/MA-050","program":"sota","name":"Cumbre de Mojón Alto","coordinates":[-5.3122,36.6913]},{"code":"EA7/MA-061","program":"sota","name":"Cerro de Zurraque","coordinates":[-5.3202,36.7067]},{"code":"EA7/MA-063","program":"sota","name":"Los Frailecillos","coordinates":[-5.3036,36.7172]},{"code":"EA7/MA-068","program":"sota","name":"Cerro Hacho","coordinates":[-5.258,36.7396]},{"code":"EA7/MA-085","program":"sota","name":"El Castillo","coordinates":[-5.4313,36.5731]},{"code":"EA7/MA-090","program":"sota","name":"Peñón del Berrueco","coordinates":[-5.4259,36.6183]},{"code":"EA7/MA-095","program":"sota","name":"Panderón","coordinates":[-5.3542,36.5586]},{"code":"EA7/MA-112","program":"sota","name":"Las Maravillas","coordinates":[-5.3921,36.5211]}]}