{"lat":36.5,"lon":117,"programs":["pota"],"count":7,"references":[{"code":"CN-0165","program":"pota","name":"山东济南涵玉公园 Mountain Park","coordinates":[117.132,36.6469]},{"code":"CN-0167","program":"pota","name":"山东济南玉兰谷山体公园 Mountain Park","coordinates":[117.129,36.626]},{"code":"CN-0168","program":"pota","name":"山东济南历城华山湖公园 Park","coordinates":[117.064,36.7284]},{"code":"CN-0432","program":"pota","name":"山东济南马山坡景区 Mountain Park","coordinates":[117.116,36.6693]},{"code":"CN-0433","program":"pota","name":"山东济南大山坡公园 Mountain Park","coordinates":[117.135,36.6696]},{"code":"CN-0434","program":"pota","name":"山东济南牧牛山山体公园 Mountain Park","coordinates":[117.094,36.6414]},{"code":"CN-0525","program":"pota","name":"山东济南母亲河公园 Ecological Park","coordinates":[117.02,36.7224]}]}