{"lat":36.75,"lon":140.5,"programs":["pota","sota"],"count":8,"references":[{"code":"JP-1106","program":"pota","name":"Hanazono Hananuki Prefectural Nature Park","coordinates":[140.674,36.8487]},{"code":"JA/FS-132","program":"sota","name":"Near Asahiyama","coordinates":[140.5831,36.9614]},{"code":"JA/FS-168","program":"sota","name":"Atagoyama","coordinates":[140.7124,36.9549]},{"code":"JA/FS-170","program":"sota","name":"Takifuji","coordinates":[140.736,36.966]},{"code":"JA/FS-233","program":"sota","name":"Yakikura","coordinates":[140.6379,36.9857]},{"code":"JA/FS-240","program":"sota","name":"Near Butsuguyama","coordinates":[140.6792,36.9155]},{"code":"JA/FS-250","program":"sota","name":"Jinnoyama","coordinates":[140.7264,36.9814]},{"code":"JA/IB-002","program":"sota","name":"Eizoumuro","coordinates":[140.6031,36.8741]}]}