{"lat":36.75,"lon":-81.75,"programs":["pota","sota"],"count":13,"references":[{"code":"US-1303","program":"pota","name":"Hungry Mother State Park","coordinates":[-81.5265,36.8838]},{"code":"US-9968","program":"pota","name":"Buller State Fish Hatchery","coordinates":[-81.5396,36.759]},{"code":"W4V/AB-028","program":"sota","name":"2950","coordinates":[-81.745,36.8285]},{"code":"W4V/WV-030","program":"sota","name":"Rich Mountain","coordinates":[-81.5229,36.7766]},{"code":"W4V/WV-043","program":"sota","name":"Brushy Mountain","coordinates":[-81.6346,36.8483]},{"code":"W4V/WV-045","program":"sota","name":"Barton Mountain","coordinates":[-81.5291,36.752]},{"code":"W4V/WV-046","program":"sota","name":"Mollys Knob","coordinates":[-81.5099,36.884]},{"code":"W4V/WV-054","program":"sota","name":"2990","coordinates":[-81.7313,36.8339]},{"code":"W4V/WV-055","program":"sota","name":"Little Brushy Mountain","coordinates":[-81.6989,36.8468]},{"code":"W4V/WV-061","program":"sota","name":"Staley Knob","coordinates":[-81.5063,36.8213]},{"code":"W4V/WV-062","program":"sota","name":"2660","coordinates":[-81.7185,36.9191]},{"code":"W4V/WV-064","program":"sota","name":"Chestnut Ridge","coordinates":[-81.6641,36.8973]},{"code":"W4V/WV-065","program":"sota","name":"Marion 14 Benchmark","coordinates":[-81.6828,36.9327]}]}