{"lat":36.75,"lon":127.75,"programs":["pota","sota"],"count":25,"references":[{"code":"KR-0622","program":"pota","name":"호암지생태공원\tHoamji Provincial Ecological Park","coordinates":[127.927,36.9627]},{"code":"KR-0642","program":"pota","name":"성불산자연휴양림\tSeongbulsan Natural Recreation Forest Provincial Park","coordinates":[127.862,36.815]},{"code":"HL/CB-044","program":"sota","name":"박달산 (Bakdalsan)","coordinates":[127.9232,36.8366]},{"code":"HL/CB-051","program":"sota","name":"계명산 (Gyemyeongsan)","coordinates":[127.9769,36.9909]},{"code":"HL/CB-058","program":"sota","name":"보배산 (Bobaesan)","coordinates":[127.9111,36.7534]},{"code":"HL/CB-062","program":"sota","name":"HL/CB-062","coordinates":[127.9743,36.809]},{"code":"HL/CB-069","program":"sota","name":"적보산 (Jeokbosan)","coordinates":[127.9913,36.8661]},{"code":"HL/CB-093","program":"sota","name":"남산 (Namsan)","coordinates":[127.9753,36.9566]},{"code":"HL/CB-141","program":"sota","name":"발치봉 (Balchibong)","coordinates":[127.974,36.9275]},{"code":"HL/CB-147","program":"sota","name":"고양봉 (Goyangbong)","coordinates":[127.8438,36.911]},{"code":"HL/CB-152","program":"sota","name":"성불산 (Seongbulsan)","coordinates":[127.8619,36.815]},{"code":"HL/CB-160","program":"sota","name":"HL/CB-160","coordinates":[127.9063,36.8008]},{"code":"HL/CB-168","program":"sota","name":"옥답산 (Okdapsan)","coordinates":[127.92,36.8815]},{"code":"HL/CB-172","program":"sota","name":"대림산 (Daerimsan)","coordinates":[127.9452,36.9374]},{"code":"HL/CB-179","program":"sota","name":"두룽봉 (Durungbong)","coordinates":[127.9343,36.907]},{"code":"HL/CB-187","program":"sota","name":"갑산 (Gapsan)","coordinates":[127.7522,36.8746]},{"code":"HL/CB-189","program":"sota","name":"주월산 (Juwolsan)","coordinates":[127.9104,36.8522]},{"code":"HL/CB-192","program":"sota","name":"HL/CB-192","coordinates":[127.9654,36.7678]},{"code":"HL/CB-196","program":"sota","name":"HL/CB-196","coordinates":[127.8416,36.9284]},{"code":"HL/CB-198","program":"sota","name":"HL/CB-198","coordinates":[127.9849,36.7768]},{"code":"HL/CB-202","program":"sota","name":"HL/CB-202","coordinates":[127.7853,36.8798]},{"code":"HL/CB-211","program":"sota","name":"HL/CB-211","coordinates":[127.8465,36.8015]},{"code":"HL/CB-218","program":"sota","name":"두루봉 (Durubong)","coordinates":[127.8991,36.9139]},{"code":"HL/CB-245","program":"sota","name":"HL/CB-245","coordinates":[127.7655,36.9459]},{"code":"HL/CB-249","program":"sota","name":"HL/CB-249","coordinates":[127.8588,36.9908]}]}