{"lat":36.75,"lon":14.5,"programs":["gma","pota","wwbota"],"count":7,"references":[{"code":"IT/SI-1003","program":"gma","name":"Monte Raci","coordinates":[14.67080021,36.97470093]},{"code":"IT/SI-1004","program":"gma","name":"Monte Racello","coordinates":[14.66279984,36.97169876]},{"code":"IT-0259","program":"pota","name":"Vallata del Fiume Ippari (Pineta di Vittoria) Natura 2000","coordinates":[14.5068,36.9013]},{"code":"IT-0390","program":"pota","name":"Foce del Fiume Irminio Natura 2000","coordinates":[14.5958,36.7783]},{"code":"IT-1128","program":"pota","name":"Conca del Salto Natura 2000","coordinates":[14.7341,36.8187]},{"code":"B/IT-0054","program":"wwbota","name":"Bunker (Sicilia)","coordinates":[14.681,36.80011]},{"code":"B/IT-0055","program":"wwbota","name":"Bunker (Camemi / Sicilia)","coordinates":[14.57943,36.81965]}]}