{"lat":36.75,"lon":14.75,"programs":["pota","wwbota"],"count":8,"references":[{"code":"IT-1134","program":"pota","name":"Cava d'Ispica Natura 2000","coordinates":[14.8761,36.8105]},{"code":"IT-1203","program":"pota","name":"Alto corso del Fiume Irmino Natura 2000","coordinates":[14.7821,36.9757]},{"code":"IT-1928","program":"pota","name":"Cava Palombieri Natura 2000","coordinates":[14.8992,36.8683]},{"code":"IT-1929","program":"pota","name":"Torrente Prainito Natura 2000","coordinates":[14.921,36.8788]},{"code":"IT-1931","program":"pota","name":"Fiume Tellesimo Natura 2000","coordinates":[14.8759,36.9376]},{"code":"B/IT-0052","program":"wwbota","name":"Bunker (Sicilia)","coordinates":[14.92241,36.78795]},{"code":"B/IT-0053","program":"wwbota","name":"Bunker (Sicilia)","coordinates":[14.83286,36.75742]},{"code":"B/IT-0293","program":"wwbota","name":"Bunker - Postazione Contraerea Knickebein 13 in Noto - Sicilia (SR)","coordinates":[14.9787693,36.9309093]}]}