{"lat":36.75,"lon":-3,"programs":["pota","sota"],"count":18,"references":[{"code":"ES-0528","program":"pota","name":"Albufera de Adra Natura 2000","coordinates":[-2.9515,36.7532]},{"code":"ES-0534","program":"pota","name":"Sierras de Gador y enix Natura 2000","coordinates":[-2.8266,36.9025]},{"code":"ES-0538","program":"pota","name":"Artos de El Ejido Natura 2000","coordinates":[-2.7955,36.7546]},{"code":"ES-0539","program":"pota","name":"Castala Nature Recreation Area","coordinates":[-2.92394,36.8849]},{"code":"ES-0542","program":"pota","name":"Rio Adra Natura 2000","coordinates":[-2.991,36.7624]},{"code":"ES-1493","program":"pota","name":"Balsa del Sabinar Wetland Reserve","coordinates":[-2.8595,36.8825]},{"code":"ES-1494","program":"pota","name":"Albufera Honda Wetland Reserve","coordinates":[-2.9516,36.7562]},{"code":"ES-1495","program":"pota","name":"Albufera Nueva Wetland Reserve","coordinates":[-2.9476,36.7527]},{"code":"ES-1498","program":"pota","name":"Balsa de Barjali Wetland Reserve","coordinates":[-2.7979,36.919]},{"code":"ES-1499","program":"pota","name":"Balsa de Caparidan Wetland Reserve","coordinates":[-2.834,36.8854]},{"code":"ES-1502","program":"pota","name":"Balson de las Hoyuelas Wetland Reserve","coordinates":[-2.8148,36.8781]},{"code":"ES-1503","program":"pota","name":"Balsa de Barroso Wetland Reserve","coordinates":[-2.7878,36.9414]},{"code":"EA7/AL-002","program":"sota","name":"Morrón de la Lagunilla","coordinates":[-2.8271,36.903]},{"code":"EA7/AL-067","program":"sota","name":"Alberquilla","coordinates":[-2.8993,36.8009]},{"code":"EA7/AL-073","program":"sota","name":"Las Cañadillas","coordinates":[-2.9998,36.8659]},{"code":"EA7/AL-074","program":"sota","name":"La Pendencia","coordinates":[-2.9439,36.8056]},{"code":"EA7/AL-076","program":"sota","name":"Pingorucho","coordinates":[-2.9741,36.8736]},{"code":"EA7/AL-079","program":"sota","name":"El Capillo","coordinates":[-2.971,36.8031]}]}