{"lat":36.75,"lon":-82.25,"programs":["pota","sota"],"count":14,"references":[{"code":"US-7790","program":"pota","name":"Cleveland Barrens State Natural Area","coordinates":[-82.1546,36.9408]},{"code":"US-7801","program":"pota","name":"Pinnacle State Natural Area","coordinates":[-82.0552,36.9533]},{"code":"W4V/AB-007","program":"sota","name":"Brumley Mountain","coordinates":[-82.0417,36.8367]},{"code":"W4V/AB-022","program":"sota","name":"Carterton 18 Benchmark","coordinates":[-82.1041,36.7986]},{"code":"W4V/AB-023","program":"sota","name":"Little Rock","coordinates":[-82.0038,36.9432]},{"code":"W4V/AB-040","program":"sota","name":"Copper Benchmark","coordinates":[-82.1267,36.9225]},{"code":"W4V/AB-041","program":"sota","name":"Buffalo Mountain","coordinates":[-82.1289,36.9977]},{"code":"W4V/AB-046","program":"sota","name":"Chestnut Ridge","coordinates":[-82.0087,36.9872]},{"code":"W4V/AB-047","program":"sota","name":"2540","coordinates":[-82.0508,36.7931]},{"code":"W4V/AB-048","program":"sota","name":"MLB 1385 Benchmark","coordinates":[-82.0153,36.9074]},{"code":"W4V/AB-058","program":"sota","name":"2260","coordinates":[-82.139,36.9644]},{"code":"W4V/AB-064","program":"sota","name":"River Ridge","coordinates":[-82.1404,36.764]},{"code":"W4V/AB-066","program":"sota","name":"2090","coordinates":[-82.0895,36.7796]},{"code":"W4V/AB-067","program":"sota","name":"2060","coordinates":[-82.1921,36.7511]}]}