{"lat":36.75,"lon":-117,"programs":["gma","pota","sota"],"count":19,"references":[{"code":"K6/ND-001","program":"gma","name":"CA/NV Boundary Monument 93","coordinates":[-116.91519928,36.78279877]},{"code":"US-0021","program":"pota","name":"Death Valley National Park","coordinates":[-116.906,36.8114]},{"code":"US-13118","program":"pota","name":"Bullfrog BLM Herd Management Area","coordinates":[-116.757,36.8563]},{"code":"US-13177","program":"pota","name":"Rhyolite Historic Area-Nevada BLM Historic Area","coordinates":[-116.826,36.8903]},{"code":"W6/ND-115","program":"sota","name":"6136","coordinates":[-116.992,36.8039]},{"code":"W6/ND-120","program":"sota","name":"6056","coordinates":[-116.9694,36.8027]},{"code":"W6/ND-151","program":"sota","name":"Daylight Peak","coordinates":[-116.9453,36.7856]},{"code":"W6/ND-190","program":"sota","name":"5020","coordinates":[-116.909,36.7591]},{"code":"W7N/NS-168","program":"sota","name":"6100","coordinates":[-116.9537,36.9468]},{"code":"W7N/NS-175","program":"sota","name":"Sawtooth Mountain","coordinates":[-116.8494,36.9367]},{"code":"W7N/NS-182","program":"sota","name":"5620","coordinates":[-116.8297,36.9614]},{"code":"W7N/NS-184","program":"sota","name":"Gold Bar Mountain","coordinates":[-116.8983,36.938]},{"code":"W7N/NS-196","program":"sota","name":"CA/NV Boundary Monument 93","coordinates":[-116.9152,36.7828]},{"code":"W7N/NS-197","program":"sota","name":"Prospect Peak","coordinates":[-116.929,36.811]},{"code":"W7N/NS-205","program":"sota","name":"Bullfrog Mountain","coordinates":[-116.8821,36.9086]},{"code":"W7N/NS-206","program":"sota","name":"4900","coordinates":[-116.7829,36.9489]},{"code":"W7N/NS-209","program":"sota","name":"Sharp Benchmark","coordinates":[-116.9063,36.8857]},{"code":"W7N/NS-213","program":"sota","name":"4660","coordinates":[-116.7655,36.9971]},{"code":"W7N/NS-217","program":"sota","name":"Burton Mountain","coordinates":[-116.7885,36.918]}]}