{"lat":36.75,"lon":-4.25,"programs":["gma","pota","sota"],"count":18,"references":[{"code":"EC/GR-002","program":"gma","name":"La Torca","coordinates":[-4.19280005,36.9455986]},{"code":"ES-0023","program":"pota","name":"Sierras de Tejeda Almijara y Alhama Natura 2000","coordinates":[-4.05632,36.9029]},{"code":"ES-1556","program":"pota","name":"Laguna del Rico Wetland Reserve","coordinates":[-4.1206,36.9831]},{"code":"ES-1557","program":"pota","name":"Laguna del Concejo Wetland Reserve","coordinates":[-4.1293,36.9789]},{"code":"ES-1559","program":"pota","name":"Nacimientos del Parrica Wetland Reserve","coordinates":[-4.0202,36.9486]},{"code":"ES-1578","program":"pota","name":"Pantaneta del Barranco de la cueva de Funes Wetland Reserve","coordinates":[-4.0501,36.8643]},{"code":"EA7/GR-014","program":"sota","name":"Maroma","coordinates":[-4.0387,36.9042]},{"code":"EA7/GR-105","program":"sota","name":"Torrecilla","coordinates":[-4.0802,36.9762]},{"code":"EA7/MA-006","program":"sota","name":"La Torca","coordinates":[-4.1927,36.9793]},{"code":"EA7/MA-010","program":"sota","name":"Vilo","coordinates":[-4.2315,36.9667]},{"code":"EA7/MA-045","program":"sota","name":"Hoyo del Toro","coordinates":[-4.1451,36.9529]},{"code":"EA7/MA-053","program":"sota","name":"Pico del Puerto","coordinates":[-4.1112,36.9496]},{"code":"EA7/MA-098","program":"sota","name":"Comares","coordinates":[-4.2494,36.8482]},{"code":"EA7/MA-099","program":"sota","name":"Alcolea","coordinates":[-4.2378,36.9281]},{"code":"EA7/MA-103","program":"sota","name":"Benthomiz","coordinates":[-4.0438,36.8043]},{"code":"EA7/MA-104","program":"sota","name":"Veas","coordinates":[-4.0737,36.817]},{"code":"EA7/MA-109","program":"sota","name":"Rábita de Sayalonga","coordinates":[-4.0067,36.7914]},{"code":"EA7/MA-115","program":"sota","name":"Cerro Agudo","coordinates":[-4.184,36.8558]}]}