{"lat":36.75,"lon":127,"programs":["pota","sota"],"count":20,"references":[{"code":"KR-0158","program":"pota","name":"현충사\tHyeonchungsa National Historic Site","coordinates":[127.031,36.8058]},{"code":"KR-0268","program":"pota","name":"망향의동산\tNational Manghyang Cemetery National Memorial","coordinates":[127.188,36.8507]},{"code":"KR-0397","program":"pota","name":"태조산공원\tTaejoasn Mountain Provincial Park","coordinates":[127.189,36.8221]},{"code":"KR-0705","program":"pota","name":"아산문화공원\tAsan Culture Provincial Recreation Park","coordinates":[127.002,36.794]},{"code":"KR-0846","program":"pota","name":"둔포중앙공원\tDunpo Central Neighborhood Provincial Park","coordinates":[127.059,36.9195]},{"code":"KR-0972","program":"pota","name":"아름드리공원\tAreumdeuli Neighborhood Provincial Park","coordinates":[127.104,36.8181]},{"code":"KR-1011","program":"pota","name":"용곡공원\tYonggok Neighborhood Provincial Park","coordinates":[127.093,36.7966]},{"code":"KR-1079","program":"pota","name":"지산공원\tJisan Neighborhood Provincial Park","coordinates":[127.095,36.7892]},{"code":"KR-1084","program":"pota","name":"천안삼거리공원\tCheonan Samgeori Neighborhood Provincial Park","coordinates":[127.168,36.7842]},{"code":"KR-1087","program":"pota","name":"천호지공원\tCheonhoji Neighborhood Provincial Park","coordinates":[127.167,36.8328]},{"code":"KR-1162","program":"pota","name":"성정공원 Seongjeong Provincial Park","coordinates":[127.139,36.8297]},{"code":"KR-1172","program":"pota","name":"성성호수공원 Seongseong Lake Waterside Ecological Park","coordinates":[127.136,36.8472]},{"code":"KR-0334","program":"pota","name":"덕동산근린공원\tDeokdongsan Mountain Provincial Park","coordinates":[127.1,36.9977]},{"code":"KR-0797","program":"pota","name":"내리문화공원\tNaeri Neighborhood Provincial Park","coordinates":[127.033,36.9753]},{"code":"HL/CN-025","program":"sota","name":"성거산 (Seonggeosan)","coordinates":[127.2267,36.8506]},{"code":"HL/CN-037","program":"sota","name":"흑성산 (Heukseongsan)","coordinates":[127.208,36.7966]},{"code":"HL/CN-047","program":"sota","name":"서금재봉 (Seogeumjaebong)","coordinates":[127.2437,36.8234]},{"code":"HL/CN-084","program":"sota","name":"배방산 (Baebangsan)","coordinates":[127.0549,36.7507]},{"code":"HL/CN-119","program":"sota","name":"연암산 (Yeonamsan)","coordinates":[127.0575,36.8608]},{"code":"HL/CN-123","program":"sota","name":"수한산 (Suhansan)","coordinates":[127.0328,36.8372]}]}