{"lat":36.75,"lon":139.75,"programs":["pota","sota"],"count":12,"references":[{"code":"JP-1140","program":"pota","name":"Nasunogahara Prefectural Park","coordinates":[139.949,36.9323]},{"code":"JP-1859","program":"pota","name":"Tochigi Prefectual Forest Prefectural Park","coordinates":[139.841,36.8739]},{"code":"JA/TG-019","program":"sota","name":"Takaharayama (Shakagadake)","coordinates":[139.7767,36.9]},{"code":"JA/TG-021","program":"sota","name":"JA/TG-021","coordinates":[139.7876,36.9274]},{"code":"JA/TG-031","program":"sota","name":"Yatarouyama","coordinates":[139.8321,36.995]},{"code":"JA/TG-042","program":"sota","name":"Ooami","coordinates":[139.8553,36.9829]},{"code":"JA/TG-054","program":"sota","name":"Kamiterashima","coordinates":[139.7934,36.8393]},{"code":"JA/TG-062","program":"sota","name":"Niwatoridake","coordinates":[139.7637,36.798]},{"code":"JA/TG-066","program":"sota","name":"Near Matsutake","coordinates":[139.824,36.7897]},{"code":"JA/TG-075","program":"sota","name":"Sekisonsan","coordinates":[139.8362,36.7564]},{"code":"JA/TG-096","program":"sota","name":"Fujiyama","coordinates":[139.7886,36.9533]},{"code":"JA/TG-101","program":"sota","name":"Kasamatsu","coordinates":[139.7564,36.8469]}]}