{"lat":36.75,"lon":140.25,"programs":["pota","sota"],"count":10,"references":[{"code":"JP-1091","program":"pota","name":"Okukuji Prefectural Nature Park","coordinates":[140.28,36.9379]},{"code":"JP-1109","program":"pota","name":"Okukuji Prefectural Nature Park","coordinates":[140.263,36.9269]},{"code":"JP-1121","program":"pota","name":"Daigo Koiki Prefectural Park","coordinates":[140.35,36.7915]},{"code":"JP-1949","program":"pota","name":"Ibaraki Prefectural Okukuji Forest Prefectural Park","coordinates":[140.462,36.7649]},{"code":"JA/FS-098","program":"sota","name":"Takazasayama","coordinates":[140.3176,36.9133]},{"code":"JA/FS-115","program":"sota","name":"Oosasayama","coordinates":[140.3413,36.9469]},{"code":"JA/FS-165","program":"sota","name":"Hinokiyama(Hiyama)","coordinates":[140.4047,36.8385]},{"code":"JA/FS-244","program":"sota","name":"Amidayama","coordinates":[140.3528,36.9991]},{"code":"JA/FS-247","program":"sota","name":"Tendoutsuka","coordinates":[140.3906,36.8553]},{"code":"JA/IB-001","program":"sota","name":"Yamizosan","coordinates":[140.2728,36.9302]}]}