{"lat":36.75,"lon":137,"programs":["pota","sota"],"count":8,"references":[{"code":"JP-1381","program":"pota","name":"Shinko no Mori Prefectural Park","coordinates":[137.09,36.7689]},{"code":"JP-2063","program":"pota","name":"Rinkai Bird Prefectural Park","coordinates":[137.105,36.7823]},{"code":"JP-2064","program":"pota","name":"Minami Suiro Ryokuchi Prefectural Park","coordinates":[137.113,36.7631]},{"code":"JP-2065","program":"pota","name":"lumberyard Ryokuchi Prefectural Park","coordinates":[137.097,36.7702]},{"code":"JP-2066","program":"pota","name":"Kaikou monument Ryokuchi Prefectural Park","coordinates":[137.113,36.7749]},{"code":"JP-2067","program":"pota","name":"Genki no mori Prefectural Park","coordinates":[137.128,36.776]},{"code":"JP-2076","program":"pota","name":"Kaiwomaru Prefectural Park","coordinates":[137.108,36.78]},{"code":"JA/TY-055","program":"sota","name":"Futagamiyama","coordinates":[137.0153,36.79]}]}