{"lat":36.75,"lon":22.25,"programs":["pota","sota"],"count":12,"references":[{"code":"GR-0149","program":"pota","name":"Oros Taygetos Lagkada Trypis Natura 2000","coordinates":[22.3504,36.953]},{"code":"SV/PL-001","program":"sota","name":"Pr. Ilias","coordinates":[22.35,36.95361]},{"code":"SV/PL-002","program":"sota","name":"Mavrovuna","coordinates":[22.332222,36.8975]},{"code":"SV/PL-003","program":"sota","name":"Kastro","coordinates":[22.300278,36.878887]},{"code":"SV/PL-028","program":"sota","name":"Xalasmeno","coordinates":[22.321945,36.956944]},{"code":"SV/PL-152","program":"sota","name":"Taxiarhis","coordinates":[22.317223,36.904167]},{"code":"SV/PL-153","program":"sota","name":"Kakovuni","coordinates":[22.376944,36.762222]},{"code":"SV/PL-170","program":"sota","name":"Kotroni","coordinates":[22.362999,36.787018]},{"code":"SV/PL-171","program":"sota","name":"Zizali","coordinates":[22.396843,36.79484]},{"code":"SV/PL-172","program":"sota","name":"Kampinari","coordinates":[22.425808,36.765087]},{"code":"SV/PL-173","program":"sota","name":"Loutsa","coordinates":[22.4446,36.789303]},{"code":"SV/PL-184","program":"sota","name":"Annina","coordinates":[22.377089,36.894753]}]}