{"lat":36.75,"lon":126.25,"programs":["pota","sota"],"count":11,"references":[{"code":"KR-0528","program":"pota","name":"서산중앙호수공원\tSeosan Central Lake Provincial Ecological Park","coordinates":[126.45,36.7771]},{"code":"KR-0839","program":"pota","name":"동문근린공원\tDongmun Neighborhood Provincial Park","coordinates":[126.468,36.7801]},{"code":"KR-0938","program":"pota","name":"성연테크노근린공원(1/2/3)\tSeong-yeontekeuno Neighborhood Provincial Park","coordinates":[126.452,36.8253]},{"code":"KR-1004","program":"pota","name":"옥녀봉공원(서산)\tOngnyeobong Neighborhood Provincial Park","coordinates":[126.452,36.7897]},{"code":"KR-1023","program":"pota","name":"울음산공원\tUreumsan Neighborhood Provincial Park","coordinates":[126.446,36.7837]},{"code":"KR-1170","program":"pota","name":"잠홍저수지수변공원 Jamhong Reservoir Waterside Ecological Park","coordinates":[126.492,36.7938]},{"code":"HL/CN-082","program":"sota","name":"팔봉산 (Palbongsan)","coordinates":[126.3716,36.8092]},{"code":"HL/CN-111","program":"sota","name":"금강산 (Geumgangsan)","coordinates":[126.3952,36.7967]},{"code":"HL/CN-116","program":"sota","name":"망일산 (Mangilsan)","coordinates":[126.4499,36.9382]},{"code":"HL/CN-122","program":"sota","name":"백화산 (Baekhwasan)","coordinates":[126.3009,36.7681]},{"code":"HL/CN-129","program":"sota","name":"성왕산 (Seongwangsan)","coordinates":[126.4713,36.8118]}]}