{"lat":36.75,"lon":-111.25,"programs":["sota"],"count":17,"references":[{"code":"W7A/CN-039","program":"sota","name":"Octagon Butte","coordinates":[-111.0002,36.9249]},{"code":"W7A/CN-052","program":"sota","name":"Cummings Mesa","coordinates":[-111.0143,36.9469]},{"code":"W7A/CN-057","program":"sota","name":"Tse Esgizii","coordinates":[-111.1018,36.8076]},{"code":"W7A/CN-076","program":"sota","name":"Adah Hiilini South","coordinates":[-111.1315,36.9598]},{"code":"W7A/CN-079","program":"sota","name":"Tse Binjoobaahi","coordinates":[-111.2342,36.9174]},{"code":"W7A/CN-082","program":"sota","name":"5641","coordinates":[-111.2294,36.9353]},{"code":"W7A/CN-083","program":"sota","name":"5620","coordinates":[-111.1373,36.9675]},{"code":"W7A/CN-084","program":"sota","name":"High Point Rock","coordinates":[-111.0246,36.8639]},{"code":"W7A/CN-086","program":"sota","name":"Adeiyi Taah Hooti","coordinates":[-111.169,36.9533]},{"code":"W7A/CN-089","program":"sota","name":"5462","coordinates":[-111.2119,36.9257]},{"code":"W7A/CN-090","program":"sota","name":"5459","coordinates":[-111.1441,36.976]},{"code":"W7A/CN-096","program":"sota","name":"5417","coordinates":[-111.1683,36.9465]},{"code":"W7A/CN-099","program":"sota","name":"Adah Hiilini North","coordinates":[-111.157,36.9923]},{"code":"W7A/CN-103","program":"sota","name":"5246","coordinates":[-111.1928,36.988]},{"code":"W7A/CN-104","program":"sota","name":"5206","coordinates":[-111.1852,36.9781]},{"code":"W7A/CN-122","program":"sota","name":"Honishoosh Atiin","coordinates":[-111.0529,36.8969]},{"code":"W7A/CN-124","program":"sota","name":"5721","coordinates":[-111.0821,36.9136]}]}