{"lat":36.75,"lon":137.5,"programs":["pota","sota"],"count":12,"references":[{"code":"JP-1359","program":"pota","name":"Oyashirazu Koshirazu Prefectural Nature Park","coordinates":[137.694,36.9921]},{"code":"JP-1369","program":"pota","name":"Asahi Prefectural Nature Park","coordinates":[137.675,36.8561]},{"code":"JP-1374","program":"pota","name":"Sogatake Prefectural Nature Park","coordinates":[137.564,36.7617]},{"code":"JA/NI-038","program":"sota","name":"Shiratoriyama","coordinates":[137.7111,36.9445]},{"code":"JA/TY-006","program":"sota","name":"Asahidake","coordinates":[137.7458,36.7576]},{"code":"JA/TY-013","program":"sota","name":"Asahidake","coordinates":[137.7299,36.8267]},{"code":"JA/TY-020","program":"sota","name":"Ecchuukomagatake","coordinates":[137.5846,36.7519]},{"code":"JA/TY-027","program":"sota","name":"Hatsuyukiyama","coordinates":[137.6877,36.8967]},{"code":"JA/TY-032","program":"sota","name":"JA/TY-032","coordinates":[137.6472,36.8316]},{"code":"JA/TY-059","program":"sota","name":"JA/TY-059","coordinates":[137.6134,36.7578]},{"code":"JA/TY-061","program":"sota","name":"Kobusugiyama","coordinates":[137.6354,36.8011]},{"code":"JA/TY-067","program":"sota","name":"Ootaniyama","coordinates":[137.5921,36.8886]}]}