{"lat":36.75,"lon":138.25,"programs":["sota"],"count":9,"references":[{"code":"JA/NN-091","program":"sota","name":"Takappyouyama","coordinates":[138.4951,36.8107]},{"code":"JA/NN-100","program":"sota","name":"Hakkenzan","coordinates":[138.49,36.8548]},{"code":"JA/NN-107","program":"sota","name":"Kenashiyama","coordinates":[138.4867,36.8978]},{"code":"JA/NN-141","program":"sota","name":"Madaraoyama","coordinates":[138.2743,36.8374]},{"code":"JA/NN-145","program":"sota","name":"Koushasan (Takaifuji)","coordinates":[138.4038,36.7993]},{"code":"JA/NN-157","program":"sota","name":"Nabekurayama","coordinates":[138.3823,36.9766]},{"code":"JA/NN-173","program":"sota","name":"Hakamadake","coordinates":[138.2577,36.8653]},{"code":"JA/NN-182","program":"sota","name":"Kenashiyama","coordinates":[138.2959,36.8819]},{"code":"JA/NN-239","program":"sota","name":"Iimoriyama","coordinates":[138.4219,36.7908]}]}