{"lat":37,"lon":-3.75,"programs":["pota","sota"],"count":16,"references":[{"code":"ES-0586","program":"pota","name":"La Malaha Natura 2000","coordinates":[-3.73,37.1252]},{"code":"ES-1327","program":"pota","name":"Dehesa del Generalife Nature Reserve","coordinates":[-3.577,37.1783]},{"code":"ES-1555","program":"pota","name":"Turberas de Padul Wetland Reserve","coordinates":[-3.5723,37.022]},{"code":"ES-1915","program":"pota","name":"Corredores Verde En La Vega Meridional De Granada State Trail","coordinates":[-3.6056,37.228]},{"code":"ES-1916","program":"pota","name":"Corredores Verde En La Zona Oeste De Granada National Park","coordinates":[-3.62114,37.1749]},{"code":"ES-1917","program":"pota","name":"Corredores Verde En La Zona Sur De Granada State Trail","coordinates":[-3.5899,37.1447]},{"code":"ES-1918","program":"pota","name":"Corredores Verdes En La Zona Norte De Granada State Trail","coordinates":[-3.61427,37.2162]},{"code":"ES-1933","program":"pota","name":"Puerta Verde De Granada-Santa Fé-Alhama De Granada State Trail","coordinates":[-3.73691,37.0917]},{"code":"ES-1939","program":"pota","name":"Puerta Verde De Los Neveros State Trail","coordinates":[-3.55517,37.16]},{"code":"ES-2141","program":"pota","name":"Alhambra, Generalife and Albayzín, Granada World Heritage Site","coordinates":[-3.58783,37.1765]},{"code":"EA7/GR-057","program":"sota","name":"Pico de La Buitrera","coordinates":[-3.5265,37.026]},{"code":"EA7/GR-078","program":"sota","name":"Cerro de Loma Alta","coordinates":[-3.56,37.0363]},{"code":"EA7/GR-079","program":"sota","name":"La Silleta II","coordinates":[-3.5898,37.0399]},{"code":"EA7/GR-080","program":"sota","name":"Cerro de Casa Fuerte","coordinates":[-3.5002,37.2434]},{"code":"EA7/GR-125","program":"sota","name":"Elvira","coordinates":[-3.7158,37.2481]},{"code":"EA7/GR-129","program":"sota","name":"Montevives","coordinates":[-3.691,37.1027]}]}