{"lat":37,"lon":-107.25,"programs":["sota"],"count":8,"references":[{"code":"W0C/SJ-139","program":"sota","name":"Kearns Benchmark","coordinates":[-107.221,37.1418]},{"code":"W0C/SJ-142","program":"sota","name":"Oak Brush Hill","coordinates":[-107.0909,37.1843]},{"code":"W0C/SJ-151","program":"sota","name":"8260","coordinates":[-107.0754,37.1637]},{"code":"W0C/SJ-158","program":"sota","name":"Cat Benchmark","coordinates":[-107.1077,37.1022]},{"code":"W0C/SJ-159","program":"sota","name":"Newton Mesa","coordinates":[-107.0961,37.1395]},{"code":"W0C/SJ-161","program":"sota","name":"Haystack Mountain","coordinates":[-107.2407,37.2226]},{"code":"W0C/SJ-165","program":"sota","name":"Montezuma Mesa","coordinates":[-107.0599,37.0631]},{"code":"W0C/SJ-166","program":"sota","name":"7740","coordinates":[-107.2189,37.2062]}]}