{"lat":37,"lon":25,"programs":["iota","pota","sota"],"count":5,"references":[{"code":"EU-067","program":"iota","name":"KYKLADES","coordinates":[25.09000015,37.094999315]},{"code":"GR-0193","program":"pota","name":"Agioi Pantes Stroumpoula Nisou Parou National Wildlife Refuge","coordinates":[25.2041,37.0724]},{"code":"GR-0194","program":"pota","name":"Notia (Paroikias Parou) National Wildlife Refuge","coordinates":[25.1626,37.0715]},{"code":"GR-0195","program":"pota","name":"Agios Charalampos-Lagkada(Parou) National Wildlife Refuge","coordinates":[25.1402,37.0415]},{"code":"SV/AG-004","program":"sota","name":"Strubulas","coordinates":[25.190277,37.03639]}]}