{"lat":37,"lon":-108.75,"programs":["pota","sota"],"count":7,"references":[{"code":"US-0973","program":"pota","name":"Yucca House National Monument","coordinates":[-108.687,37.2493]},{"code":"W0C/SJ-025","program":"sota","name":"Chimney Rock","coordinates":[-108.7188,37.0779]},{"code":"W0C/SJ-179","program":"sota","name":"Rocky Ridge","coordinates":[-108.6244,37.2422]},{"code":"W0C/SM-063","program":"sota","name":"7710","coordinates":[-108.6375,37.2252]},{"code":"W0C/SM-070","program":"sota","name":"Mesa Benchmark","coordinates":[-108.6391,37.043]},{"code":"W0C/SM-072","program":"sota","name":"6491","coordinates":[-108.5831,37.0398]},{"code":"W0C/SM-073","program":"sota","name":"Squaw","coordinates":[-108.6894,37.1262]}]}