{"lat":37,"lon":-116.25,"programs":["sota"],"count":8,"references":[{"code":"W7N/NS-061","program":"sota","name":"Rainier Mesa","coordinates":[-116.2077,37.1766]},{"code":"W7N/NS-081","program":"sota","name":"7321","coordinates":[-116.2057,37.1503]},{"code":"W7N/NS-097","program":"sota","name":"Burnt Mountain","coordinates":[-116.1251,37.2471]},{"code":"W7N/NS-099","program":"sota","name":"Quartzite Ridge","coordinates":[-116.0947,37.2263]},{"code":"W7N/NS-130","program":"sota","name":"Big Butte","coordinates":[-116.2111,37.1003]},{"code":"W7N/NS-142","program":"sota","name":"Sugar Loaves East","coordinates":[-116.2176,37.0931]},{"code":"W7N/NS-165","program":"sota","name":"6161","coordinates":[-116.2242,37.0494]},{"code":"W7N/NS-189","program":"sota","name":"Banded Mountain","coordinates":[-116.0084,37.146]}]}