{"lat":37,"lon":-107,"programs":["pota","sota"],"count":7,"references":[{"code":"US-9647","program":"pota","name":"Echo Canyon Reservoir State Wildlife Area","coordinates":[-106.987,37.2034]},{"code":"W0C/SJ-018","program":"sota","name":"Klutter Mountain","coordinates":[-106.944,37.0898]},{"code":"W0C/SJ-125","program":"sota","name":"Archuleta Mesa","coordinates":[-106.9632,37.0234]},{"code":"W0C/SJ-134","program":"sota","name":"Blue Mountain","coordinates":[-106.8599,37.1957]},{"code":"W0C/SJ-143","program":"sota","name":"8620","coordinates":[-106.863,37.0527]},{"code":"W0C/SJ-155","program":"sota","name":"Eightmile Mesa","coordinates":[-106.9973,37.1715]},{"code":"W0C/SJ-178","program":"sota","name":"Winter Hills","coordinates":[-106.8878,37.1772]}]}