{"lat":37,"lon":-108,"programs":["pota","sota"],"count":7,"references":[{"code":"US-9620","program":"pota","name":"Bodo State Wildlife Area","coordinates":[-107.857,37.208]},{"code":"US-12707","program":"pota","name":"Pastorius Reservoir State Wildlife Area","coordinates":[-107.811,37.197]},{"code":"W0C/SJ-148","program":"sota","name":"Bridge Timber Mountain","coordinates":[-107.9999,37.1715]},{"code":"W0C/SJ-152","program":"sota","name":"Basin Mountain","coordinates":[-107.9548,37.2056]},{"code":"W0C/SJ-164","program":"sota","name":"Carbon Benchmark","coordinates":[-107.8933,37.2322]},{"code":"W0C/SJ-170","program":"sota","name":"Mesa Mountains (HP)","coordinates":[-107.7694,37.0784]},{"code":"W0C/SJ-171","program":"sota","name":"Round Top Mountain","coordinates":[-107.9297,37.0868]}]}