{"lat":37,"lon":138,"programs":["pota","sota"],"count":5,"references":[{"code":"JP-1357","program":"pota","name":"Kubiki Prefectural Nature Park","coordinates":[138.096,37.1716]},{"code":"JA/NI-036","program":"sota","name":"Hokogatake","coordinates":[138.0264,37.0286]},{"code":"JA/NI-042","program":"sota","name":"Nakanodake","coordinates":[138.1361,37.0312]},{"code":"JA/NI-057","program":"sota","name":"Shigekurayama","coordinates":[138.1594,37.044]},{"code":"JA/NI-107","program":"sota","name":"Mineyama","coordinates":[138.0742,37.0913]}]}