{"lat":37,"lon":138.25,"programs":["pota","sota"],"count":5,"references":[{"code":"JP-1356","program":"pota","name":"Naomine Matsunoyama Oike Prefectural Nature Park","coordinates":[138.373,37.1745]},{"code":"JP-1368","program":"pota","name":"Ogata Mizu to Mori Prefectural Park","coordinates":[138.35,37.2309]},{"code":"JA/NI-122","program":"sota","name":"Kirigatake","coordinates":[138.4749,37.1495]},{"code":"JA/NI-134","program":"sota","name":"Kogamoda","coordinates":[138.46,37.1774]},{"code":"JA/NI-184","program":"sota","name":"Shiroyama","coordinates":[138.4509,37.1407]}]}