{"lat":37,"lon":128,"programs":["pota","sota"],"count":25,"references":[{"code":"KR-0229","program":"pota","name":"국립제천치유의숲\tJecheon Healing National Forest","coordinates":[128.245,37.0128]},{"code":"KR-1092","program":"pota","name":"청전공원\tCheongjeon Neighborhood Provincial Park","coordinates":[128.218,37.1507]},{"code":"KR-1169","program":"pota","name":"의림지\tUirimji Reservoir Ecological Park","coordinates":[128.21,37.1733]},{"code":"HL/CB-032","program":"sota","name":"동산 (Dongsan)","coordinates":[128.2275,37.0246]},{"code":"HL/CB-038","program":"sota","name":"용두산 (Yongdusan)","coordinates":[128.2107,37.2031]},{"code":"HL/CB-039","program":"sota","name":"용두산 (Yongdusan)","coordinates":[128.1967,37.2059]},{"code":"HL/CB-047","program":"sota","name":"천등산 (Cheondeungsan)","coordinates":[128.0033,37.0981]},{"code":"HL/CB-049","program":"sota","name":"면위산 (Myeonwisan)","coordinates":[128.0679,37.0448]},{"code":"HL/CB-053","program":"sota","name":"작성산 (Jakseongsan)","coordinates":[128.2166,37.0374]},{"code":"HL/CB-056","program":"sota","name":"백곡산 (Baekgoksan)","coordinates":[128.1668,37.1842]},{"code":"HL/CB-072","program":"sota","name":"시량산 (Siryangsan)","coordinates":[128.0558,37.1281]},{"code":"HL/CB-077","program":"sota","name":"인등산 (Indeungsan)","coordinates":[128.0056,37.0572]},{"code":"HL/CB-078","program":"sota","name":"마당재산 (Madangjaesan)","coordinates":[128.2173,37.0544]},{"code":"HL/CB-097","program":"sota","name":"관모봉 (Gwanmobong)","coordinates":[128.0026,37.0142]},{"code":"HL/CB-099","program":"sota","name":"국사봉 (Guksabong)","coordinates":[128.1041,37.0665]},{"code":"HL/CB-113","program":"sota","name":"맹자산 (Maengjasan)","coordinates":[128.2458,37.0569]},{"code":"HL/CB-125","program":"sota","name":"대덕산 (Daedeoksan)","coordinates":[128.1499,37.039]},{"code":"HL/CB-140","program":"sota","name":"HL/CB-140","coordinates":[128.2493,37.0754]},{"code":"HL/CB-142","program":"sota","name":"비봉산 (Bibongsan)","coordinates":[128.1431,37.0089]},{"code":"HL/CB-171","program":"sota","name":"HL/CB-171","coordinates":[128.1706,37.1039]},{"code":"HL/CB-233","program":"sota","name":"HL/CB-233","coordinates":[128.1795,37.0628]},{"code":"HL/GW-167","program":"sota","name":"구학산 (Guhaksan)","coordinates":[128.0405,37.189]},{"code":"HL/GW-183","program":"sota","name":"감악산 (Gamaksan)","coordinates":[128.1418,37.229]},{"code":"HL/GW-187","program":"sota","name":"벼락바위봉 (Byeorakbawibong)","coordinates":[128.0194,37.2442]},{"code":"HL/GW-203","program":"sota","name":"석기암봉 (Seokgiambong)","coordinates":[128.1668,37.2148]}]}