{"lat":37,"lon":140.75,"programs":["pota","sota"],"count":9,"references":[{"code":"JP-1092","program":"pota","name":"Iwaki Kaigan Prefectural Nature Park","coordinates":[140.998,37.1364]},{"code":"JP-1098","program":"pota","name":"Natsuigawa Keikoku Prefectural Nature Park","coordinates":[140.798,37.1016]},{"code":"JP-1103","program":"pota","name":"Iwaki Prefectural Park","coordinates":[140.92,37.0108]},{"code":"JP-1875","program":"pota","name":"Yotsukura Bosai Ryokuchi Prefectural Park","coordinates":[140.987,37.0991]},{"code":"JP-1876","program":"pota","name":"Numanouchi Bosai Ryokuchi Prefectural Park","coordinates":[140.974,37.0135]},{"code":"JA/FS-114","program":"sota","name":"Kittoyasan","coordinates":[140.8674,37.2106]},{"code":"JA/FS-131","program":"sota","name":"Kagurayama","coordinates":[140.8112,37.2235]},{"code":"JA/FS-140","program":"sota","name":"Mizuishiyama","coordinates":[140.7978,37.1095]},{"code":"JA/FS-241","program":"sota","name":"Mitsumoriyama","coordinates":[140.9103,37.1934]}]}