{"lat":37,"lon":-4.5,"programs":["pota","sota"],"count":15,"references":[{"code":"ES-0361","program":"pota","name":"Sierra de Gracia Nature Reserve","coordinates":[-4.3866,37.0999]},{"code":"ES-1580","program":"pota","name":"Charcas de Alazores Wetland Reserve","coordinates":[-4.2547,37.0247]},{"code":"ES-1633","program":"pota","name":"Laguna de Viso Wetland Reserve","coordinates":[-4.4708,37.0143]},{"code":"ES-1634","program":"pota","name":"Laguna de Caja Wetland Reserve","coordinates":[-4.4694,37.0214]},{"code":"ES-1642","program":"pota","name":"Laguna Chica de Archidona Wetland Reserve","coordinates":[-4.3087,37.0986]},{"code":"ES-1643","program":"pota","name":"Laguna Grande de Archidona Wetland Reserve","coordinates":[-4.3027,37.1088]},{"code":"EA7/CO-021","program":"sota","name":"Campo Agro","coordinates":[-4.2718,37.2202]},{"code":"EA7/GR-033","program":"sota","name":"Gibalto","coordinates":[-4.2672,37.065]},{"code":"EA7/MA-031","program":"sota","name":"Enamorados, Peña de los","coordinates":[-4.4903,37.0679]},{"code":"EA7/MA-073","program":"sota","name":"Pico de la Ladera","coordinates":[-4.3803,37.1133]},{"code":"EA7/MA-074","program":"sota","name":"Pedroso","coordinates":[-4.3591,37.1676]},{"code":"EA7/MA-083","program":"sota","name":"Arca","coordinates":[-4.4526,37.148]},{"code":"EA7/MA-086","program":"sota","name":"Alto de la Breña","coordinates":[-4.4182,37.0039]},{"code":"EA7/MA-092","program":"sota","name":"Peñas Prietas","coordinates":[-4.3995,37.0666]},{"code":"EA7/MA-126","program":"sota","name":"Tajo Tello, Alto del","coordinates":[-4.27,37.0138]}]}