{"lat":37,"lon":-4.75,"programs":["pota","sota"],"count":11,"references":[{"code":"ES-0395","program":"pota","name":"Pinar del Hacho Natura 2000","coordinates":[-4.572,37.0096]},{"code":"ES-0629","program":"pota","name":"Laguna de La Ratosa Natura 2000","coordinates":[-4.703,37.1991]},{"code":"ES-0636","program":"pota","name":"Sierra de Mollina Natura 2000","coordinates":[-4.6639,37.1692]},{"code":"ES-1627","program":"pota","name":"Herriza de los Ladrones Wetland Management District","coordinates":[-4.6986,37.2051]},{"code":"ES-1630","program":"pota","name":"Laguneto del Pueblo Wetland Reserve","coordinates":[-4.74,37.1318]},{"code":"ES-1638","program":"pota","name":"Laguna de Herrera Wetland Reserve","coordinates":[-4.582,37.1017]},{"code":"ES-2142","program":"pota","name":"Antequera Dolmens Site World Heritage Site","coordinates":[-4.5465,37.024]},{"code":"EA7/MA-034","program":"sota","name":"Mollina","coordinates":[-4.6669,37.1743]},{"code":"EA7/MA-094","program":"sota","name":"Cortijo","coordinates":[-4.6268,37.0058]},{"code":"EA7/MA-107","program":"sota","name":"Pico de la Camorra","coordinates":[-4.6697,37.2019]},{"code":"EA7/MA-108","program":"sota","name":"Pico de Humilladero","coordinates":[-4.6834,37.0996]}]}