{"lat":37,"lon":-107.5,"programs":["pota","sota"],"count":11,"references":[{"code":"US-1231","program":"pota","name":"Navajo State Park","coordinates":[-107.408,37.0083]},{"code":"US-4413","program":"pota","name":"Chimney Rock National Monument","coordinates":[-107.303,37.1751]},{"code":"US-9641","program":"pota","name":"Devil Creek State Wildlife Area","coordinates":[-107.281,37.2214]},{"code":"W0C/SJ-130","program":"sota","name":"8980","coordinates":[-107.4631,37.1935]},{"code":"W0C/SJ-136","program":"sota","name":"8761","coordinates":[-107.4719,37.2467]},{"code":"W0C/SJ-144","program":"sota","name":"8615","coordinates":[-107.3916,37.2457]},{"code":"W0C/SJ-146","program":"sota","name":"Sandoval Mesa","coordinates":[-107.324,37.1037]},{"code":"W0C/SJ-160","program":"sota","name":"7975","coordinates":[-107.2795,37.0427]},{"code":"W0C/SJ-163","program":"sota","name":"Chimney Rock","coordinates":[-107.3009,37.1945]},{"code":"W0C/SJ-168","program":"sota","name":"Carracas Mesa","coordinates":[-107.3409,37]},{"code":"W0C/SJ-169","program":"sota","name":"7660","coordinates":[-107.3648,37.2333]}]}