{"lat":37,"lon":127.5,"programs":["pota","sota"],"count":12,"references":[{"code":"KR-1080","program":"pota","name":"진암공원\tJinam Neighborhood Provincial Park","coordinates":[127.62,37.1119]},{"code":"HL/CB-054","program":"sota","name":"국망산 (Gungmangsan)","coordinates":[127.7349,37.078]},{"code":"HL/CB-075","program":"sota","name":"수레의산 (Sureuisan)","coordinates":[127.664,37.0309]},{"code":"HL/CB-083","program":"sota","name":"원통산 (Wontongsan)","coordinates":[127.684,37.0788]},{"code":"HL/CB-102","program":"sota","name":"오갑산 (Ogapsan)","coordinates":[127.6961,37.1401]},{"code":"HL/CB-193","program":"sota","name":"HL/CB-193","coordinates":[127.7111,37.1318]},{"code":"HL/CB-237","program":"sota","name":"팔성산 (Palseongsan)","coordinates":[127.5712,37.0486]},{"code":"HL/GG-120","program":"sota","name":"백족산 (Baekjoksan)","coordinates":[127.6041,37.0973]},{"code":"HL/GG-149","program":"sota","name":"임오산 (Imosan)","coordinates":[127.5795,37.0755]},{"code":"HL/GG-158","program":"sota","name":"설성산 (Seolseongsan)","coordinates":[127.5561,37.1429]},{"code":"HL/GG-159","program":"sota","name":"강금산 (Ganggeumsan)","coordinates":[127.6466,37.1916]},{"code":"HL/GG-160","program":"sota","name":"신통산 (Sintongsan)","coordinates":[127.6438,37.2147]}]}