{"lat":37,"lon":127.75,"programs":["pota","sota"],"count":18,"references":[{"code":"KR-0145","program":"pota","name":"중앙탑사적공원\tJungangtap National Historic Site","coordinates":[127.826,37.0111]},{"code":"KR-0500","program":"pota","name":"목계솔밭공원\tMokgyesolbat Provincial Ecological Park","coordinates":[127.89,37.0753]},{"code":"KR-1073","program":"pota","name":"조동근린공원\tJodong Neighborhood Provincial Park","coordinates":[127.972,37.0236]},{"code":"KR-1160","program":"pota","name":"민주지산 Minjujisan Moubtain Provincial Park","coordinates":[127.849,37.0399]},{"code":"HL/CB-031","program":"sota","name":"삼봉산 (Sambongsan)","coordinates":[127.9303,37.2115]},{"code":"HL/CB-055","program":"sota","name":"보련산 (Boryeonsan)","coordinates":[127.7766,37.0692]},{"code":"HL/CB-068","program":"sota","name":"비지재 (Bijijae)","coordinates":[127.9343,37.1642]},{"code":"HL/CB-162","program":"sota","name":"국사봉 (Guksabong)","coordinates":[127.8726,37.1459]},{"code":"HL/CB-176","program":"sota","name":"묵봉산 (Mukbongsan)","coordinates":[127.8631,37.1268]},{"code":"HL/CB-180","program":"sota","name":"국사봉 (Guksabong)","coordinates":[127.8055,37.0735]},{"code":"HL/CB-208","program":"sota","name":"치마산 (Chimasan)","coordinates":[127.7744,37.1178]},{"code":"HL/CB-212","program":"sota","name":"자주봉산 (Jajubongsan)","coordinates":[127.7609,37.0285]},{"code":"HL/CB-227","program":"sota","name":"청계산 (Cheonggyesan)","coordinates":[127.8393,37.1363]},{"code":"HL/CB-229","program":"sota","name":"평풍산 (Pyeongpungsan)","coordinates":[127.8175,37.0241]},{"code":"HL/CB-230","program":"sota","name":"을궁산 (Eulgungsan)","coordinates":[127.8238,37.0497]},{"code":"HL/CB-247","program":"sota","name":"제내편봉 (Jenaepyeonbong)","coordinates":[127.8874,37.0885]},{"code":"HL/GW-294","program":"sota","name":"덕가산 (Deokgasan)","coordinates":[127.8848,37.2448]},{"code":"HL/GW-297","program":"sota","name":"신선봉 (Sinseonbong)","coordinates":[127.8526,37.1907]}]}