{"lat":37,"lon":138.5,"programs":["sota"],"count":7,"references":[{"code":"JA/NI-076","program":"sota","name":"Kurohimesan","coordinates":[138.5921,37.2261]},{"code":"JA/NI-086","program":"sota","name":"Ogamidake","coordinates":[138.5015,37.2251]},{"code":"JA/NI-091","program":"sota","name":"Tokinzan","coordinates":[138.525,37.2196]},{"code":"JA/NI-096","program":"sota","name":"Jyouyama","coordinates":[138.6725,37.0823]},{"code":"JA/NI-113","program":"sota","name":"Nabetachiyama","coordinates":[138.5271,37.1368]},{"code":"JA/NI-126","program":"sota","name":"Yakushi","coordinates":[138.631,37.1605]},{"code":"JA/NN-167","program":"sota","name":"JA/NN-167","coordinates":[138.5012,37.0251]}]}