{"lat":37,"lon":-81.25,"programs":["pota","sota"],"count":7,"references":[{"code":"US-9943","program":"pota","name":"Hunting Camp Creek Wilderness Area","coordinates":[-81.25,37.0885]},{"code":"US-9945","program":"pota","name":"Kimberling Creek Wilderness Area","coordinates":[-81.0641,37.1523]},{"code":"W4V/WV-019","program":"sota","name":"Walker Mountain","coordinates":[-81.0979,37.0593]},{"code":"W4V/WV-021","program":"sota","name":"Round Mountain","coordinates":[-81.1943,37.1547]},{"code":"W4V/WV-026","program":"sota","name":"Griffith Knob","coordinates":[-81.2158,37.0009]},{"code":"W4V/WV-035","program":"sota","name":"Hogback","coordinates":[-81.1136,37.1818]},{"code":"W4V/WV-056","program":"sota","name":"Brushy Ridge","coordinates":[-81.0003,37.0017]}]}