{"lat":37.25,"lon":-7,"programs":["pota"],"count":5,"references":[{"code":"ES-0593","program":"pota","name":"Marismas del Odiel National Park","coordinates":[-6.9788,37.2517]},{"code":"ES-0603","program":"pota","name":"Marismas y Riberas del Tinto Natura 2000","coordinates":[-6.8715,37.2772]},{"code":"ES-0606","program":"pota","name":"Marisma de Las Carboneras Natura 2000","coordinates":[-6.9984,37.2659]},{"code":"ES-1604","program":"pota","name":"Gravera de Manzorrales Wetland Reserve","coordinates":[-6.9853,37.2944]},{"code":"ES-1934","program":"pota","name":"Puerta Verde De Huelva - Gibraleón - San Juan Del Puerto State Trail","coordinates":[-6.96918,37.3749]}]}