{"lat":37.25,"lon":139,"programs":["sota"],"count":13,"references":[{"code":"JA/FS-019","program":"sota","name":"Asakusadake","coordinates":[139.2336,37.3436]},{"code":"JA/FS-024","program":"sota","name":"Kemouyama","coordinates":[139.1751,37.2567]},{"code":"JA/FS-043","program":"sota","name":"Maekemouyama","coordinates":[139.2096,37.2848]},{"code":"JA/FS-049","program":"sota","name":"Marukurayama","coordinates":[139.2076,37.4183]},{"code":"JA/FS-068","program":"sota","name":"Maeyama","coordinates":[139.2364,37.4309]},{"code":"JA/NI-024","program":"sota","name":"Sumondake","coordinates":[139.1365,37.3977]},{"code":"JA/NI-052","program":"sota","name":"Karamatsuyama","coordinates":[139.0749,37.2613]},{"code":"JA/NI-054","program":"sota","name":"Kenashiyama","coordinates":[139.2491,37.4751]},{"code":"JA/NI-063","program":"sota","name":"Kamigongendouyama","coordinates":[139.0426,37.269]},{"code":"JA/NI-071","program":"sota","name":"Tsuchikuzureyama","coordinates":[139.0892,37.3006]},{"code":"JA/NI-095","program":"sota","name":"JA/NI-095","coordinates":[139.1297,37.4802]},{"code":"JA/NI-103","program":"sota","name":"Hotoramine","coordinates":[139.0691,37.3324]},{"code":"JA/NI-164","program":"sota","name":"Koumyouzan","coordinates":[139.2194,37.4775]}]}