{"lat":37.25,"lon":-2,"programs":["pota","sota"],"count":8,"references":[{"code":"ES-0535","program":"pota","name":"Sierra del Alto de Almagro Natura 2000","coordinates":[-1.8524,37.3586]},{"code":"ES-1448","program":"pota","name":"Sierra de Enmedio Natura 2000","coordinates":[-1.8083,37.4911]},{"code":"EA5/MU-031","program":"sota","name":"Medro","coordinates":[-1.8198,37.4855]},{"code":"EA7/AL-018","program":"sota","name":"Cucharón","coordinates":[-1.874,37.3664]},{"code":"EA7/AL-075","program":"sota","name":"Cabezo de los Machos","coordinates":[-1.8447,37.3869]},{"code":"EA7/AL-082","program":"sota","name":"Variegato","coordinates":[-1.9216,37.3239]},{"code":"EA7/AL-084","program":"sota","name":"Cerro del Retablo","coordinates":[-1.9387,37.3323]},{"code":"EA7/AL-089","program":"sota","name":"Pico de la Mina del Globo","coordinates":[-1.7557,37.2899]}]}