{"lat":37.25,"lon":-108.5,"programs":["pota","sota"],"count":6,"references":[{"code":"US-1229","program":"pota","name":"Mancos State Park","coordinates":[-108.269,37.4]},{"code":"US-9660","program":"pota","name":"Joe Moore Reservoir State Wildlife Area","coordinates":[-108.308,37.4154]},{"code":"W0C/SJ-019","program":"sota","name":"Park Point","coordinates":[-108.4615,37.2805]},{"code":"W0C/SM-057","program":"sota","name":"Point Lookout","coordinates":[-108.4187,37.3157]},{"code":"W0C/SM-058","program":"sota","name":"Prater Ridge","coordinates":[-108.4309,37.2998]},{"code":"W0C/SM-060","program":"sota","name":"Weber Mountain","coordinates":[-108.3335,37.2773]}]}