{"lat":37.25,"lon":13.25,"programs":["pota","sota"],"count":11,"references":[{"code":"IT-0294","program":"pota","name":"Foce del Magazzolo, Foce del Platani, Capo Bianco, Torre Salsa Natura 2000","coordinates":[13.3136,37.3764]},{"code":"IT-1260","program":"pota","name":"Scala dei Turchi Natura 2000","coordinates":[13.4685,37.2938]},{"code":"I/SI-180","program":"sota","name":"Monte Giafaglione","coordinates":[13.4547,37.4199]},{"code":"I/SI-205","program":"sota","name":"Pizzo del Corvo","coordinates":[13.4483,37.4326]},{"code":"I/SI-221","program":"sota","name":"Monte Iazzo Vecchio","coordinates":[13.4739,37.4511]},{"code":"I/SI-240","program":"sota","name":"Montagna Lunga – Quota 529","coordinates":[13.4172,37.4325]},{"code":"I/SI-258","program":"sota","name":"Sella della Croce","coordinates":[13.419,37.4779]},{"code":"I/SI-261","program":"sota","name":"Monte Sara","coordinates":[13.3545,37.4706]},{"code":"I/SI-264","program":"sota","name":"Monte Sedita","coordinates":[13.3866,37.3871]},{"code":"I/SI-265","program":"sota","name":"Monte Mele","coordinates":[13.4534,37.3365]},{"code":"I/SI-276","program":"sota","name":"Monte della Giudecca","coordinates":[13.4211,37.4539]}]}