{"lat":37.25,"lon":128.5,"programs":["pota","sota"],"count":26,"references":[{"code":"KR-0479","program":"pota","name":"동강생태공원(정선)\tDonggang River (Jeongseon) Provincial Ecological Park","coordinates":[128.625,37.3613]},{"code":"KR-0188","program":"pota","name":"국립가리왕산자연휴양림\tGariwangsan Natural Recreation National Forest","coordinates":[128.574,37.4244]},{"code":"HL/GW-007","program":"sota","name":"가리왕산 (Gariwangsan)","coordinates":[128.5633,37.4616]},{"code":"HL/GW-029","program":"sota","name":"중왕산 (Jungwangsan)","coordinates":[128.5192,37.4726]},{"code":"HL/GW-053","program":"sota","name":"청옥산 (Cheongoksan)","coordinates":[128.5081,37.4103]},{"code":"HL/GW-061","program":"sota","name":"백석봉 (Baekseokbong)","coordinates":[128.642,37.4856]},{"code":"HL/GW-147","program":"sota","name":"계봉 (Gyebong)","coordinates":[128.6618,37.2851]},{"code":"HL/GW-151","program":"sota","name":"HL/GW-151","coordinates":[128.661,37.3408]},{"code":"HL/GW-154","program":"sota","name":"곰봉 (Gombong)","coordinates":[128.6556,37.27]},{"code":"HL/GW-159","program":"sota","name":"상정바위산 (Sangjeongbawisan)","coordinates":[128.7191,37.4241]},{"code":"HL/GW-164","program":"sota","name":"고비덕 (Gobideok)","coordinates":[128.7456,37.4992]},{"code":"HL/GW-177","program":"sota","name":"민둔산 (Mindunsan)","coordinates":[128.639,37.405]},{"code":"HL/GW-179","program":"sota","name":"돌도끼산 (Doldoggisan)","coordinates":[128.5834,37.3041]},{"code":"HL/GW-180","program":"sota","name":"HL/GW-180","coordinates":[128.7172,37.2758]},{"code":"HL/GW-184","program":"sota","name":"서운산 (Seounsan)","coordinates":[128.734,37.335]},{"code":"HL/GW-210","program":"sota","name":"방평봉 (Bangpyeongbong)","coordinates":[128.7482,37.3618]},{"code":"HL/GW-231","program":"sota","name":"살개봉 (Salgaebong)","coordinates":[128.5809,37.379]},{"code":"HL/GW-234","program":"sota","name":"굇대봉 (Goetdaebong)","coordinates":[128.5771,37.4015]},{"code":"HL/GW-242","program":"sota","name":"HL/GW-242","coordinates":[128.6914,37.3372]},{"code":"HL/GW-244","program":"sota","name":"HL/GW-244","coordinates":[128.6443,37.3633]},{"code":"HL/GW-248","program":"sota","name":"능암덕산 (Neungamdeoksan)","coordinates":[128.5515,37.2688]},{"code":"HL/GW-250","program":"sota","name":"HL/GW-250","coordinates":[128.6313,37.37]},{"code":"HL/GW-266","program":"sota","name":"재치산 (Jaechisan)","coordinates":[128.518,37.304]},{"code":"HL/GW-287","program":"sota","name":"천마산 (Cheonmasan)","coordinates":[128.6855,37.3074]},{"code":"HL/GW-298","program":"sota","name":"장성산 (Jangseongsan)","coordinates":[128.519,37.2548]},{"code":"HL/GW-398","program":"sota","name":"HL/GW-398","coordinates":[128.6097,37.2571]}]}