{"lat":37.25,"lon":-113,"programs":["pota","sota"],"count":27,"references":[{"code":"US-6005","program":"pota","name":"Orderville Canyon BLM Wilderness Area","coordinates":[-112.884,37.3204]},{"code":"US-6010","program":"pota","name":"Deep Creek BLM Wilderness Area","coordinates":[-112.911,37.3881]},{"code":"US-6011","program":"pota","name":"Deep Creek North BLM Wilderness Area","coordinates":[-112.932,37.4526]},{"code":"US-10967","program":"pota","name":"Birch Hollow BLM Recreation Management Area","coordinates":[-112.856,37.3098]},{"code":"US-10974","program":"pota","name":"Deep Creek BLM Wild and Scenic River","coordinates":[-112.949,37.3701]},{"code":"US-10975","program":"pota","name":"Oak Creek BLM Wild and Scenic River","coordinates":[-112.993,37.3985]},{"code":"US-10976","program":"pota","name":"Kolob Creek BLM Wild and Scenic River","coordinates":[-112.971,37.371]},{"code":"US-10997","program":"pota","name":"North Fork Virgin River Merriam's Turkey Viewing Area BLM Recreation Management Area","coordinates":[-112.839,37.3853]},{"code":"US-11115","program":"pota","name":"North Fork Virgin River BLM Wild and Scenic River","coordinates":[-112.924,37.3709]},{"code":"US-11754","program":"pota","name":"Chamberlain's Ranch Trailhead BLM Recreation Management Area","coordinates":[-112.839,37.3853]},{"code":"US-11755","program":"pota","name":"Goose Creek BLM Wild and Scenic River","coordinates":[-112.997,37.3715]},{"code":"W7U/KA-008","program":"sota","name":"7804","coordinates":[-112.8296,37.3607]},{"code":"W7U/SU-041","program":"sota","name":"Clear Creek Mountain","coordinates":[-112.8478,37.2938]},{"code":"W7U/WS-029","program":"sota","name":"Church Mesa","coordinates":[-112.993,37.2578]},{"code":"W7U/WS-044","program":"sota","name":"7180","coordinates":[-112.9817,37.2546]},{"code":"W7U/WS-048","program":"sota","name":"Castle Dome","coordinates":[-112.9708,37.2662]},{"code":"W7U/WS-058","program":"sota","name":"Majestic, Mount","coordinates":[-112.9625,37.2737]},{"code":"W7U/WS-059","program":"sota","name":"6945","coordinates":[-112.9751,37.2533]},{"code":"W7U/WS-060","program":"sota","name":"6910","coordinates":[-112.9802,37.2699]},{"code":"W7U/WS-061","program":"sota","name":"Wynopits Mountain","coordinates":[-112.9452,37.3228]},{"code":"W7U/WS-069","program":"sota","name":"6805","coordinates":[-112.9607,37.3214]},{"code":"W7U/WS-074","program":"sota","name":"Great White Throne, The","coordinates":[-112.9411,37.2611]},{"code":"W7U/WS-079","program":"sota","name":"6680","coordinates":[-112.9544,37.3057]},{"code":"W7U/WS-080","program":"sota","name":"The Bodhisattva","coordinates":[-112.9616,37.3073]},{"code":"W7U/WS-083","program":"sota","name":"Mountain of Mystery","coordinates":[-112.9391,37.303]},{"code":"W7U/WS-085","program":"sota","name":"Sneak Peak","coordinates":[-112.9566,37.3013]},{"code":"W7U/WS-106","program":"sota","name":"5840","coordinates":[-112.954,37.3148]}]}