{"lat":37.25,"lon":-4,"programs":["sota"],"count":8,"references":[{"code":"EA7/GR-026","program":"sota","name":"Parapanda","coordinates":[-3.9285,37.3045]},{"code":"EA7/GR-090","program":"sota","name":"Hachazo","coordinates":[-3.7549,37.4629]},{"code":"EA7/GR-108","program":"sota","name":"Morrón de Catena","coordinates":[-3.8051,37.3316]},{"code":"EA7/GR-113","program":"sota","name":"Ágreda II","coordinates":[-3.8999,37.3793]},{"code":"EA7/GR-123","program":"sota","name":"Beato","coordinates":[-3.9982,37.2936]},{"code":"EA7/JA-081","program":"sota","name":"Atalaya","coordinates":[-3.7894,37.4918]},{"code":"EA7/JA-112","program":"sota","name":"Cerro de la Cruz","coordinates":[-3.9938,37.4177]},{"code":"EA7/JA-127","program":"sota","name":"Cerro de las Albarizas","coordinates":[-3.9885,37.4801]}]}