{"lat":37.25,"lon":127.25,"programs":["pota","sota"],"count":28,"references":[{"code":"KR-0443","program":"pota","name":"경안천습지생태공원\tGyeong-ancheonseupji Provincial Ecological Park","coordinates":[127.303,37.4573]},{"code":"KR-0552","program":"pota","name":"양평물안개공원\tYangpyeong Muran-gae Provincial Ecological Park","coordinates":[127.478,37.4992]},{"code":"KR-0647","program":"pota","name":"용인자연휴양림\tYongin Nature Recreation Forest Provincial Park","coordinates":[127.271,37.3133]},{"code":"KR-0735","program":"pota","name":"청석공원\tCheongseok Provincial Recreation Park","coordinates":[127.265,37.412]},{"code":"KR-0754","program":"pota","name":"갈산공원(양평)\tYangpyeong Galsan Neighborhood Provincial Park","coordinates":[127.493,37.486]},{"code":"KR-0764","program":"pota","name":"경안근린공원\tGyengan Neighborhood Provincial Park","coordinates":[127.251,37.4094]},{"code":"KR-0933","program":"pota","name":"설봉공원\tSulbong Neighborhood Provincial Park","coordinates":[127.428,37.2795]},{"code":"KR-1047","program":"pota","name":"이천온천공원\tIcheon oncheon Neighborhood Provincial Park","coordinates":[127.452,37.2822]},{"code":"KR-1181","program":"pota","name":"강상체육공원\tGangsang Sport Recreation Park","coordinates":[127.486,37.4856]},{"code":"KR-1194","program":"pota","name":"여가녹지공원\tYeoga Green Neighborhood Provincial Park","coordinates":[127.324,37.4623]},{"code":"HL/GG-030","program":"sota","name":"양자산 (Yangjasan)","coordinates":[127.4277,37.4373]},{"code":"HL/GG-037","program":"sota","name":"앵자봉 (Aengjabong)","coordinates":[127.4007,37.4192]},{"code":"HL/GG-043","program":"sota","name":"태화산 (Taehwasan)","coordinates":[127.2944,37.2916]},{"code":"HL/GG-045","program":"sota","name":"천덕봉 (Cheondeokbong)","coordinates":[127.4428,37.3584]},{"code":"HL/GG-063","program":"sota","name":"무갑산 (Mugapsan)","coordinates":[127.3327,37.4057]},{"code":"HL/GG-064","program":"sota","name":"노고봉 (Nogobong)","coordinates":[127.2828,37.3273]},{"code":"HL/GG-074","program":"sota","name":"해협산 (Haehyeopsan)","coordinates":[127.3563,37.4921]},{"code":"HL/GG-083","program":"sota","name":"발리봉 (Ballibong)","coordinates":[127.2867,37.3474]},{"code":"HL/GG-087","program":"sota","name":"HL/GG-087","coordinates":[127.3672,37.4585]},{"code":"HL/GG-116","program":"sota","name":"국수봉 (Guksubong)","coordinates":[127.3618,37.3166]},{"code":"HL/GG-117","program":"sota","name":"대렴봉 (Daeryeombong)","coordinates":[127.4716,37.3975]},{"code":"HL/GG-128","program":"sota","name":"설봉산 (Seolbongsan)","coordinates":[127.4134,37.2808]},{"code":"HL/GG-130","program":"sota","name":"더덕바위산 (Deodeokbawisan)","coordinates":[127.3551,37.2999]},{"code":"HL/GG-142","program":"sota","name":"칠사산 (Chilsasan)","coordinates":[127.2729,37.4281]},{"code":"HL/GG-143","program":"sota","name":"군월산 (Gunwolsan)","coordinates":[127.2506,37.4421]},{"code":"HL/GG-144","program":"sota","name":"섭산 (Seopsan)","coordinates":[127.3253,37.3158]},{"code":"HL/GG-146","program":"sota","name":"도드람산 (Dodeuramsan)","coordinates":[127.3919,37.2679]},{"code":"HL/GG-161","program":"sota","name":"국수봉 (Guksubong)","coordinates":[127.2794,37.4057]}]}