{"lat":37.25,"lon":-106.75,"programs":["sota"],"count":23,"references":[{"code":"W0C/RG-039","program":"sota","name":"Conejos Peak","coordinates":[-106.5709,37.2887]},{"code":"W0C/RG-063","program":"sota","name":"North Mountain","coordinates":[-106.6045,37.4507]},{"code":"W0C/RG-068","program":"sota","name":"12690","coordinates":[-106.6544,37.3419]},{"code":"W0C/RG-069","program":"sota","name":"Velvet Benchmark","coordinates":[-106.6541,37.3076]},{"code":"W0C/RG-076","program":"sota","name":"Cropsy Mountain","coordinates":[-106.5964,37.4088]},{"code":"W0C/RG-077","program":"sota","name":"12555","coordinates":[-106.5231,37.277]},{"code":"W0C/RG-078","program":"sota","name":"12550","coordinates":[-106.6746,37.4038]},{"code":"W0C/RG-083","program":"sota","name":"Lookout Mountain","coordinates":[-106.5928,37.3895]},{"code":"W0C/RG-094","program":"sota","name":"Sheepshead","coordinates":[-106.6234,37.3871]},{"code":"W0C/RG-113","program":"sota","name":"11820","coordinates":[-106.717,37.4418]},{"code":"W0C/RG-114","program":"sota","name":"11620","coordinates":[-106.6155,37.3697]},{"code":"W0C/RG-115","program":"sota","name":"Klondike Mountain","coordinates":[-106.5795,37.3567]},{"code":"W0C/RG-118","program":"sota","name":"Mammoth Mountain","coordinates":[-106.5131,37.3364]},{"code":"W0C/RG-119","program":"sota","name":"11300","coordinates":[-106.7335,37.4586]},{"code":"W0C/SJ-069","program":"sota","name":"Summit Peak","coordinates":[-106.6968,37.3506]},{"code":"W0C/SJ-084","program":"sota","name":"Montezuma Peak","coordinates":[-106.6914,37.3731]},{"code":"W0C/SJ-089","program":"sota","name":"12887","coordinates":[-106.6845,37.2867]},{"code":"W0C/SJ-090","program":"sota","name":"Long Trek Mountain","coordinates":[-106.6803,37.3859]},{"code":"W0C/SJ-091","program":"sota","name":"Snow Benchmark","coordinates":[-106.6892,37.2652]},{"code":"W0C/SJ-096","program":"sota","name":"12727","coordinates":[-106.686,37.259]},{"code":"W0C/SJ-101","program":"sota","name":"12492","coordinates":[-106.6768,37.3001]},{"code":"W0C/SJ-104","program":"sota","name":"12410","coordinates":[-106.732,37.336]},{"code":"W0C/SJ-114","program":"sota","name":"11100","coordinates":[-106.7336,37.3928]}]}