{"lat":37.25,"lon":-105.25,"programs":["sota"],"count":11,"references":[{"code":"W0C/SC-039","program":"sota","name":"Raspberry Mountain","coordinates":[-105.1287,37.4122]},{"code":"W0C/SC-107","program":"sota","name":"Goemmer Butte","coordinates":[-105.0426,37.4732]},{"code":"W0C/SL-009","program":"sota","name":"Trinchera Peak","coordinates":[-105.1648,37.2891]},{"code":"W0C/SL-010","program":"sota","name":"Cuatro Peak","coordinates":[-105.1545,37.2584]},{"code":"W0C/SL-017","program":"sota","name":"Teddys Peak","coordinates":[-105.1663,37.3408]},{"code":"W0C/SL-020","program":"sota","name":"11994","coordinates":[-105.2399,37.2578]},{"code":"W0C/SL-022","program":"sota","name":"Harrison Peak","coordinates":[-105.1721,37.4009]},{"code":"W0C/SL-025","program":"sota","name":"Elk Benchmark","coordinates":[-105.2319,37.4668]},{"code":"W0C/SL-029","program":"sota","name":"10322","coordinates":[-105.1856,37.428]},{"code":"W0C/SL-037","program":"sota","name":"11037","coordinates":[-105.2181,37.3949]},{"code":"W0C/SL-038","program":"sota","name":"Boyd Mountain","coordinates":[-105.1044,37.335]}]}