{"lat":37.25,"lon":-111.75,"programs":["pota","sota"],"count":6,"references":[{"code":"US-4399","program":"pota","name":"Grand Staircase-Escalante BLM National Monument","coordinates":[-111.594,37.4609]},{"code":"US-5940","program":"pota","name":"Death Ridge BLM Wilderness Area","coordinates":[-111.651,37.4935]},{"code":"W7U/KA-009","program":"sota","name":"Collet Benchmark","coordinates":[-111.5717,37.4875]},{"code":"W7U/KA-014","program":"sota","name":"7300","coordinates":[-111.5344,37.4494]},{"code":"W7U/KA-028","program":"sota","name":"Drip Benchmark","coordinates":[-111.5813,37.3191]},{"code":"W7U/KA-029","program":"sota","name":"Ship Mountain Point","coordinates":[-111.5563,37.3051]}]}