{"lat":37.25,"lon":-90.75,"programs":["pota","sota"],"count":7,"references":[{"code":"US-5638","program":"pota","name":"Funk  Memorial State Forest","coordinates":[-90.7279,37.3075]},{"code":"W0M/SF-017","program":"sota","name":"Patterson Mountain","coordinates":[-90.569,37.4895]},{"code":"W0M/SF-025","program":"sota","name":"Des Arc Mountain","coordinates":[-90.6085,37.2626]},{"code":"W0M/SF-033","program":"sota","name":"Mudlick Mountain","coordinates":[-90.5245,37.2619]},{"code":"W0M/SF-034","program":"sota","name":"1310","coordinates":[-90.5804,37.2515]},{"code":"W0M/SF-044","program":"sota","name":"Green Mountain","coordinates":[-90.5512,37.2778]},{"code":"W0M/SF-047","program":"sota","name":"Graves Mountain","coordinates":[-90.5064,37.3113]}]}