{"lat":37.25,"lon":14.25,"programs":["pota","sota"],"count":12,"references":[{"code":"IT-0301","program":"pota","name":"Vallone Rossomanno Natura 2000","coordinates":[14.3956,37.4456]},{"code":"IT-0621","program":"pota","name":"Boschi di Piazza Armerina Natura 2000","coordinates":[14.3389,37.4114]},{"code":"I/SI-113","program":"sota","name":"Monte Grottascura","coordinates":[14.401,37.4416]},{"code":"I/SI-124","program":"sota","name":"Rocca di Maggio – Quota 852","coordinates":[14.319,37.3953]},{"code":"I/SI-144","program":"sota","name":"Segnale Ciniotto","coordinates":[14.4273,37.2516]},{"code":"I/SI-160","program":"sota","name":"Monte Navone","coordinates":[14.2909,37.3571]},{"code":"I/SI-170","program":"sota","name":"Monte Polino","coordinates":[14.2564,37.433]},{"code":"I/SI-182","program":"sota","name":"San Cono Sottano – Quota 671","coordinates":[14.3477,37.3012]},{"code":"I/SI-189","program":"sota","name":"Monte Alzacuda","coordinates":[14.265,37.3172]},{"code":"I/SI-202","program":"sota","name":"Monte Formaggio","coordinates":[14.2652,37.272]},{"code":"I/SI-207","program":"sota","name":"Monte della Curma","coordinates":[14.3704,37.2584]},{"code":"I/SI-211","program":"sota","name":"Monte Schinoso","coordinates":[14.257,37.3381]}]}