{"lat":37.25,"lon":-3.5,"programs":["pota","sota"],"count":15,"references":[{"code":"ES-0017","program":"pota","name":"Sierra de Huetor Nature Park","coordinates":[-3.48755,37.2533]},{"code":"ES-0581","program":"pota","name":"Sierra de Arana Natura 2000","coordinates":[-3.4801,37.355]},{"code":"ES-1865","program":"pota","name":"Camino Natural Vía Verde de La Sierra National Recreation Trail","coordinates":[-3.40921,37.487]},{"code":"EA7/GR-016","program":"sota","name":"Peña de la Cruz","coordinates":[-3.4681,37.3337]},{"code":"EA7/GR-017","program":"sota","name":"Los Pelados","coordinates":[-3.4893,37.3269]},{"code":"EA7/GR-050","program":"sota","name":"Majalijar","coordinates":[-3.493,37.3055]},{"code":"EA7/GR-056","program":"sota","name":"Peñón de la Giganta","coordinates":[-3.3958,37.3607]},{"code":"EA7/GR-059","program":"sota","name":"Cerro de Fuencaliente","coordinates":[-3.4457,37.254]},{"code":"EA7/GR-062","program":"sota","name":"Polvorite y la Mora","coordinates":[-3.482,37.27]},{"code":"EA7/GR-063","program":"sota","name":"Pararrayos","coordinates":[-3.4159,37.2687]},{"code":"EA7/GR-066","program":"sota","name":"Calabozo","coordinates":[-3.4402,37.2897]},{"code":"EA7/GR-069","program":"sota","name":"Espinar","coordinates":[-3.4572,37.2676]},{"code":"EA7/GR-085","program":"sota","name":"Cerro de la Mina Grande","coordinates":[-3.3926,37.3078]},{"code":"EA7/GR-101","program":"sota","name":"Alto de la Serrezuela","coordinates":[-3.3579,37.4345]},{"code":"EA7/GR-104","program":"sota","name":"Poyo Alfaro","coordinates":[-3.3163,37.3512]}]}