{"lat":37.25,"lon":-107,"programs":["pota","sota"],"count":13,"references":[{"code":"US-9604","program":"pota","name":"Alberta Park Reservoir State Wildlife Area","coordinates":[-106.765,37.466]},{"code":"W0C/RG-086","program":"sota","name":"Sheep Mountain","coordinates":[-106.902,37.48]},{"code":"W0C/RG-105","program":"sota","name":"Saddle Mountain","coordinates":[-106.958,37.4405]},{"code":"W0C/RG-111","program":"sota","name":"Treasure Mountain","coordinates":[-106.8239,37.4559]},{"code":"W0C/RG-139","program":"sota","name":"10454","coordinates":[-106.8596,37.4206]},{"code":"W0C/RG-169","program":"sota","name":"11820","coordinates":[-106.8162,37.4991]},{"code":"W0C/SJ-012","program":"sota","name":"Alberta Peak","coordinates":[-106.795,37.4559]},{"code":"W0C/SJ-099","program":"sota","name":"Blackhead Peak","coordinates":[-106.7742,37.2889]},{"code":"W0C/SJ-103","program":"sota","name":"Sand Mountain","coordinates":[-106.7755,37.3184]},{"code":"W0C/SJ-109","program":"sota","name":"Coal Benchmark","coordinates":[-106.8259,37.3248]},{"code":"W0C/SJ-111","program":"sota","name":"Squaretop Mountain","coordinates":[-106.8063,37.2585]},{"code":"W0C/SJ-126","program":"sota","name":"9205","coordinates":[-106.9212,37.376]},{"code":"W0C/SJ-132","program":"sota","name":"Jackson Mountain","coordinates":[-106.9827,37.3464]}]}