{"lat":37.25,"lon":139.5,"programs":["sota"],"count":20,"references":[{"code":"JA/FS-026","program":"sota","name":"Hakaseyama","coordinates":[139.7147,37.3632]},{"code":"JA/FS-044","program":"sota","name":"JA/FS-044","coordinates":[139.6277,37.3681]},{"code":"JA/FS-059","program":"sota","name":"Takamoriyama","coordinates":[139.5864,37.4223]},{"code":"JA/FS-064","program":"sota","name":"Kuroiwayama","coordinates":[139.5802,37.2952]},{"code":"JA/FS-066","program":"sota","name":"Oomukaiyama","coordinates":[139.7493,37.4065]},{"code":"JA/FS-081","program":"sota","name":"Near Ichinosawayama","coordinates":[139.5559,37.3279]},{"code":"JA/FS-088","program":"sota","name":"Myouousan","coordinates":[139.6698,37.2937]},{"code":"JA/FS-095","program":"sota","name":"Ootsumayama","coordinates":[139.5367,37.3922]},{"code":"JA/FS-097","program":"sota","name":"Mimatsuyama","coordinates":[139.5753,37.3836]},{"code":"JA/FS-102","program":"sota","name":"Ishikuiyama","coordinates":[139.6866,37.4025]},{"code":"JA/FS-107","program":"sota","name":"Fukairiyama","coordinates":[139.5002,37.4079]},{"code":"JA/FS-123","program":"sota","name":"Maeyama","coordinates":[139.5662,37.4446]},{"code":"JA/FS-124","program":"sota","name":"Misakayama","coordinates":[139.6155,37.4716]},{"code":"JA/FS-130","program":"sota","name":"Souyama","coordinates":[139.558,37.4605]},{"code":"JA/FS-141","program":"sota","name":"Yunotake","coordinates":[139.6838,37.4574]},{"code":"JA/FS-191","program":"sota","name":"Gozengatake","coordinates":[139.675,37.2611]},{"code":"JA/FS-201","program":"sota","name":"Takenoyama","coordinates":[139.728,37.3903]},{"code":"JA/FS-206","program":"sota","name":"Denjyosan","coordinates":[139.5701,37.2563]},{"code":"JA/FS-213","program":"sota","name":"Sarukuragatake","coordinates":[139.7134,37.4172]},{"code":"JA/FS-222","program":"sota","name":"Ishitoriyama","coordinates":[139.6333,37.3085]}]}