{"lat":37.5,"lon":-1.25,"programs":["pota","sota"],"count":14,"references":[{"code":"ES-1418","program":"pota","name":"La Muela, Cabo Tiñoso y Roldán Natura 2000","coordinates":[-1.15,37.5931]},{"code":"ES-1427","program":"pota","name":"Cabezo de Roldan Natura 2000","coordinates":[-1.0403,37.5922]},{"code":"ES-1442","program":"pota","name":"Cabezos del Pericon Natura 2000","coordinates":[-1.1219,37.6703]},{"code":"ES-1446","program":"pota","name":"Sierra de los Victorias Natura 2000","coordinates":[-1.1247,37.7022]},{"code":"ES-2459","program":"pota","name":"Isla de las Palomas Natura 2000","coordinates":[-1.0406,37.5719]},{"code":"ES-2465","program":"pota","name":"La Muela y Cabo Tiñoso Natura 2000","coordinates":[-1.15,37.5931]},{"code":"EA5/MU-038","program":"sota","name":"Peñas Blancas","coordinates":[-1.1537,37.604]},{"code":"EA5/MU-142","program":"sota","name":"La Muela","coordinates":[-1.0965,37.5834]},{"code":"EA5/MU-145","program":"sota","name":"Roldán","coordinates":[-1.041,37.5877]},{"code":"EA5/MU-147","program":"sota","name":"La Alameda","coordinates":[-1.2356,37.6198]},{"code":"EA5/MU-149","program":"sota","name":"Cabezo el Cambrón","coordinates":[-1.1538,37.584]},{"code":"EA5/MU-153","program":"sota","name":"La Picadera","coordinates":[-1.1446,37.5517]},{"code":"EA5/MU-155","program":"sota","name":"El Pericón","coordinates":[-1.1188,37.6779]},{"code":"EA5/MU-163","program":"sota","name":"Castillo de la Atalaya","coordinates":[-1.0092,37.6023]}]}