{"lat":37.5,"lon":14.5,"programs":["gma","pota","sota"],"count":13,"references":[{"code":"IT/SI-1006","program":"gma","name":"Monte Minardo","coordinates":[14.70330048,37.7344017]},{"code":"IT-0293","program":"pota","name":"Vallone di Piano della Corte Natura 2000","coordinates":[14.5042,37.645]},{"code":"IT-1077","program":"pota","name":"Lago di Pozzillo Natura 2000","coordinates":[14.59,37.6506]},{"code":"IT-1743","program":"pota","name":"Monte Chiapparo National Park","coordinates":[14.5471,37.5715]},{"code":"I/SI-056","program":"sota","name":"Monte Sàlici","coordinates":[14.6238,37.7189]},{"code":"I/SI-132","program":"sota","name":"Monte Teja – Agira","coordinates":[14.5301,37.6551]},{"code":"I/SI-154","program":"sota","name":"Monte Iudica","coordinates":[14.6392,37.5045]},{"code":"I/SI-164","program":"sota","name":"Monte Santa Agata","coordinates":[14.5018,37.6348]},{"code":"I/SI-168","program":"sota","name":"Centuripe – Quota 733","coordinates":[14.7416,37.6206]},{"code":"I/SI-178","program":"sota","name":"Monte Callo","coordinates":[14.6788,37.6533]},{"code":"I/SI-222","program":"sota","name":"Monte Scalpello","coordinates":[14.6538,37.5488]},{"code":"I/SI-243","program":"sota","name":"La Montagna","coordinates":[14.5605,37.5027]},{"code":"I/SI-249","program":"sota","name":"Monte San Giovanni","coordinates":[14.71,37.5011]}]}