{"lat":37.5,"lon":-79.75,"programs":["pota","sota"],"count":14,"references":[{"code":"US-3972","program":"pota","name":"Natural Bridge State Park","coordinates":[-79.5452,37.6289]},{"code":"US-5518","program":"pota","name":"Moore's Creek State Forest","coordinates":[-79.655,37.7436]},{"code":"US-9904","program":"pota","name":"Apple Orchard Falls National Recreation Trail","coordinates":[-79.5531,37.5297]},{"code":"US-9906","program":"pota","name":"Cornelius Creek National Recreation Trail","coordinates":[-79.5358,37.507]},{"code":"W4V/FC-010","program":"sota","name":"Sugarloaf Mountain","coordinates":[-79.6948,37.658]},{"code":"W4V/FC-012","program":"sota","name":"North Mountain","coordinates":[-79.6782,37.7469]},{"code":"W4V/FC-017","program":"sota","name":"Short Hills HP","coordinates":[-79.643,37.6237]},{"code":"W4V/FC-026","program":"sota","name":"Purgatory Mountain","coordinates":[-79.6891,37.5623]},{"code":"W4V/FC-032","program":"sota","name":"Biggs Mountain","coordinates":[-79.6854,37.7121]},{"code":"W4V/FC-040","program":"sota","name":"Knob, The","coordinates":[-79.6648,37.597]},{"code":"W4V/FC-051","program":"sota","name":"2042","coordinates":[-79.6035,37.5339]},{"code":"W4V/FC-052","program":"sota","name":"1708","coordinates":[-79.6897,37.5052]},{"code":"W4V/LX-073","program":"sota","name":"Furnace Mountain","coordinates":[-79.5163,37.5962]},{"code":"W4V/RA-001","program":"sota","name":"Apple Orchard Mountain","coordinates":[-79.5103,37.5172]}]}