{"lat":37.5,"lon":-120,"programs":["pota","sota"],"count":9,"references":[{"code":"US-0201","program":"pota","name":"Merced National Wild and Scenic River","coordinates":[-119.967,37.605]},{"code":"W6/SN-044","program":"sota","name":"Trumbull Peak","coordinates":[-119.8614,37.6878]},{"code":"W6/SS-427","program":"sota","name":"Pinoche Peak","coordinates":[-119.7757,37.6347]},{"code":"W6/SS-450","program":"sota","name":"Big Grizzly Mountain","coordinates":[-119.8957,37.7181]},{"code":"W6/SS-462","program":"sota","name":"Sweetwater Point","coordinates":[-119.8854,37.5699]},{"code":"W6/SS-464","program":"sota","name":"Snyder Ridge","coordinates":[-119.8399,37.5857]},{"code":"W6/SS-482","program":"sota","name":"3871","coordinates":[-119.9501,37.5513]},{"code":"W6/SS-642","program":"sota","name":"Feliciana Mountain","coordinates":[-119.9191,37.594]},{"code":"W6/SS-646","program":"sota","name":"3679","coordinates":[-119.8679,37.6516]}]}