{"lat":37.5,"lon":139.5,"programs":["gma","sota"],"count":13,"references":[{"code":"XJA/FS-159","program":"gma","name":"Hinatakurayama","coordinates":[139.6664,37.5052]},{"code":"JA/FS-054","program":"sota","name":"Takamoriyama","coordinates":[139.6586,37.7462]},{"code":"JA/FS-080","program":"sota","name":"Kurootokoyama","coordinates":[139.6032,37.5096]},{"code":"JA/FS-093","program":"sota","name":"Ookurayama","coordinates":[139.5689,37.5447]},{"code":"JA/FS-094","program":"sota","name":"Toyamorisan","coordinates":[139.7271,37.7364]},{"code":"JA/FS-135","program":"sota","name":"Iitaniyama","coordinates":[139.6858,37.529]},{"code":"JA/FS-149","program":"sota","name":"Tsuchiuzumiyama","coordinates":[139.5466,37.6259]},{"code":"JA/FS-162","program":"sota","name":"Toyasan","coordinates":[139.7097,37.5845]},{"code":"JA/NI-058","program":"sota","name":"Bougakeyama","coordinates":[139.5026,37.7457]},{"code":"JA/NI-089","program":"sota","name":"Usangakurayama","coordinates":[139.5435,37.6838]},{"code":"JA/NI-167","program":"sota","name":"Takaitouge","coordinates":[139.6001,37.7288]},{"code":"JA/NI-172","program":"sota","name":"JA/NI-172","coordinates":[139.5269,37.6922]},{"code":"JA/NI-180","program":"sota","name":"Mochikurayama","coordinates":[139.5093,37.672]}]}