{"lat":37.5,"lon":14.25,"programs":["pota","sota"],"count":13,"references":[{"code":"IT-0141","program":"pota","name":"Lago di Pergusa Natura 2000","coordinates":[14.3047,37.5128]},{"code":"IT-0316","program":"pota","name":"Monte Altesina Natura 2000","coordinates":[14.29,37.6633]},{"code":"IT-1153","program":"pota","name":"Bosco di Sperlinga, Alto Salso Natura 2000","coordinates":[14.3269,37.7381]},{"code":"IT-1741","program":"pota","name":"Monte Zimmara (Gangi) Natura 2000","coordinates":[14.2533,37.7492]},{"code":"I/SI-047","program":"sota","name":"Monte Altesina","coordinates":[14.2969,37.6722]},{"code":"I/SI-090","program":"sota","name":"Torre Pisana","coordinates":[14.2881,37.5678]},{"code":"I/SI-106","program":"sota","name":"Monte Carangiaro","coordinates":[14.2884,37.5024]},{"code":"I/SI-109","program":"sota","name":"Castello Assoro","coordinates":[14.4267,37.6267]},{"code":"I/SI-114","program":"sota","name":"Xibet – Calascibetta","coordinates":[14.2738,37.5902]},{"code":"I/SI-117","program":"sota","name":"Monte Bruchito","coordinates":[14.2542,37.5439]},{"code":"I/SI-121","program":"sota","name":"Monte Salerno","coordinates":[14.3121,37.5371]},{"code":"I/SI-127","program":"sota","name":"Pizzo della Nebbia","coordinates":[14.4469,37.6343]},{"code":"I/SI-193","program":"sota","name":"Cozzo Campana","coordinates":[14.375,37.5806]}]}