{"lat":37.5,"lon":22.75,"programs":["pota","sota"],"count":6,"references":[{"code":"GR-0142","program":"pota","name":"Maliza-Tourneza (Arachnaiou-Mideas) National Wildlife Refuge","coordinates":[22.8971,37.6558]},{"code":"GR-0156","program":"pota","name":"Profitis Ilias- Delokormo (Mykinon) National Wildlife Refuge","coordinates":[22.7862,37.7018]},{"code":"SV/PL-055","program":"sota","name":"Lekka","coordinates":[22.928888,37.74861]},{"code":"SV/PL-056","program":"sota","name":"Trapezona","coordinates":[22.974167,37.71472]},{"code":"SV/PL-057","program":"sota","name":"Arachnaio","coordinates":[22.969166,37.640556]},{"code":"SV/PL-094","program":"sota","name":"Tsakali","coordinates":[22.849445,37.530277]}]}