{"lat":37.5,"lon":140.75,"programs":["pota","sota"],"count":10,"references":[{"code":"JP-1102","program":"pota","name":"Azumagaoka Prefectural Park","coordinates":[140.969,37.6313]},{"code":"JA/FS-142","program":"sota","name":"Kotayuuyama","coordinates":[140.8031,37.5958]},{"code":"JA/FS-147","program":"sota","name":"Yadakeyama","coordinates":[140.7538,37.6636]},{"code":"JA/FS-154","program":"sota","name":"Ooashiyama","coordinates":[140.832,37.6601]},{"code":"JA/FS-156","program":"sota","name":"Notegamiyama","coordinates":[140.8064,37.6413]},{"code":"JA/FS-161","program":"sota","name":"Murohara","coordinates":[140.8652,37.6451]},{"code":"JA/FS-167","program":"sota","name":"Kuziraishi","coordinates":[140.8747,37.6828]},{"code":"JA/FS-223","program":"sota","name":"Nakanomoriyama","coordinates":[140.7624,37.5413]},{"code":"JA/FS-246","program":"sota","name":"Jyumankou","coordinates":[140.8771,37.6552]},{"code":"JA/FS-249","program":"sota","name":"JA/FS-249","coordinates":[140.8844,37.7053]}]}