{"lat":37.5,"lon":22,"programs":["pota","sota"],"count":12,"references":[{"code":"GR-0145","program":"pota","name":"Arkoudorema Chaliki (Pianas-Chrysovitsiou) National Wildlife Refuge","coordinates":[22.1889,37.5801]},{"code":"SV/PL-016","program":"sota","name":"Klinitsa","coordinates":[22.083334,37.567223]},{"code":"SV/PL-022","program":"sota","name":"Gelati","coordinates":[22.223333,37.646946]},{"code":"SV/PL-100","program":"sota","name":"Kalogria","coordinates":[22.001389,37.529724]},{"code":"SV/PL-113","program":"sota","name":"Vithulas","coordinates":[22.143888,37.746944]},{"code":"SV/PL-119","program":"sota","name":"Prof. Ilias","coordinates":[22.193056,37.630867]},{"code":"SV/PL-120","program":"sota","name":"Xerovuni","coordinates":[22.129723,37.6125]},{"code":"SV/PL-121","program":"sota","name":"Pliovuni","coordinates":[22.109444,37.586113]},{"code":"SV/PL-122","program":"sota","name":"Madara","coordinates":[22.139166,37.640556]},{"code":"SV/PL-123","program":"sota","name":"Mesovuni","coordinates":[22.23889,37.679165]},{"code":"SV/PL-157","program":"sota","name":"Prof. Ilias","coordinates":[22.239445,37.73611]},{"code":"SV/PL-159","program":"sota","name":"Psilo Vuno","coordinates":[22.09361,37.680832]}]}