{"lat":37.5,"lon":-2.25,"programs":["gma","sota"],"count":12,"references":[{"code":"EC/AL-001","program":"gma","name":"Saliente","coordinates":[-2.16269994,37.53620148]},{"code":"EA7/AL-005","program":"sota","name":"Cerro Poyo","coordinates":[-2.2001,37.6748]},{"code":"EA7/AL-007","program":"sota","name":"Maimón","coordinates":[-2.134,37.6679]},{"code":"EA7/AL-010","program":"sota","name":"Muela de Montalviche","coordinates":[-2.0339,37.7149]},{"code":"EA7/AL-030","program":"sota","name":"Alto del Mojonar","coordinates":[-2.2217,37.6401]},{"code":"EA7/AL-031","program":"sota","name":"Morrón de Caparrós","coordinates":[-2.1537,37.5452]},{"code":"EA7/AL-035","program":"sota","name":"Estancias","coordinates":[-2.0702,37.5871]},{"code":"EA7/AL-044","program":"sota","name":"Peñón de la Chaparra","coordinates":[-2.1786,37.515]},{"code":"EA7/AL-046","program":"sota","name":"Roza","coordinates":[-2.2234,37.507]},{"code":"EA7/AL-047","program":"sota","name":"Cerro Gordo","coordinates":[-2.0749,37.7407]},{"code":"EA7/AL-050","program":"sota","name":"Álamo","coordinates":[-2.1706,37.6082]},{"code":"EA7/AL-060","program":"sota","name":"Cerro la Alfesta","coordinates":[-2.0984,37.6317]}]}