{"lat":37.5,"lon":-107,"programs":["pota","sota"],"count":10,"references":[{"code":"US-9614","program":"pota","name":"Big Meadows Reservoir State Wildlife Area","coordinates":[-106.798,37.5329]},{"code":"W0C/RG-040","program":"sota","name":"South River Peak","coordinates":[-106.9817,37.5741]},{"code":"W0C/RG-054","program":"sota","name":"Fisher Mountain","coordinates":[-106.9375,37.6569]},{"code":"W0C/RG-057","program":"sota","name":"Mount Hope","coordinates":[-106.8706,37.5435]},{"code":"W0C/RG-062","program":"sota","name":"Beautiful Mountain","coordinates":[-106.9274,37.6174]},{"code":"W0C/RG-084","program":"sota","name":"Borns Benchmark","coordinates":[-106.895,37.5044]},{"code":"W0C/RG-107","program":"sota","name":"Snowshoe Mountain","coordinates":[-106.9013,37.7497]},{"code":"W0C/RG-109","program":"sota","name":"Cooper Mountain","coordinates":[-106.8852,37.6996]},{"code":"W0C/RG-110","program":"sota","name":"Trout Mountain","coordinates":[-106.792,37.6631]},{"code":"W0C/RG-125","program":"sota","name":"Elk Mountain","coordinates":[-106.7778,37.7103]}]}