{"lat":37.5,"lon":140,"programs":["gma","pota","sota"],"count":19,"references":[{"code":"XJA/FS-005","program":"gma","name":"Nakaagatsumayama","coordinates":[140.1857,37.7156]},{"code":"JP-1105","program":"pota","name":"Aizu Recreation Prefectural Park","coordinates":[140.018,37.515]},{"code":"JP-1871","program":"pota","name":"Showa-no-mori Prefectural Park","coordinates":[140.07,37.5752]},{"code":"JA/FS-003","program":"sota","name":"Nishiadumayama","coordinates":[140.1408,37.7382]},{"code":"JA/FS-004","program":"sota","name":"Higashiadumayama","coordinates":[140.2303,37.7117]},{"code":"JA/FS-009","program":"sota","name":"Bandaisan","coordinates":[140.0723,37.601]},{"code":"JA/FS-032","program":"sota","name":"Kawagetayama","coordinates":[140.1771,37.5581]},{"code":"JA/FS-033","program":"sota","name":"Nekomagatake","coordinates":[140.0283,37.6116]},{"code":"JA/FS-036","program":"sota","name":"Ootakiyama","coordinates":[140.2012,37.5574]},{"code":"JA/FS-046","program":"sota","name":"Shirabuyama","coordinates":[140.1344,37.6462]},{"code":"JA/FS-050","program":"sota","name":"Nunomoriyama","coordinates":[140.1942,37.5987]},{"code":"JA/FS-055","program":"sota","name":"Hachimoriyama","coordinates":[140.0241,37.6915]},{"code":"JA/FS-060","program":"sota","name":"Hikageyama","coordinates":[140.2201,37.6005]},{"code":"JA/FS-174","program":"sota","name":"Issaikyozan","coordinates":[140.2443,37.7354]},{"code":"JA/FS-175","program":"sota","name":"Azumayama","coordinates":[140.1872,37.7246]},{"code":"JA/FS-180","program":"sota","name":"Kushigamine","coordinates":[140.0855,37.6097]},{"code":"JA/FS-190","program":"sota","name":"Takamoriyama","coordinates":[140.227,37.6578]},{"code":"JA/FS-216","program":"sota","name":"Kurateyama","coordinates":[140.1895,37.501]},{"code":"JA/FS-238","program":"sota","name":"Kenbunyama","coordinates":[140.2306,37.502]}]}