{"lat":37.5,"lon":128,"programs":["pota","sota"],"count":22,"references":[{"code":"KR-1203","program":"pota","name":"횡성댐물문화관(수림공원)\tHoengseongdaem Mulmunhwagwan (Surim) Ecological Park","coordinates":[128.033,37.5456]},{"code":"KR-1204","program":"pota","name":"둔내종합체육공원\tDunae Sports Recreation Park","coordinates":[128.214,37.5169]},{"code":"HL/GW-162","program":"sota","name":"발교산 (Balgyosan)","coordinates":[128.1149,37.6549]},{"code":"HL/GW-171","program":"sota","name":"운무산 (Unmusan)","coordinates":[128.2024,37.6502]},{"code":"HL/GW-181","program":"sota","name":"수리봉 (Suribong)","coordinates":[128.137,37.681]},{"code":"HL/GW-195","program":"sota","name":"병무산 (Byeongmusan)","coordinates":[128.0999,37.641]},{"code":"HL/GW-213","program":"sota","name":"공작산 (Gongjaksan)","coordinates":[128.01,37.7158]},{"code":"HL/GW-217","program":"sota","name":"대학산 (Daehaksan)","coordinates":[128.0848,37.6741]},{"code":"HL/GW-222","program":"sota","name":"응봉산 (Eungbongsan)","coordinates":[128.0941,37.7079]},{"code":"HL/GW-253","program":"sota","name":"HL/GW-253","coordinates":[128.1313,37.7082]},{"code":"HL/GW-258","program":"sota","name":"어답산 (Eodapsan)","coordinates":[128.0706,37.5835]},{"code":"HL/GW-283","program":"sota","name":"동막산 (Dongmaksan)","coordinates":[128.1566,37.7085]},{"code":"HL/GW-291","program":"sota","name":"HL/GW-291","coordinates":[128.1941,37.5196]},{"code":"HL/GW-295","program":"sota","name":"HL/GW-295","coordinates":[128.2278,37.6741]},{"code":"HL/GW-310","program":"sota","name":"태의산 (Taeuisan)","coordinates":[128.0526,37.6308]},{"code":"HL/GW-314","program":"sota","name":"HL/GW-314","coordinates":[128.0771,37.6474]},{"code":"HL/GW-315","program":"sota","name":"HL/GW-315","coordinates":[128.1301,37.7333]},{"code":"HL/GW-316","program":"sota","name":"덕구산 (Deokgusan)","coordinates":[128.0409,37.6583]},{"code":"HL/GW-341","program":"sota","name":"HL/GW-341","coordinates":[128.025,37.5808]},{"code":"HL/GW-350","program":"sota","name":"구리봉 (Guribong)","coordinates":[128.0952,37.5608]},{"code":"HL/GW-365","program":"sota","name":"국사봉 (Guksabong)","coordinates":[128.0465,37.5182]},{"code":"HL/GW-366","program":"sota","name":"HL/GW-366","coordinates":[128.0888,37.5241]}]}