{"lat":37.5,"lon":140.25,"programs":["pota","sota"],"count":9,"references":[{"code":"JP-1089","program":"pota","name":"Kasumigajo Prefectural Nature Park","coordinates":[140.429,37.5991]},{"code":"JP-1099","program":"pota","name":"Azuma Sports Prefectural Park","coordinates":[140.36,37.7201]},{"code":"JP-1870","program":"pota","name":"Forest Park Adatara Prefectural Park","coordinates":[140.329,37.5815]},{"code":"JA/FS-010","program":"sota","name":"Takayama","coordinates":[140.2575,37.7006]},{"code":"JA/FS-012","program":"sota","name":"Minowayama","coordinates":[140.2809,37.6471]},{"code":"JA/FS-133","program":"sota","name":"Moriyayama","coordinates":[140.2989,37.539]},{"code":"JA/FS-138","program":"sota","name":"Uguisudan","coordinates":[140.2848,37.5229]},{"code":"JA/FS-155","program":"sota","name":"Takamatsuyama","coordinates":[140.3177,37.5225]},{"code":"JA/FS-163","program":"sota","name":"Oonagurayama","coordinates":[140.3551,37.5157]}]}