{"lat":37.75,"lon":139.75,"programs":["pota","sota"],"count":12,"references":[{"code":"JP-1864","program":"pota","name":"Genryu-no-mori Prefectural Park","coordinates":[139.899,37.9256]},{"code":"JA/FS-018","program":"sota","name":"Iimorisan","coordinates":[139.9256,37.8138]},{"code":"JA/FS-186","program":"sota","name":"Daidukayama","coordinates":[139.847,37.8205]},{"code":"JA/FS-215","program":"sota","name":"JA/FS-215","coordinates":[139.7753,37.7675]},{"code":"JA/YM-054","program":"sota","name":"Bunatsubureyama","coordinates":[139.812,37.912]},{"code":"JA/YM-077","program":"sota","name":"Dashigamine","coordinates":[139.8996,37.9891]},{"code":"JA/YM-087","program":"sota","name":"Obatayama","coordinates":[139.9243,37.9401]},{"code":"JA/YM-095","program":"sota","name":"Near Toudou","coordinates":[139.9264,37.967]},{"code":"JA/YM-121","program":"sota","name":"Takakurayama","coordinates":[139.984,37.8256]},{"code":"JA/YM-123","program":"sota","name":"Tatsunosawa","coordinates":[139.8428,37.8387]},{"code":"JA/YM-133","program":"sota","name":"Kakezuriyama","coordinates":[139.7621,37.954]},{"code":"JA/YM-138","program":"sota","name":"Near Shigematsuyama","coordinates":[139.7895,37.9605]}]}