{"lat":37.75,"lon":127.75,"programs":["pota","sota"],"count":15,"references":[{"code":"KR-0236","program":"pota","name":"국립춘천숲체원\tChuncheon Healing National Forest","coordinates":[127.773,37.9911]},{"code":"KR-0931","program":"pota","name":"석사공원\tSeoksa Neighborhood Provincial Park","coordinates":[127.753,37.8647]},{"code":"HL/GW-137","program":"sota","name":"가리산 (Garisan)","coordinates":[127.9564,37.8714]},{"code":"HL/GW-198","program":"sota","name":"HL/GW-198","coordinates":[127.907,37.8508]},{"code":"HL/GW-206","program":"sota","name":"대룡산 (Daeryongsan)","coordinates":[127.8215,37.8451]},{"code":"HL/GW-228","program":"sota","name":"바위산 (Bawisan)","coordinates":[127.9679,37.9567]},{"code":"HL/GW-232","program":"sota","name":"연엽산 (Yeonyeopsan)","coordinates":[127.8251,37.7984]},{"code":"HL/GW-275","program":"sota","name":"구절산 (Gujeolsan)","coordinates":[127.8315,37.7731]},{"code":"HL/GW-281","program":"sota","name":"봉화산 (Bonghwasan)","coordinates":[127.8418,37.967]},{"code":"HL/GW-284","program":"sota","name":"대동봉 (Daedongbong)","coordinates":[127.9777,37.9949]},{"code":"HL/GW-296","program":"sota","name":"HL/GW-296","coordinates":[127.8302,37.904]},{"code":"HL/GW-312","program":"sota","name":"HL/GW-312","coordinates":[127.9166,37.9887]},{"code":"HL/GW-339","program":"sota","name":"HL/GW-339","coordinates":[127.871,37.9706]},{"code":"HL/GW-340","program":"sota","name":"HL/GW-340","coordinates":[127.9349,37.9338]},{"code":"HL/GW-385","program":"sota","name":"HL/GW-385","coordinates":[127.8782,37.9418]}]}