{"lat":37.75,"lon":-1,"programs":["gma","pota","sota"],"count":8,"references":[{"code":"EC/CV-216","program":"gma","name":"Escalona","coordinates":[-0.9157888,37.9488667]},{"code":"EC/CV-217","program":"gma","name":"El Cejo","coordinates":[-0.93569993,37.99014171]},{"code":"ES-0243","program":"pota","name":"Salinas y Arenales de San Pedro del Pinatar Regional Park","coordinates":[-0.767038,37.833]},{"code":"ES-1416","program":"pota","name":"Cabezo Gordo Natura 2000","coordinates":[-0.9058,37.8031]},{"code":"ES-0971","program":"pota","name":"Sierra de Escalona y Dehesa de Campoamor Natura 2000","coordinates":[-0.8325,37.9353]},{"code":"EA5/AT-102","program":"sota","name":"El Cejo","coordinates":[-0.9357,37.9901]},{"code":"EA5/MU-143","program":"sota","name":"Sierra de Altaona","coordinates":[-0.9995,37.9263]},{"code":"EA5/MU-160","program":"sota","name":"Cabezo Gordo","coordinates":[-0.908,37.8017]}]}