{"lat":37.75,"lon":102.5,"programs":["pota"],"count":7,"references":[{"code":"CN-0337","program":"pota","name":"甘肃武威天马湖公园 Regional Park","coordinates":[102.658,37.9388]},{"code":"CN-0338","program":"pota","name":"甘肃武威汉唐天马城景区 Regional Park","coordinates":[102.645,37.9421]},{"code":"CN-0339","program":"pota","name":"甘肃武威凉州植物园 Botanical Gardens","coordinates":[102.651,37.9308]},{"code":"CN-0340","program":"pota","name":"甘肃武威西郊公园 Regional Park","coordinates":[102.618,37.931]},{"code":"CN-0341","program":"pota","name":"甘肃武威海藏湿地公园 Regional Park","coordinates":[102.618,37.9498]},{"code":"CN-0342","program":"pota","name":"甘肃省武威市白塔寺遗址（凉州会盟纪念馆） Historic Site","coordinates":[102.736,37.7654]},{"code":"CN-0343","program":"pota","name":"甘肃武威市武威文庙 Provincial Park","coordinates":[102.642,37.9244]}]}