{"lat":37.75,"lon":127,"programs":["pota","sota"],"count":24,"references":[{"code":"KR-0070","program":"pota","name":"광릉숲유네스코생물권보전지역\tGwangneung Forest Biosphere Reserve","coordinates":[127.166,37.7548]},{"code":"KR-0148","program":"pota","name":"청성역사공원\tCheongseong National Historic Site","coordinates":[127.21,37.8926]},{"code":"KR-0364","program":"pota","name":"소요산\tSoyosan Mountain Provincial Park","coordinates":[127.088,37.9381]},{"code":"KR-0399","program":"pota","name":"화봉산공원\tHwabongsan Mountain Provincial Park","coordinates":[127.176,37.8416]},{"code":"KR-0834","program":"pota","name":"독바위공원\tDokbawi Neighborhood Provincial Park","coordinates":[127.076,37.8242]},{"code":"KR-0927","program":"pota","name":"생연공원\tSaengyeon Neighborhood Provincial Park","coordinates":[127.064,37.9026]},{"code":"KR-0932","program":"pota","name":"선돌공원\tSundol Neighborhood Provincial Park","coordinates":[127.087,37.8229]},{"code":"KR-1005","program":"pota","name":"옥정호수공원\tOkjeong Lake Provincial Park","coordinates":[127.097,37.8237]},{"code":"KR-1100","program":"pota","name":"태봉근린공원\tTeabong Neighborhood Provincial Park","coordinates":[127.144,37.8331]},{"code":"KR-1196","program":"pota","name":"나리공원\tNari Neighborhood Provincial Park","coordinates":[127.084,37.787]},{"code":"KR-1248","program":"pota","name":"회암사지\tHoeamsa Temple Historic Site","coordinates":[127.105,37.8453]},{"code":"HL/GG-023","program":"sota","name":"국사봉 (Guksabong)","coordinates":[127.1468,37.9132]},{"code":"HL/GG-024","program":"sota","name":"왕방산 (Wangbangsan)","coordinates":[127.1562,37.8958]},{"code":"HL/GG-038","program":"sota","name":"해룡산 (Haeryongsan)","coordinates":[127.129,37.8742]},{"code":"HL/GG-051","program":"sota","name":"죽엽산 (Jugyeopsan)","coordinates":[127.1827,37.7846]},{"code":"HL/GG-058","program":"sota","name":"종현산 (Jonghyeonsan)","coordinates":[127.1229,37.9798]},{"code":"HL/GG-059","program":"sota","name":"마차산 (Machasan)","coordinates":[127.0277,37.9432]},{"code":"HL/GG-060","program":"sota","name":"소요산 (Soyosan)","coordinates":[127.0878,37.9381]},{"code":"HL/GG-085","program":"sota","name":"칠봉산 (Chilbongsan)","coordinates":[127.094,37.8697]},{"code":"HL/GG-100","program":"sota","name":"불곡산 (Bulgoksan)","coordinates":[127.0262,37.7991]},{"code":"HL/GG-101","program":"sota","name":"홍복산 (Hongboksan)","coordinates":[127.0026,37.7631]},{"code":"HL/GG-111","program":"sota","name":"도락산 (Doraksan)","coordinates":[127.0203,37.8275]},{"code":"HL/GG-131","program":"sota","name":"고모리산성 (Gomorisanseong)","coordinates":[127.1579,37.7893]},{"code":"HL/GG-140","program":"sota","name":"서운동산 (Seoundongsan)","coordinates":[127.2134,37.7709]}]}