{"lat":37.75,"lon":-110.75,"programs":["pota","sota"],"count":8,"references":[{"code":"US-5861","program":"pota","name":"Little Rockies BLM Wilderness Area","coordinates":[-110.559,37.8209]},{"code":"US-11012","program":"pota","name":"Mt. Hillers BLM Recreation Management Area","coordinates":[-110.687,37.8909]},{"code":"US-11737","program":"pota","name":"Starr Spring BLM Recreation Management Area","coordinates":[-110.663,37.849]},{"code":"W7U/GA-012","program":"sota","name":"Cass Creek Peak","coordinates":[-110.7112,37.9067]},{"code":"W7U/GA-031","program":"sota","name":"Cocks Comb","coordinates":[-110.631,37.8979]},{"code":"W7U/GA-057","program":"sota","name":"Freds Ridge","coordinates":[-110.6048,37.7825]},{"code":"W7U/SU-022","program":"sota","name":"Hillers Mount","coordinates":[-110.6969,37.8873]},{"code":"W7U/SU-042","program":"sota","name":"Holmes Mount","coordinates":[-110.5831,37.7976]}]}