{"lat":37.75,"lon":-3,"programs":["pota","sota"],"count":16,"references":[{"code":"ES-0014","program":"pota","name":"Sierra de Castril Nature Park","coordinates":[-2.75796,37.8828]},{"code":"ES-1610","program":"pota","name":"Laguna de Valdeazores Wetland Reserve","coordinates":[-2.8193,37.9536]},{"code":"ES-2031","program":"pota","name":"Sierra de Cazorla, Segura y las Villas Biosphere Reserve","coordinates":[-2.94712,37.8889]},{"code":"EA7/GR-012","program":"sota","name":"Empanada","coordinates":[-2.7874,37.9129]},{"code":"EA7/GR-044","program":"sota","name":"Buitre","coordinates":[-2.8128,37.8566]},{"code":"EA7/GR-045","program":"sota","name":"La Carrasca","coordinates":[-2.7675,37.9194]},{"code":"EA7/GR-103","program":"sota","name":"Peña de Quesada","coordinates":[-2.8748,37.7781]},{"code":"EA7/JA-005","program":"sota","name":"Cabañas","coordinates":[-2.9554,37.8118]},{"code":"EA7/JA-011","program":"sota","name":"Gilillo","coordinates":[-2.9939,37.8694]},{"code":"EA7/JA-039","program":"sota","name":"Tejos","coordinates":[-2.8288,37.8372]},{"code":"EA7/JA-040","program":"sota","name":"Villalta","coordinates":[-2.9856,37.8175]},{"code":"EA7/JA-045","program":"sota","name":"Cerro de Enmedio","coordinates":[-2.832,37.9251]},{"code":"EA7/JA-047","program":"sota","name":"Alcañetes","coordinates":[-2.8513,37.9271]},{"code":"EA7/JA-049","program":"sota","name":"Lancha de la Media Hanega","coordinates":[-2.9058,37.8802]},{"code":"EA7/JA-054","program":"sota","name":"Navillas de la Cabeza","coordinates":[-2.8851,37.9026]},{"code":"EA7/JA-062","program":"sota","name":"Pico del Caballo","coordinates":[-2.8641,37.8888]}]}