{"lat":37.75,"lon":140.75,"programs":["pota","sota"],"count":8,"references":[{"code":"JP-1093","program":"pota","name":"Matsukawaura Prefectural Nature Park","coordinates":[140.976,37.7981]},{"code":"JP-1872","program":"pota","name":"Rachihama Bosai Ryokuchi Prefectural Park","coordinates":[140.932,37.8871]},{"code":"JP-1873","program":"pota","name":"Haragamaobama Bosai Ryokuchi Prefectural Park","coordinates":[140.956,37.8313]},{"code":"JA/FS-152","program":"sota","name":"Tekurayama","coordinates":[140.7932,37.8005]},{"code":"JA/FS-166","program":"sota","name":"Karousan","coordinates":[140.8615,37.8616]},{"code":"JA/FS-169","program":"sota","name":"Jizoumori","coordinates":[140.8598,37.8887]},{"code":"JA/FS-248","program":"sota","name":"Gosyadan","coordinates":[140.8619,37.8798]},{"code":"JA/MG-089","program":"sota","name":"Kagekurayama(Oomorizan)","coordinates":[140.8562,37.9289]}]}