{"lat":37.75,"lon":127.25,"programs":["pota","sota"],"count":18,"references":[{"code":"KR-0041","program":"pota","name":"연인산도립공원 Provincial Park","coordinates":[127.414,37.8988]},{"code":"KR-0226","program":"pota","name":"국립운악산자연휴양림\tUnaksan Nature Recreation National Forest","coordinates":[127.303,37.8845]},{"code":"KR-0621","program":"pota","name":"호명호수공원\tHomyeong Lake Provincial Ecological Park","coordinates":[127.459,37.7658]},{"code":"KR-0654","program":"pota","name":"축령산자연휴양림\tChungnyeongsan Recreational Forest Provincial Park","coordinates":[127.316,37.7537]},{"code":"HL/GG-001","program":"sota","name":"명지산 (Myeongjisan)","coordinates":[127.4325,37.9412]},{"code":"HL/GG-004","program":"sota","name":"연인산 (Yeoninsan)","coordinates":[127.4147,37.8988]},{"code":"HL/GG-005","program":"sota","name":"귀목봉 (Gwimokbong)","coordinates":[127.3975,37.944]},{"code":"HL/GG-007","program":"sota","name":"운악산 (Unaksan)","coordinates":[127.3251,37.8773]},{"code":"HL/GG-008","program":"sota","name":"매봉 (Maebong)","coordinates":[127.4158,37.8569]},{"code":"HL/GG-009","program":"sota","name":"칼봉산 (Kalbongsan)","coordinates":[127.4427,37.8616]},{"code":"HL/GG-010","program":"sota","name":"축령산 (Chungnyeongsan)","coordinates":[127.3338,37.7527]},{"code":"HL/GG-014","program":"sota","name":"노적봉 (Nojeokbong)","coordinates":[127.4792,37.8815]},{"code":"HL/GG-018","program":"sota","name":"주금산 (Jugeumsan)","coordinates":[127.2679,37.7843]},{"code":"HL/GG-028","program":"sota","name":"수원산 (Suwonsan)","coordinates":[127.2532,37.8448]},{"code":"HL/GG-053","program":"sota","name":"불기산 (Bulgisan)","coordinates":[127.4529,37.803]},{"code":"HL/GG-054","program":"sota","name":"곰넘이봉 (Gomneomibong)","coordinates":[127.3007,37.9811]},{"code":"HL/GG-137","program":"sota","name":"녹수봉 (Noksubong)","coordinates":[127.3879,37.7774]},{"code":"HL/GG-176","program":"sota","name":"서리산 (Seorisan)","coordinates":[127.31558,37.76847]}]}