{"lat":37.75,"lon":-6.75,"programs":["pota","sota"],"count":6,"references":[{"code":"ES-0011","program":"pota","name":"Sierra de Aracena y Picos de Aroche Nature Park","coordinates":[-6.5889,37.9526]},{"code":"EA7/HU-001","program":"sota","name":"Castaño","coordinates":[-6.6912,37.8916]},{"code":"EA7/HU-007","program":"sota","name":"Navahermosa","coordinates":[-6.6695,37.935]},{"code":"EA7/HU-013","program":"sota","name":"La Giralda","coordinates":[-6.6708,37.8532]},{"code":"EA7/HU-014","program":"sota","name":"Sierra del Pico","coordinates":[-6.6878,37.8532]},{"code":"EA7/HU-018","program":"sota","name":"Granalejo","coordinates":[-6.522,37.7544]}]}