{"lat":37.75,"lon":-122,"programs":["pota","sota"],"count":8,"references":[{"code":"US-1176","program":"pota","name":"Mount Diablo State Park","coordinates":[-121.949,37.8438]},{"code":"W6/CC-045","program":"sota","name":"Mount Diablo","coordinates":[-121.9142,37.8817]},{"code":"W6/CC-051","program":"sota","name":"North Peak","coordinates":[-121.9003,37.893]},{"code":"W6/NC-190","program":"sota","name":"Marsh Benchmark","coordinates":[-121.8085,37.8143]},{"code":"W6/NC-300","program":"sota","name":"Kreiger Peak","coordinates":[-121.8831,37.9416]},{"code":"W6/NC-323","program":"sota","name":"Black Point","coordinates":[-121.9589,37.9121]},{"code":"W6/NC-499","program":"sota","name":"Windy Point","coordinates":[-121.8756,37.8532]},{"code":"W6/NC-524","program":"sota","name":"Mulligan Hill","coordinates":[-121.9357,37.9817]}]}