{"lat":37.75,"lon":-25.5,"programs":["pota","sota"],"count":7,"references":[{"code":"PT-0165","program":"pota","name":"Reserva Natural da Lagoa do Fogo Nature Reserve","coordinates":[-25.4805,37.7606]},{"code":"PT-0172","program":"pota","name":"Reserva Florestal de Recreio das do Viveiro das Furnas Forest Reserve","coordinates":[-25.305,37.7802]},{"code":"PT-0179","program":"pota","name":"Parque Natural dos Caldeiroes Nature Park","coordinates":[-25.2697,37.8426]},{"code":"PT-0184","program":"pota","name":"Parque Terra Nostra Nature Park","coordinates":[-25.3031,37.7813]},{"code":"CU/SM-002","program":"sota","name":"Pico da Barrosa","coordinates":[-25.49144,37.76043]},{"code":"CU/SM-003","program":"sota","name":"Monte Escuro","coordinates":[-25.43429,37.78136]},{"code":"CU/SM-007","program":"sota","name":"Pico dos Bodes 1","coordinates":[-25.29028,37.75201]}]}