{"lat":37.75,"lon":128.75,"programs":["pota"],"count":6,"references":[{"code":"KR-0036","program":"pota","name":"경포도립공원 Gyeongpo Provincial Park","coordinates":[128.909,37.8035]},{"code":"KR-0091","program":"pota","name":"경포가시연습지\tGyeongpogasiyeon Marsh National Historic Site","coordinates":[128.895,37.7882]},{"code":"KR-0156","program":"pota","name":"허균허난설헌기념공원\tHeo Gyun and Nanseolheon National Historic Site","coordinates":[128.91,37.7918]},{"code":"KR-0429","program":"pota","name":"죽도공원\tJukdo Coast Provincial Park","coordinates":[128.764,37.9722]},{"code":"KR-0444","program":"pota","name":"경포생태습지공원\tGyeongpo Wetland Provincial Ecological Park","coordinates":[128.908,37.7964]},{"code":"KR-0690","program":"pota","name":"사임당공원\tSaimdang Provincial Recreation Park","coordinates":[128.866,37.76]}]}