{"lat":37.75,"lon":-114.25,"programs":["pota","sota"],"count":10,"references":[{"code":"US-13217","program":"pota","name":"Panaca Charcoal Kilns BLM Historic Area","coordinates":[-114.171,37.8131]},{"code":"US-6100","program":"pota","name":"Mount Elinor BLM Herd Management Area","coordinates":[-114.001,37.878]},{"code":"W7N/LN-021","program":"sota","name":"Government Peak","coordinates":[-114.0519,37.986]},{"code":"W7N/LN-025","program":"sota","name":"8733","coordinates":[-114.0591,37.9651]},{"code":"W7N/LN-027","program":"sota","name":"Mahogany Peak","coordinates":[-114.077,37.9656]},{"code":"W7N/LN-072","program":"sota","name":"Lodge Benchmark","coordinates":[-114.1263,37.8137]},{"code":"W7N/LN-084","program":"sota","name":"7595","coordinates":[-114.1422,37.7984]},{"code":"W7N/LN-089","program":"sota","name":"7545","coordinates":[-114.1901,37.7889]},{"code":"W7N/LN-111","program":"sota","name":"Knob Benchmark","coordinates":[-114.1389,37.9077]},{"code":"W7U/IR-014","program":"sota","name":"8592","coordinates":[-114.0197,37.9447]}]}