{"lat":37.75,"lon":12.25,"programs":["pota","sota","wwbota"],"count":7,"references":[{"code":"IT-0232","program":"pota","name":"Isole dello Stagnone di Marsala Natura 2000","coordinates":[12.4392,37.8736]},{"code":"IT-0427","program":"pota","name":"Saline di Trapani Natura 2000","coordinates":[12.4994,37.9825]},{"code":"IT-1539","program":"pota","name":"Isola di Favignana Natura 2000","coordinates":[12.3092,37.9222]},{"code":"IT-1749","program":"pota","name":"Saline di Marsala Natura 2000","coordinates":[12.4728,37.8855]},{"code":"I/SI-278","program":"sota","name":"Monte Santa Caterina","coordinates":[12.3098,37.9271]},{"code":"B/IT-0062","program":"wwbota","name":"Bunker (Parco Archeologico Lilibeo  / Sicilia)","coordinates":[12.42917,37.79972]},{"code":"B/IT-0063","program":"wwbota","name":"Bunker (Molo dei Mille / Sicilia)","coordinates":[12.4465,37.81253]}]}