{"lat":37.75,"lon":13.25,"programs":["pota","sota"],"count":10,"references":[{"code":"IT-0349","program":"pota","name":"Boschi Ficuzza e Cappelliere, Vallone Cerasa, Castagneti Mezzojuso Natura 2000","coordinates":[13.4047,37.8819]},{"code":"IT-0876","program":"pota","name":"Lago di Piana degli Albanesi Natura 2000","coordinates":[13.2942,37.9764]},{"code":"IT-1383","program":"pota","name":"Monte Iato, Kumeta, Maganoce e Pizzo Parrino Natura 2000","coordinates":[13.2794,37.9581]},{"code":"I/SI-010","program":"sota","name":"Rocca Busambra","coordinates":[13.3945,37.8557]},{"code":"I/SI-026","program":"sota","name":"La Pizzuta / A Pitsuta","coordinates":[13.2628,37.9925]},{"code":"I/SI-040","program":"sota","name":"Kumeta","coordinates":[13.2636,37.9675]},{"code":"I/SI-079","program":"sota","name":"Monte Rossella","coordinates":[13.3486,37.9552]},{"code":"I/SI-085","program":"sota","name":"Cozzo Bileo","coordinates":[13.412,37.9073]},{"code":"I/SI-184","program":"sota","name":"Pizzo Chiarastella","coordinates":[13.4839,37.9242]},{"code":"I/SI-206","program":"sota","name":"Pizzo Mangiatoriello","coordinates":[13.4869,37.9689]}]}