{"lat":37.75,"lon":15,"programs":["gma","pota","sota"],"count":13,"references":[{"code":"IT/SI-1007","program":"gma","name":"Monte Baracca","coordinates":[15.04469967,37.78139877]},{"code":"IT-0346","program":"pota","name":"Bosco di Malabotta Natura 2000","coordinates":[15.0317,37.9708]},{"code":"IT-0496","program":"pota","name":"Riserva naturale Fiume Fiumefreddo Natura 2000","coordinates":[15.2302,37.7917]},{"code":"IT-0801","program":"pota","name":"Riserva naturale del Fiume Alcantara Natura 2000","coordinates":[15.1427,37.8936]},{"code":"IT-0981","program":"pota","name":"Rocca di Novara Natura 2000","coordinates":[15.1563,37.9858]},{"code":"IT-1000","program":"pota","name":"Parco dell'Etna Provincial Park Reserve","coordinates":[15,37.77]},{"code":"IT-1083","program":"pota","name":"La Gurna Natura 2000","coordinates":[15.2195,37.7696]},{"code":"I/SI-024","program":"sota","name":"Monte Croce Mancina","coordinates":[15.0536,37.9598]},{"code":"I/SI-025","program":"sota","name":"Rocca Novara / Novara","coordinates":[15.1464,37.995]},{"code":"I/SI-032","program":"sota","name":"Monte Trefinaite – Quota 1273","coordinates":[15.1251,37.974]},{"code":"I/SI-087","program":"sota","name":"Monte Naturi","coordinates":[15.245,37.912]},{"code":"I/SI-134","program":"sota","name":"Monte Pizzo","coordinates":[15.1342,37.8711]},{"code":"I/SI-304","program":"sota","name":"Montagna Grande","coordinates":[15.1916,37.9366]}]}