{"lat":37.75,"lon":16,"programs":["pota","sota"],"count":5,"references":[{"code":"IT-1138","program":"pota","name":"Capo Spartivento Natura 2000","coordinates":[16.0589,37.9281]},{"code":"IT-1963","program":"pota","name":"Spiaggia di Brancaleone Natura 2000","coordinates":[16.0892,37.9475]},{"code":"IT-1964","program":"pota","name":"Calanchi di Palizzi Marina Natura 2000","coordinates":[16.0075,37.9217]},{"code":"IT-1973","program":"pota","name":"Alica Natura 2000","coordinates":[16.0169,37.9925]},{"code":"I/CL-118","program":"sota","name":"Monte Tamborino","coordinates":[16.0485,37.9733]}]}