{"lat":37.75,"lon":15.75,"programs":["pota"],"count":7,"references":[{"code":"IT-1007","program":"pota","name":"Pentidattilo Natura 2000","coordinates":[15.7628,37.9547]},{"code":"IT-1146","program":"pota","name":"Calanchi di Maro Simone Natura 2000","coordinates":[15.7778,37.9275]},{"code":"IT-1965","program":"pota","name":"Capo S. Giovanni Natura 2000","coordinates":[15.9361,37.9256]},{"code":"IT-1966","program":"pota","name":"Fiumara di Palizzi Natura 2000","coordinates":[15.9825,37.9403]},{"code":"IT-1967","program":"pota","name":"Fiumara Amendolea (incluso Roghudi, Chorio e Rota Greco) Natura 2000","coordinates":[15.8989,37.9625]},{"code":"IT-1968","program":"pota","name":"Spiaggia di Pilati Natura 2000","coordinates":[15.8014,37.9189]},{"code":"IT-1969","program":"pota","name":"Fiumara di Melito Natura 2000","coordinates":[15.7906,37.9442]}]}