{"lat":38,"lon":-2.25,"programs":["pota","sota"],"count":21,"references":[{"code":"ES-1420","program":"pota","name":"Sierra de Villafuerte Natura 2000","coordinates":[-2.1511,38.1422]},{"code":"ES-1440","program":"pota","name":"Cuerda de la Serrata Natura 2000","coordinates":[-2.0103,38.0125]},{"code":"ES-1443","program":"pota","name":"Rambla de la Rogativa Natura 2000","coordinates":[-2.2281,38.1069]},{"code":"EA5/AB-025","program":"sota","name":"Alcaboche","coordinates":[-2.2199,38.1983]},{"code":"EA5/MU-002","program":"sota","name":"Mojantes","coordinates":[-2.0846,38.0203]},{"code":"EA5/MU-003","program":"sota","name":"Pajarón","coordinates":[-2.0368,38.1551]},{"code":"EA5/MU-004","program":"sota","name":"Puntal del Carreño","coordinates":[-2.0528,38.1754]},{"code":"EA5/MU-008","program":"sota","name":"Molata","coordinates":[-2.0966,38.2415]},{"code":"EA5/MU-010","program":"sota","name":"Alto del Frontón","coordinates":[-2.0035,38.1922]},{"code":"EA5/MU-042","program":"sota","name":"Los Odres","coordinates":[-2.2263,38.0526]},{"code":"EA5/MU-043","program":"sota","name":"Cerro de Villafuerte","coordinates":[-2.1562,38.1447]},{"code":"EA5/MU-044","program":"sota","name":"San Juan","coordinates":[-2.1347,38.1607]},{"code":"EA5/MU-045","program":"sota","name":"Cerro Blanco","coordinates":[-2.1936,38.1063]},{"code":"EA5/MU-046","program":"sota","name":"Cerro del Salvalejo","coordinates":[-2.2024,38.1286]},{"code":"EA5/MU-047","program":"sota","name":"Sierra del Tejo","coordinates":[-2.0789,38.1556]},{"code":"EA5/MU-048","program":"sota","name":"Calar de Ortiz","coordinates":[-2.1542,38.0985]},{"code":"EA5/MU-052","program":"sota","name":"Lanchar","coordinates":[-2.049,38.2109]},{"code":"EA5/MU-056","program":"sota","name":"Cerro del Castellar","coordinates":[-2.1994,38.1767]},{"code":"EA5/MU-060","program":"sota","name":"Tartamudo","coordinates":[-2.1487,38.0401]},{"code":"EA5/MU-061","program":"sota","name":"El Cigarrón","coordinates":[-2.0435,38.1373]},{"code":"EA5/MU-067","program":"sota","name":"Serrata","coordinates":[-2.0333,38.0038]}]}