{"lat":38,"lon":139.75,"programs":["sota"],"count":18,"references":[{"code":"JA/NI-153","program":"sota","name":"Sutodoyama","coordinates":[139.8158,38.2414]},{"code":"JA/YG-263","program":"sota","name":"Hyakkokuyama","coordinates":[139.8316,38.0583]},{"code":"JA/YG-264","program":"sota","name":"JA/YG-264","coordinates":[139.8169,38.0692]},{"code":"JA/YM-009","program":"sota","name":"Iwaigameyama","coordinates":[139.8796,38.1976]},{"code":"JA/YM-011","program":"sota","name":"Santaizan","coordinates":[139.8873,38.137]},{"code":"JA/YM-012","program":"sota","name":"Hachigatamine","coordinates":[139.9684,38.1915]},{"code":"JA/YM-015","program":"sota","name":"Shibakurayama","coordinates":[139.8827,38.1563]},{"code":"JA/YM-036","program":"sota","name":"JA/YM-036","coordinates":[139.8321,38.1926]},{"code":"JA/YM-046","program":"sota","name":"JA/YM-046","coordinates":[139.9609,38.14]},{"code":"JA/YM-056","program":"sota","name":"JA/YM-056","coordinates":[139.8053,38.2068]},{"code":"JA/YM-067","program":"sota","name":"Tokuamiyama","coordinates":[139.7894,38.1879]},{"code":"JA/YM-072","program":"sota","name":"Gakiyama","coordinates":[139.7559,38.1928]},{"code":"JA/YM-089","program":"sota","name":"Tsunagihakonokuchi","coordinates":[139.8516,38.04]},{"code":"JA/YM-099","program":"sota","name":"Imaichi","coordinates":[139.7773,38.1293]},{"code":"JA/YM-119","program":"sota","name":"Nakazawamine","coordinates":[139.9404,38.2087]},{"code":"JA/YM-127","program":"sota","name":"Ashidayama","coordinates":[139.8428,38.1763]},{"code":"JA/YM-141","program":"sota","name":"Katsuraya","coordinates":[139.9336,38.1296]},{"code":"JA/YM-153","program":"sota","name":"Kurosawa","coordinates":[139.8103,38.0386]}]}