{"lat":38,"lon":-107.75,"programs":["pota","sota"],"count":15,"references":[{"code":"US-1235","program":"pota","name":"Ridgway State Park","coordinates":[-107.742,38.1968]},{"code":"W0C/RG-003","program":"sota","name":"Wetterhorn Peak","coordinates":[-107.5109,38.0607]},{"code":"W0C/RG-017","program":"sota","name":"Coxcomb Peak","coordinates":[-107.5335,38.0801]},{"code":"W0C/RG-018","program":"sota","name":"Redcliff","coordinates":[-107.5331,38.0872]},{"code":"W0C/RG-037","program":"sota","name":"13201","coordinates":[-107.525,38.0389]},{"code":"W0C/RG-050","program":"sota","name":"12917","coordinates":[-107.5022,38.1338]},{"code":"W0C/RG-064","program":"sota","name":"Dunsinane Mountain","coordinates":[-107.539,38.1297]},{"code":"W0C/RG-095","program":"sota","name":"Turret Ridge","coordinates":[-107.539,38.1453]},{"code":"W0C/RG-101","program":"sota","name":"Courthouse Mountain","coordinates":[-107.5739,38.135]},{"code":"W0C/UR-008","program":"sota","name":"Whitehouse Mountain","coordinates":[-107.738,38.0202]},{"code":"W0C/UR-010","program":"sota","name":"Wildhorse Peak","coordinates":[-107.5775,38.0133]},{"code":"W0C/UR-015","program":"sota","name":"Cow Benchmark","coordinates":[-107.6211,38.0201]},{"code":"W0C/UR-018","program":"sota","name":"Dexter Mountain","coordinates":[-107.61,38.0543]},{"code":"W0C/UR-045","program":"sota","name":"7841","coordinates":[-107.7272,38.1847]},{"code":"W0C/WE-081","program":"sota","name":"South Cimarron Ridge","coordinates":[-107.5809,38.2127]}]}