{"lat":38,"lon":-109.5,"programs":["pota","sota"],"count":5,"references":[{"code":"US-5766","program":"pota","name":"Coyote Canyon Rock Crawling Area BLM Recreation Management Area","coordinates":[-109.254,38.2439]},{"code":"US-5771","program":"pota","name":"Cameo Cliffs BLM Recreation Management Area","coordinates":[-109.358,38.1894]},{"code":"US-5774","program":"pota","name":"Canyon Rims BLM Recreation Management Area","coordinates":[-109.379,38.1703]},{"code":"US-11728","program":"pota","name":"Windwhistle Campground BLM Recreation Management Area","coordinates":[-109.462,38.1763]},{"code":"W7U/SJ-032","program":"sota","name":"La Sal Benchmark","coordinates":[-109.2731,38.238]}]}