{"lat":38,"lon":-0.75,"programs":["gma","iota","pota","wwbota"],"count":8,"references":[{"code":"EC/CV-242","program":"gma","name":"El Moncayo","coordinates":[-0.65876939,38.07588606]},{"code":"EU-093","program":"iota","name":"ALICANTE / MURCIA PROVINCE group","coordinates":[-0.649999995,38.13000107]},{"code":"ES-0163","program":"pota","name":"Lagunas de la Mata y Torrevieja Nature Park","coordinates":[-0.704467,38.0164]},{"code":"ES-0165","program":"pota","name":"Salinas de Santa Pola Nature Park","coordinates":[-0.610932,38.1869]},{"code":"ES-0958","program":"pota","name":"El Fondo d'Elx-Crevillent Natura 2000","coordinates":[-0.7494,38.1872]},{"code":"ES-0961","program":"pota","name":"Clot de Galvany Natura 2000","coordinates":[-0.534,38.2451]},{"code":"ES-0979","program":"pota","name":"Dunes de Guardamar Natura 2000","coordinates":[-0.6478,38.0978]},{"code":"B/EA-0159","program":"wwbota","name":"Búnker Pabellones del Faro, Santa Pola","coordinates":[-0.51849,38.20965]}]}