{"lat":38,"lon":24,"programs":["pota","sota"],"count":6,"references":[{"code":"GR-0115","program":"pota","name":"Ethniko Parko Schinia Marathona National Park","coordinates":[24.0329,38.1466]},{"code":"GR-0108","program":"pota","name":"Porto Lafia-Kapsala(Styron) National Wildlife Refuge","coordinates":[24.224,38.1078]},{"code":"SV/AT-039","program":"sota","name":"Terakorifi","coordinates":[24.011944,38.195557]},{"code":"SV/EV-014","program":"sota","name":"Tsouka","coordinates":[24.155556,38.244446]},{"code":"SV/EV-015","program":"sota","name":"Megalo Vouno","coordinates":[24.175833,38.246113]},{"code":"SV/EV-016","program":"sota","name":"Pyrgari","coordinates":[24.215,38.141666]}]}