{"lat":38,"lon":114.25,"programs":["pota"],"count":10,"references":[{"code":"CN-0038","program":"pota","name":"河北石家庄秀水公园 Regional Park","coordinates":[114.377,38.0911]},{"code":"CN-0956","program":"pota","name":"河北石家庄元南公园 Regional Park","coordinates":[114.489,38.0186]},{"code":"CN-0957","program":"pota","name":"河北石家庄华星公园 Regional Park","coordinates":[114.478,38.0172]},{"code":"CN-0958","program":"pota","name":"河北石家庄民心广场公园 Regional Park","coordinates":[114.462,38.0326]},{"code":"CN-0959","program":"pota","name":"河北石家庄和平公园 Regional Park","coordinates":[114.459,38.0446]},{"code":"CN-0960","program":"pota","name":"河北石家庄友谊公园 Regional Park","coordinates":[114.446,38.0466]},{"code":"CN-0961","program":"pota","name":"河北石家庄裕园公园 Regional Park","coordinates":[114.456,38.0364]},{"code":"CN-0962","program":"pota","name":"河北石家庄石太公园 Regional Park","coordinates":[114.437,38.0587]},{"code":"CN-0963","program":"pota","name":"河北石家庄中山公园 Regional Park","coordinates":[114.428,38.0662]},{"code":"CN-0964","program":"pota","name":"河北石家庄水上公园 Regional Park","coordinates":[114.452,38.0758]}]}