{"lat":38,"lon":-90.25,"programs":["pota"],"count":5,"references":[{"code":"US-4124","program":"pota","name":"Fults Hill Prairie State Nature Preserve","coordinates":[-90.1858,38.1568]},{"code":"US-4131","program":"pota","name":"Illinois Caverns State Natural Area","coordinates":[-90.1335,38.2367]},{"code":"US-4135","program":"pota","name":"Kidd Lake Marsh State Natural Area","coordinates":[-90.1858,38.1479]},{"code":"US-7367","program":"pota","name":"Fort de Chartres National Historic Site","coordinates":[-90.1584,38.0872]},{"code":"US-6503","program":"pota","name":"Magnolia Hollow State Conservation Area","coordinates":[-90.1593,38.0365]}]}