{"lat":38,"lon":16,"programs":["pota","sota"],"count":9,"references":[{"code":"IT-1974","program":"pota","name":"Bosco di Rudina Natura 2000","coordinates":[16.0792,38.0467]},{"code":"IT-1975","program":"pota","name":"Fiumara Laverde Natura 2000","coordinates":[16.0739,38.0647]},{"code":"IT-1976","program":"pota","name":"Fiumara Buonamico Natura 2000","coordinates":[16.0858,38.1356]},{"code":"I/CL-073","program":"sota","name":"Monte Scapparone","coordinates":[16.0237,38.0496]},{"code":"I/CL-108","program":"sota","name":"Itrache","coordinates":[16.1142,38.1967]},{"code":"I/CL-119","program":"sota","name":"Ferruzzano","coordinates":[16.0875,38.0386]},{"code":"I/CL-126","program":"sota","name":"Serro Papa","coordinates":[16.0937,38.1515]},{"code":"I/CL-127","program":"sota","name":"Monte San Ignazio","coordinates":[16.196,38.2421]},{"code":"I/CL-129","program":"sota","name":"Bianco Vecchio","coordinates":[16.119,38.0939]}]}