{"lat":38,"lon":-79,"programs":["sota"],"count":6,"references":[{"code":"W4V/BR-014","program":"sota","name":"3100","coordinates":[-78.7753,38.1417]},{"code":"W4V/BR-015","program":"sota","name":"Calf Mountain","coordinates":[-78.7822,38.0808]},{"code":"W4V/HB-021","program":"sota","name":"Trayfoot Mountain","coordinates":[-78.7508,38.2236]},{"code":"W4V/HB-029","program":"sota","name":"Turk Mountain","coordinates":[-78.801,38.1255]},{"code":"W4V/HB-038","program":"sota","name":"Elk Mountain","coordinates":[-78.8873,38.0001]},{"code":"W4V/HB-047","program":"sota","name":"Ramsey Mountain","coordinates":[-78.817,38.0937]}]}