{"lat":38,"lon":15.25,"programs":["pota","sota","wwbota"],"count":15,"references":[{"code":"IT-0331","program":"pota","name":"Fiume Fiumedinisi, Monte Scuderi Natura 2000","coordinates":[15.3464,38.0569]},{"code":"IT-0997","program":"pota","name":"Pizzo Mualio, Montagna di Vernà Natura 2000","coordinates":[15.2678,38.0086]},{"code":"IT-1118","program":"pota","name":"Dorsale Curcuraci, Antennamare Natura 2000","coordinates":[15.495,38.2019]},{"code":"IT-1207","program":"pota","name":"Affluenti del Torrente Mela Natura 2000","coordinates":[15.3036,38.0776]},{"code":"I/SI-031","program":"sota","name":"Monte Poverello","coordinates":[15.3635,38.0832]},{"code":"I/SI-035","program":"sota","name":"Monte Scuderi","coordinates":[15.4013,38.064]},{"code":"I/SI-039","program":"sota","name":"Monte Fossazza","coordinates":[15.2603,38.051]},{"code":"I/SI-043","program":"sota","name":"Pizzo Croce","coordinates":[15.3284,38.0659]},{"code":"I/SI-058","program":"sota","name":"Dinnamare","coordinates":[15.4649,38.1589]},{"code":"I/SI-068","program":"sota","name":"Pizzo Sambuco – Quota 1082","coordinates":[15.4402,38.1116]},{"code":"I/SI-133","program":"sota","name":"Pizzo di Frara","coordinates":[15.2919,38.1146]},{"code":"I/SI-140","program":"sota","name":"Rocca del Campo","coordinates":[15.3187,38.1113]},{"code":"I/SI-174","program":"sota","name":"Pizzo Canale","coordinates":[15.4123,38.1355]},{"code":"I/SI-192","program":"sota","name":"Puntale Pistulona","coordinates":[15.4623,38.0923]},{"code":"B/IT-0047","program":"wwbota","name":"Bunker (Muro D'Ascolto / Sicilia)","coordinates":[15.48816,38.07478]}]}