{"lat":38,"lon":23.75,"programs":["pota","sota"],"count":8,"references":[{"code":"GR-0116","program":"pota","name":"Dimosio Dasos Rapetsonas(Stamatas) National Wildlife Refuge","coordinates":[23.9363,38.0873]},{"code":"SV/AT-001","program":"sota","name":"Agriliki","coordinates":[23.948889,38.105278]},{"code":"SV/AT-004","program":"sota","name":"Mavrinora","coordinates":[23.844166,38.245556]},{"code":"SV/AT-008","program":"sota","name":"Beletsi","coordinates":[23.815277,38.216946]},{"code":"SV/AT-031","program":"sota","name":"Skarpa","coordinates":[23.921667,38.122776]},{"code":"SV/AT-032","program":"sota","name":"Dionisovuni","coordinates":[23.897223,38.10611]},{"code":"SV/AT-033","program":"sota","name":"Pergari","coordinates":[23.882778,38.08139]},{"code":"SV/AT-034","program":"sota","name":"Megali Mavrinora","coordinates":[23.930555,38.06361]}]}