{"lat":38,"lon":-1.25,"programs":["pota","sota"],"count":11,"references":[{"code":"ES-1409","program":"pota","name":"Humedal del Ajauque y Rambla Salada Natura 2000","coordinates":[-1.0901,38.1099]},{"code":"ES-1430","program":"pota","name":"Sierra de Abanilla Natura 2000","coordinates":[-1.0089,38.2253]},{"code":"ES-1431","program":"pota","name":"Rio Chicamo Natura 2000","coordinates":[-1.0408,38.1781]},{"code":"ES-1435","program":"pota","name":"Cueva de las Yeseras Natura 2000","coordinates":[-1.0306,38.0801]},{"code":"ES-1974","program":"pota","name":"Lagunas de Campotejar Natura 2000","coordinates":[-1.22,38.1121]},{"code":"EA5/AT-091","program":"sota","name":"Pico del Águila","coordinates":[-1.0174,38.094]},{"code":"EA5/MU-119","program":"sota","name":"Sierra del Corqué","coordinates":[-1.1471,38.2346]},{"code":"EA5/MU-123","program":"sota","name":"Lugar","coordinates":[-1.1925,38.2061]},{"code":"EA5/MU-125","program":"sota","name":"Sierra del Viar","coordinates":[-1.2286,38.2355]},{"code":"EA5/MU-140","program":"sota","name":"Baño","coordinates":[-1.1316,38.2155]},{"code":"EA5/MU-158","program":"sota","name":"Bermejo","coordinates":[-1.0678,38.0631]}]}