{"lat":38,"lon":13.5,"programs":["pota","sota"],"count":6,"references":[{"code":"IT-0352","program":"pota","name":"Rupi di Catalfano e Capo Zafferano Natura 2000","coordinates":[13.5086,38.1036]},{"code":"I/SI-115","program":"sota","name":"Pizzo Selva a Mare","coordinates":[13.5742,38.0029]},{"code":"I/SI-266","program":"sota","name":"Monte Corvo","coordinates":[13.5017,38.0169]},{"code":"I/SI-272","program":"sota","name":"Monte Catalfano","coordinates":[13.5273,38.106]},{"code":"I/SI-275","program":"sota","name":"Cozzo San Pietro","coordinates":[13.5136,38.1084]},{"code":"I/SI-284","program":"sota","name":"Capo Zafferano","coordinates":[13.5363,38.1109]}]}