{"lat":38,"lon":127,"programs":["pota","sota"],"count":16,"references":[{"code":"KR-0659","program":"pota","name":"하늘숲땅숲공원\tHaneulsup Ddangsup Forest Provincial Park","coordinates":[127.206,38.1996]},{"code":"KR-0074","program":"pota","name":"연천임진강유네스코생물권보전지역\tYeoncheon Biosphere Reserve","coordinates":[127.017,38.131]},{"code":"KR-1042","program":"pota","name":"은대근린공원\tEundae Neighborhood Provincial Park","coordinates":[127.065,38.0281]},{"code":"HL/GG-011","program":"sota","name":"지장봉 (Jijangbong)","coordinates":[127.1724,38.1416]},{"code":"HL/GG-017","program":"sota","name":"고대산 (Godaesan)","coordinates":[127.1662,38.199]},{"code":"HL/GG-027","program":"sota","name":"관인봉 (Gwaninbong)","coordinates":[127.1935,38.1315]},{"code":"HL/GG-041","program":"sota","name":"고남산 (Gonamsan)","coordinates":[127.2316,38.1274]},{"code":"HL/GG-042","program":"sota","name":"종자산 (Jongjasan)","coordinates":[127.1907,38.0781]},{"code":"HL/GG-066","program":"sota","name":"보장산 (Bojangsan)","coordinates":[127.1794,38.0444]},{"code":"HL/GG-081","program":"sota","name":"HL/GG-081","coordinates":[127.1185,38.1407]},{"code":"HL/GG-095","program":"sota","name":"천덕산 (Cheondeoksan)","coordinates":[127.1098,38.2439]},{"code":"HL/GG-096","program":"sota","name":"HL/GG-096","coordinates":[127.1084,38.1244]},{"code":"HL/GG-106","program":"sota","name":"은장산 (Eunjangsan)","coordinates":[127.2316,38.0835]},{"code":"HL/GG-153","program":"sota","name":"국자산 (Gukjasan)","coordinates":[127.0548,38.09]},{"code":"HL/GW-182","program":"sota","name":"금학산 (Geumhaksan)","coordinates":[127.2009,38.1858]},{"code":"HL/GW-363","program":"sota","name":"HL/GW-363","coordinates":[127.1944,38.2266]}]}