{"lat":38,"lon":-114.25,"programs":["pota","sota"],"count":12,"references":[{"code":"US-2636","program":"pota","name":"Spring Valley State Park","coordinates":[-114.202,38.0232]},{"code":"US-13216","program":"pota","name":"Meadow Valley Campground BLM Recreation Management Area","coordinates":[-114.206,38.0076]},{"code":"US-6104","program":"pota","name":"Choke Cherry BLM Herd Management Area","coordinates":[-114.026,38.13]},{"code":"US-10982","program":"pota","name":"White Rock Range WSA BLM Wilderness Area","coordinates":[-114.038,38.1962]},{"code":"W7N/LN-010","program":"sota","name":"White Rock Peak","coordinates":[-114.1026,38.2487]},{"code":"W7N/LN-033","program":"sota","name":"8468","coordinates":[-114.0694,38.1718]},{"code":"W7N/LN-037","program":"sota","name":"8350","coordinates":[-114.0508,38.111]},{"code":"W7N/LN-079","program":"sota","name":"Horsethief Mountain","coordinates":[-114.2467,38.0406]},{"code":"W7N/LN-122","program":"sota","name":"7162","coordinates":[-114.1518,38.0061]},{"code":"W7U/IR-016","program":"sota","name":"8535","coordinates":[-114.0474,38.0516]},{"code":"W7U/IR-018","program":"sota","name":"Rice Mountain","coordinates":[-114.0297,38.0205]},{"code":"W7U/IR-026","program":"sota","name":"8032","coordinates":[-114.0337,38.0716]}]}