{"lat":38,"lon":-91.25,"programs":["pota"],"count":5,"references":[{"code":"US-1773","program":"pota","name":"Meramec State Park","coordinates":[-91.1065,38.2165]},{"code":"US-1776","program":"pota","name":"Onondaga Cave State Park","coordinates":[-91.2268,38.0619]},{"code":"US-6499","program":"pota","name":"Huzzah State Conservation Area","coordinates":[-91.2136,38.029]},{"code":"US-6500","program":"pota","name":"Meramec State Conservation Area","coordinates":[-91.0735,38.2105]},{"code":"US-12581","program":"pota","name":"Blue Springs Creek State Conservation Area","coordinates":[-91.185,38.1158]}]}