{"lat":38,"lon":-79.5,"programs":["sota"],"count":7,"references":[{"code":"W4V/HB-001","program":"sota","name":"Elliott Knob","coordinates":[-79.3142,38.1666]},{"code":"W4V/HB-014","program":"sota","name":"Crawford Mountain","coordinates":[-79.2755,38.2432]},{"code":"W4V/HB-016","program":"sota","name":"3700","coordinates":[-79.4953,38.1923]},{"code":"W4V/HB-018","program":"sota","name":"Bump, The","coordinates":[-79.4651,38.2222]},{"code":"W4V/HB-026","program":"sota","name":"Walker Mountain","coordinates":[-79.4399,38.1557]},{"code":"W4V/HB-027","program":"sota","name":"Little North Mountain","coordinates":[-79.2845,38.0857]},{"code":"W4V/LX-048","program":"sota","name":"Sideling Hill","coordinates":[-79.4934,38.0725]}]}