{"lat":38,"lon":-2.5,"programs":["gma","pota","sota"],"count":14,"references":[{"code":"EC/AB-001","program":"gma","name":"Cabras, Las","coordinates":[-2.3900001,38.06769943]},{"code":"ES-0108","program":"pota","name":"Sierra de las Cabras Nature Reserve","coordinates":[-2.37185,38.0709]},{"code":"ES-1419","program":"pota","name":"Revolcadores Natura 2000","coordinates":[-2.2806,38.0469]},{"code":"EA5/AB-011","program":"sota","name":"Mingarnao","coordinates":[-2.3258,38.1663]},{"code":"EA5/AB-016","program":"sota","name":"La Atalaya","coordinates":[-2.3914,38.0605]},{"code":"EA5/AB-017","program":"sota","name":"Peña de Moratalla","coordinates":[-2.3289,38.0675]},{"code":"EA5/AB-019","program":"sota","name":"Loma de las Yeguas","coordinates":[-2.4499,38.0813]},{"code":"EA5/AB-020","program":"sota","name":"Calar Blanco","coordinates":[-2.4786,38.0531]},{"code":"EA5/AB-021","program":"sota","name":"Cabeza Rasa","coordinates":[-2.392,38.235]},{"code":"EA5/AB-026","program":"sota","name":"Calar de Nerpio","coordinates":[-2.3,38.166]},{"code":"EA5/MU-001","program":"sota","name":"Los Obispos","coordinates":[-2.2625,38.0681]},{"code":"EA7/GR-071","program":"sota","name":"Burrezo II","coordinates":[-2.3982,38.0002]},{"code":"EA7/JA-056","program":"sota","name":"Cabeza de la Mora","coordinates":[-2.4954,38.2439]},{"code":"EA7/JA-068","program":"sota","name":"Cerro de Miller","coordinates":[-2.4871,38.2094]}]}