{"lat":38,"lon":-6.25,"programs":["gma","pota","sota"],"count":5,"references":[{"code":"XEA4/BA-008","program":"gma","name":"Morena","coordinates":[-6.18569994,38.03039932]},{"code":"ES-2394","program":"pota","name":"Colonias de Cernícalo Primilla de LLerena Natura 2000","coordinates":[-6.0133,38.2386]},{"code":"EA4/BA-007","program":"sota","name":"San Bernardo","coordinates":[-6.0092,38.2032]},{"code":"EA4/BA-022","program":"sota","name":"Pico Sierra Castil de las Monjas","coordinates":[-6.1535,38.0098]},{"code":"EA4/BA-069","program":"sota","name":"Cerro Clavijo","coordinates":[-6.0087,38.0224]}]}