{"lat":38,"lon":-110.25,"programs":["pota","sota"],"count":8,"references":[{"code":"US-5848","program":"pota","name":"French Spring-Happy Canyon BLM National Conservation Area","coordinates":[-110.213,38.2023]},{"code":"W7U/GA-039","program":"sota","name":"Lands End","coordinates":[-110.1301,38.1019]},{"code":"W7U/GA-042","program":"sota","name":"North Block","coordinates":[-110.207,38.043]},{"code":"W7U/GA-052","program":"sota","name":"Gunsight Butte","coordinates":[-110.1881,38.0641]},{"code":"W7U/GA-061","program":"sota","name":"6500","coordinates":[-110.2299,38.0813]},{"code":"W7U/GA-082","program":"sota","name":"Ocean Point","coordinates":[-110.0875,38.0051]},{"code":"W7U/WY-021","program":"sota","name":"Bagpipe Butte","coordinates":[-110.1124,38.1562]},{"code":"W7U/WY-022","program":"sota","name":"Elaterite Butte","coordinates":[-110.0376,38.2172]}]}