{"lat":38,"lon":13,"programs":["pota","sota"],"count":15,"references":[{"code":"IT-0226","program":"pota","name":"Monte Matassaro, Monte Gradara e Monte Signora Natura 2000","coordinates":[13.1764,38.0144]},{"code":"IT-0327","program":"pota","name":"Isola delle Femmine Natura 2000","coordinates":[13.2359,38.2102]},{"code":"IT-0339","program":"pota","name":"Cala Rossa e Capo Rama Natura 2000","coordinates":[13.067,38.122]},{"code":"IT-0440","program":"pota","name":"Montagna Longa, Pizzo Montanello Natura 2000","coordinates":[13.1317,38.1231]},{"code":"IT-0441","program":"pota","name":"Raffo Rosso, Monte Cuccio e Vallone Sagana Natura 2000","coordinates":[13.2319,38.1242]},{"code":"I/SI-046","program":"sota","name":"Monte Gradara","coordinates":[13.177,38.0339]},{"code":"I/SI-053","program":"sota","name":"Monte Gibilmesi","coordinates":[13.2153,38.0647]},{"code":"I/SI-054","program":"sota","name":"Monte Matassaro Renna","coordinates":[13.2213,38.0145]},{"code":"I/SI-089","program":"sota","name":"Punta Busìlmeri","coordinates":[13.2342,38.0593]},{"code":"I/SI-092","program":"sota","name":"Montagna Longa","coordinates":[13.1489,38.1217]},{"code":"I/SI-099","program":"sota","name":"Monte Saraceno","coordinates":[13.1956,38.1075]},{"code":"I/SI-107","program":"sota","name":"Pizzo Corvo","coordinates":[13.1288,38.155]},{"code":"I/SI-118","program":"sota","name":"Pizzo Cirina","coordinates":[13.2154,38.1162]},{"code":"I/SI-198","program":"sota","name":"Pizzo Paviglione","coordinates":[13.0971,38.1124]},{"code":"I/SI-260","program":"sota","name":"Monte Colombrina","coordinates":[13.2124,38.1492]}]}