{"lat":38,"lon":12.75,"programs":["pota","sota","wwbota"],"count":7,"references":[{"code":"IT-0335","program":"pota","name":"Capo San Vito, Monte Monaco, Zingaro, Faraglioni Scopello, Monte Sparacio Natura 2000","coordinates":[12.7508,38.1111]},{"code":"I/SI-063","program":"sota","name":"Monte Sparagio","coordinates":[12.7756,38.0553]},{"code":"I/SI-073","program":"sota","name":"Monte Inici","coordinates":[12.8602,38.0009]},{"code":"I/SI-105","program":"sota","name":"Monte Speziale","coordinates":[12.7673,38.1033]},{"code":"I/SI-129","program":"sota","name":"Monte Acci","coordinates":[12.7678,38.1275]},{"code":"I/SI-239","program":"sota","name":"Monte Monaco","coordinates":[12.7568,38.1672]},{"code":"B/IT-0065","program":"wwbota","name":"Bunker (Torre Di Scopello  / Sicilia)","coordinates":[12.82201,38.0733]}]}