{"lat":38,"lon":13.25,"programs":["pota","sota","wwbota"],"count":21,"references":[{"code":"IT-0297","program":"pota","name":"Monte Pizzuta, Costa del Carpineto, Moarda Natura 2000","coordinates":[13.2758,38.0153]},{"code":"IT-0310","program":"pota","name":"Monte Pellegrino Natura 2000","coordinates":[13.3469,38.1728]},{"code":"IT-0340","program":"pota","name":"Capo Gallo Natura 2000","coordinates":[13.2911,38.2083]},{"code":"I/SI-066","program":"sota","name":"Punte della Moarda","coordinates":[13.2883,38.0266]},{"code":"I/SI-075","program":"sota","name":"Monte Cuccio","coordinates":[13.2646,38.1151]},{"code":"I/SI-100","program":"sota","name":"Pizzo Cervo","coordinates":[13.382,38.0038]},{"code":"I/SI-116","program":"sota","name":"Punta Giardinello","coordinates":[13.2563,38.0772]},{"code":"I/SI-123","program":"sota","name":"Pizzo Neviera","coordinates":[13.3841,38.0369]},{"code":"I/SI-128","program":"sota","name":"Monte Grofone","coordinates":[13.3924,38.0664]},{"code":"I/SI-138","program":"sota","name":"Monte Castellaccio","coordinates":[13.2626,38.1596]},{"code":"I/SI-145","program":"sota","name":"Cozzo di Lupo","coordinates":[13.2547,38.1395]},{"code":"I/SI-146","program":"sota","name":"Pizzo di Valle del Fico","coordinates":[13.3231,38.05]},{"code":"I/SI-150","program":"sota","name":"Monte Caputo / Castellaccio","coordinates":[13.2752,38.0831]},{"code":"I/SI-155","program":"sota","name":"Pizzo di Belmonte","coordinates":[13.3774,38.0538]},{"code":"I/SI-197","program":"sota","name":"Masto Nardo / Montagna Grande","coordinates":[13.4424,38.0568]},{"code":"I/SI-216","program":"sota","name":"Monte Pellegrino","coordinates":[13.3537,38.166]},{"code":"I/SI-217","program":"sota","name":"Cozzo Pomara","coordinates":[13.415,38.0382]},{"code":"I/SI-227","program":"sota","name":"Pizzo della Sella","coordinates":[13.3001,38.2147]},{"code":"I/SI-247","program":"sota","name":"Pizzo di Vuturo / dell’Avvoltoio","coordinates":[13.293,38.2067]},{"code":"B/IT-0066","program":"wwbota","name":"Bunker (Contraeree Monte Pellegrino  / Sicilia)","coordinates":[13.35892,38.1737]},{"code":"B/IT-0067","program":"wwbota","name":"Bunker (Spigolo Valdesi  / Sicilia)","coordinates":[13.33436,38.18919]}]}