{"lat":38,"lon":-122.75,"programs":["pota","sota","wwbota"],"count":12,"references":[{"code":"US-1195","program":"pota","name":"Samuel P. Taylor State Park","coordinates":[-122.73,38.0197]},{"code":"US-3527","program":"pota","name":"Olompali State Historical Park","coordinates":[-122.57,38.1525]},{"code":"W6/CC-070","program":"sota","name":"Barnabe Mountain","coordinates":[-122.7165,38.0277]},{"code":"W6/NC-304","program":"sota","name":"Big Rock Ridge","coordinates":[-122.6044,38.0592]},{"code":"W6/NC-350","program":"sota","name":"Loma Alta","coordinates":[-122.6129,38.0243]},{"code":"W6/NC-353","program":"sota","name":"Burdell Mountain","coordinates":[-122.5918,38.1464]},{"code":"W6/NC-354","program":"sota","name":"1575","coordinates":[-122.6492,38.0893]},{"code":"W6/NC-362","program":"sota","name":"Hicks Mountain","coordinates":[-122.726,38.1294]},{"code":"W6/NC-374","program":"sota","name":"Shroyer Mountain","coordinates":[-122.6705,38.0654]},{"code":"W6/NC-385","program":"sota","name":"1296","coordinates":[-122.6614,38.1479]},{"code":"W6/NC-430","program":"sota","name":"Little Mountain","coordinates":[-122.6263,38.1174]},{"code":"B/US-0407","program":"wwbota","name":"Hamilton Ammo Bunker","coordinates":[-122.52608,38.06741]}]}