{"lat":38.25,"lon":-111.75,"programs":["pota","sota"],"count":5,"references":[{"code":"US-5930","program":"pota","name":"Bicknell Bottoms State Waterfowl Management Area","coordinates":[-111.52,38.306]},{"code":"US-5937","program":"pota","name":"Big Rocks BLM Special Recreation Management Area","coordinates":[-111.636,38.3594]},{"code":"US-10965","program":"pota","name":"Great Western Trail BLM Historic Trail","coordinates":[-111.614,38.2514]},{"code":"US-11093","program":"pota","name":"Egan State Fish Hatchery","coordinates":[-111.556,38.291]},{"code":"W7U/WY-008","program":"sota","name":"Black Ridge","coordinates":[-111.5108,38.2834]}]}