{"lat":38.25,"lon":-109.5,"programs":["pota","sota"],"count":6,"references":[{"code":"US-5773","program":"pota","name":"Wilson Arch BLM Recreation Management Area","coordinates":[-109.372,38.2735]},{"code":"US-5776","program":"pota","name":"Looking Glass Rock BLM Interpretive Site","coordinates":[-109.407,38.2763]},{"code":"US-5777","program":"pota","name":"Kane Creek Canyon Rim Trailhead BLM Recreation Management Area","coordinates":[-109.432,38.4227]},{"code":"W7U/SJ-001","program":"sota","name":"South Mountain","coordinates":[-109.2612,38.4011]},{"code":"W7U/SJ-047","program":"sota","name":"6580","coordinates":[-109.4716,38.4767]},{"code":"W7U/SU-002","program":"sota","name":"Tukuhnikivatz Mount","coordinates":[-109.2601,38.4394]}]}