{"lat":38.25,"lon":-3.75,"programs":["gma","pota","sota"],"count":8,"references":[{"code":"EC/CM-001","program":"gma","name":"Estrella","coordinates":[-3.60400009,38.39690018]},{"code":"ES-0005","program":"pota","name":"Despeñaperros Nature Park","coordinates":[-3.56106,38.41]},{"code":"EA4/CR-008","program":"sota","name":"Sierra de San Andrés","coordinates":[-3.6497,38.4608]},{"code":"EA7/JA-031","program":"sota","name":"Estrella","coordinates":[-3.604,38.3968]},{"code":"EA7/JA-114","program":"sota","name":"Montón de Trigo","coordinates":[-3.6756,38.3818]},{"code":"EA7/JA-126","program":"sota","name":"La Escaleruela","coordinates":[-3.7348,38.4105]},{"code":"EA7/JA-136","program":"sota","name":"Peñón de la Barbuda","coordinates":[-3.6403,38.3491]},{"code":"EA7/JA-141","program":"sota","name":"Peñón del Toro","coordinates":[-3.7323,38.3556]}]}