{"lat":38.25,"lon":-4,"programs":["sota"],"count":8,"references":[{"code":"EA4/CR-033","program":"sota","name":"Fresno","coordinates":[-3.8685,38.4303]},{"code":"EA4/CR-035","program":"sota","name":"Jalvegada","coordinates":[-3.8351,38.4272]},{"code":"EA4/CR-040","program":"sota","name":"Pico Herruzos (este)","coordinates":[-3.8649,38.4122]},{"code":"EA4/CR-116","program":"sota","name":"Pestaña de los Cimbrones","coordinates":[-3.9591,38.3866]},{"code":"EA7/JA-138","program":"sota","name":"Selladores II","coordinates":[-3.8598,38.3589]},{"code":"EA7/JA-139","program":"sota","name":"Las Parras","coordinates":[-3.8888,38.374]},{"code":"EA7/JA-156","program":"sota","name":"Peñón de Ambroz","coordinates":[-3.9502,38.3567]},{"code":"EA7/JA-159","program":"sota","name":"Cerro de San Cristobal","coordinates":[-3.8258,38.3557]}]}