{"lat":38.25,"lon":20.5,"programs":["pota","sota"],"count":8,"references":[{"code":"GR-0126","program":"pota","name":"Lefki-Stavros-Anogi(Ithakis) Wildlife Refuge","coordinates":[20.6644,38.4157]},{"code":"GR-0127","program":"pota","name":"Neochori (Komitaton Karyas) Wildlife Refuge","coordinates":[20.6167,38.3427]},{"code":"SV/IO-010","program":"sota","name":"Eksogi","coordinates":[20.632778,38.455276]},{"code":"SV/IO-011","program":"sota","name":"Nirito Oros","coordinates":[20.66361,38.41722]},{"code":"SV/IO-012","program":"sota","name":"Kalo Oros","coordinates":[20.57361,38.33472]},{"code":"SV/IO-015","program":"sota","name":"Nerovoulo","coordinates":[20.703333,38.349167]},{"code":"SV/IO-016","program":"sota","name":"Vigla","coordinates":[20.731945,38.376667]},{"code":"SV/IO-017","program":"sota","name":"Poros","coordinates":[20.709444,38.38]}]}