{"lat":38.25,"lon":140.25,"programs":["pota","sota"],"count":16,"references":[{"code":"JP-1074","program":"pota","name":"Tendo Kogen Prefectural Nature Park","coordinates":[140.452,38.349]},{"code":"JP-1076","program":"pota","name":"Yamagata Prefectural General Sports Prefectural Park","coordinates":[140.377,38.3361]},{"code":"JP-1079","program":"pota","name":"Nakayama Prefectural Park","coordinates":[140.267,38.3421]},{"code":"JP-1080","program":"pota","name":"Mogamigawa Furusato Sogo Prefectural Park","coordinates":[140.263,38.3652]},{"code":"JP-1083","program":"pota","name":"Kenko no Mori Prefectural Park","coordinates":[140.345,38.3003]},{"code":"JP-1087","program":"pota","name":"Kenseishi Ryokuchi Prefectural Park","coordinates":[140.341,38.2565]},{"code":"JA/MG-006","program":"sota","name":"Kamurodake","coordinates":[140.4854,38.2556]},{"code":"JA/MG-012","program":"sota","name":"Itodake","coordinates":[140.4971,38.2833]},{"code":"JA/YM-053","program":"sota","name":"Amayobariyama","coordinates":[140.4465,38.3388]},{"code":"JA/YM-082","program":"sota","name":"Suisyouyama","coordinates":[140.4595,38.3822]},{"code":"JA/YM-118","program":"sota","name":"Yamagatakamurodake","coordinates":[140.4712,38.251]},{"code":"JA/YM-129","program":"sota","name":"Koshikidake","coordinates":[140.4474,38.487]},{"code":"JA/YM-137","program":"sota","name":"JA/YM-137","coordinates":[140.4382,38.2859]},{"code":"JA/YM-147","program":"sota","name":"Takaokayama","coordinates":[140.4659,38.4307]},{"code":"JA/YM-155","program":"sota","name":"Kitairiyama","coordinates":[140.4487,38.43]},{"code":"JA/YM-158","program":"sota","name":"Oomoriyama","coordinates":[140.3982,38.3083]}]}