{"lat":38.25,"lon":-0.5,"programs":["gma","pota","wwbota"],"count":9,"references":[{"code":"EC/CV-235","program":"gma","name":"Rejas","coordinates":[-0.3398472,38.46337776]},{"code":"EC/CV-237","program":"gma","name":"Benacantil","coordinates":[-0.47940823,38.34860821]},{"code":"EC/CV-245","program":"gma","name":"Serra Grossa","coordinates":[-0.4594,38.3591]},{"code":"EC/CV-248","program":"gma","name":"Lloma Redona","coordinates":[-0.4705,38.3716]},{"code":"EC/CV-249","program":"gma","name":"Lloma de Santa Anna","coordinates":[-0.4675,38.3541]},{"code":"EC/CV-250","program":"gma","name":"Llomes del Garbinet","coordinates":[-0.4781,38.3792]},{"code":"ES-1831","program":"pota","name":"Camino de Santiago-Sudeste National Recreation Trail","coordinates":[-0.493188,38.3446]},{"code":"ES-0981","program":"pota","name":"Cap de les Hortes Natura 2000","coordinates":[-0.4206,38.3537]},{"code":"B/EA-0163","program":"wwbota","name":"Refugio Antiaéreo Alicante","coordinates":[-0.48967,38.34102]}]}