{"lat":38.25,"lon":-2.5,"programs":["gma","pota","sota"],"count":10,"references":[{"code":"EC/AB-002","program":"gma","name":"Mentiras","coordinates":[-2.47550011,38.32960129]},{"code":"ES-0083","program":"pota","name":"Calares del Mundo y de la Sima Nature Park","coordinates":[-2.41097,38.4289]},{"code":"EA5/AB-005","program":"sota","name":"Argel","coordinates":[-2.3908,38.4447]},{"code":"EA5/AB-006","program":"sota","name":"Padroncillo","coordinates":[-2.4673,38.4742]},{"code":"EA5/AB-018","program":"sota","name":"Torca Honda","coordinates":[-2.4798,38.323]},{"code":"EA5/AB-022","program":"sota","name":"Pico del Guijón","coordinates":[-2.3525,38.4565]},{"code":"EA5/AB-028","program":"sota","name":"El Agetar","coordinates":[-2.4529,38.4596]},{"code":"EA5/AB-029","program":"sota","name":"Picos del Oso","coordinates":[-2.3712,38.4999]},{"code":"EA5/AB-032","program":"sota","name":"Ardal","coordinates":[-2.3528,38.3608]},{"code":"EA5/AB-034","program":"sota","name":"Las Allanadas","coordinates":[-2.3932,38.3251]}]}