{"lat":38.25,"lon":21.25,"programs":["gma","pota","sota"],"count":5,"references":[{"code":"SX/ST-002","program":"gma","name":"Greveno","coordinates":[21.481425,38.457192]},{"code":"SX/ST-005","program":"gma","name":"Stachtias","coordinates":[21.399781,38.465763]},{"code":"GR-0132","program":"pota","name":"Messolonghi Lagoons Marine Protected Area","coordinates":[21.3361,38.375]},{"code":"GR-0133","program":"pota","name":"Asprolithi Dimou Massolongiou Wildlife Refuge","coordinates":[21.4479,38.4356]},{"code":"SV/ST-038","program":"sota","name":"Paliorolakkas","coordinates":[21.402222,38.433334]}]}