{"lat":38.25,"lon":-109.75,"programs":["pota","sota"],"count":11,"references":[{"code":"US-5789","program":"pota","name":"Behind the Rocks Wilderness Area","coordinates":[-109.525,38.2792]},{"code":"US-5800","program":"pota","name":"Trough Springs Canyon Trailhead BLM Recreation Management Area","coordinates":[-109.6,38.4093]},{"code":"US-5803","program":"pota","name":"Anticline Overlook BLM Recreation Management Area","coordinates":[-109.627,38.4648]},{"code":"US-11709","program":"pota","name":"The Ledge BLM Recreation Management Area","coordinates":[-109.602,38.4811]},{"code":"US-11720","program":"pota","name":"Hatch Point BLM Recreation Management Area","coordinates":[-109.614,38.3797]},{"code":"W7U/SJ-072","program":"sota","name":"United Nations Tablet","coordinates":[-109.7107,38.395]},{"code":"W7U/SJ-080","program":"sota","name":"5569","coordinates":[-109.6539,38.432]},{"code":"W7U/SJ-083","program":"sota","name":"5500","coordinates":[-109.6263,38.4964]},{"code":"W7U/SJ-092","program":"sota","name":"5201","coordinates":[-109.6739,38.3083]},{"code":"W7U/SJ-095","program":"sota","name":"Pyramid Butte","coordinates":[-109.691,38.4547]},{"code":"W7U/SJ-102","program":"sota","name":"5068","coordinates":[-109.6511,38.321]}]}