{"lat":38.25,"lon":-4.25,"programs":["pota","sota"],"count":16,"references":[{"code":"ES-0010","program":"pota","name":"Sierra de Andujar Nature Park","coordinates":[-4.02874,38.29]},{"code":"ES-0860","program":"pota","name":"Sierra Morena Natura 2000","coordinates":[-4.0289,38.4783]},{"code":"EA4/CR-001","program":"sota","name":"Bañuela","coordinates":[-4.2373,38.4194]},{"code":"EA4/CR-002","program":"sota","name":"Corral de Borros","coordinates":[-4.1469,38.4284]},{"code":"EA4/CR-012","program":"sota","name":"Rabanero","coordinates":[-4.1319,38.4891]},{"code":"EA4/CR-027","program":"sota","name":"Pico el Hornillo","coordinates":[-4.2212,38.4477]},{"code":"EA4/CR-029","program":"sota","name":"Cerro los Castillones","coordinates":[-4.101,38.4028]},{"code":"EA4/CR-032","program":"sota","name":"Pico de la Rebollera","coordinates":[-4.0277,38.4009]},{"code":"EA4/CR-049","program":"sota","name":"Cerro Cervigón","coordinates":[-4.2172,38.4871]},{"code":"EA4/CR-059","program":"sota","name":"Cerro del Brezalón","coordinates":[-4.1635,38.4644]},{"code":"EA4/CR-078","program":"sota","name":"Cerro Alcoba","coordinates":[-4.0893,38.4462]},{"code":"EA4/CR-079","program":"sota","name":"Cerro Cascarillas","coordinates":[-4.02,38.4368]},{"code":"EA7/JA-099","program":"sota","name":"Burcio del Pino","coordinates":[-4.2154,38.3947]},{"code":"EA7/JA-142","program":"sota","name":"Cerro Serreño","coordinates":[-4.0364,38.3759]},{"code":"EA7/JA-143","program":"sota","name":"Valtocado","coordinates":[-4.1164,38.3797]},{"code":"EA7/JA-148","program":"sota","name":"Aljibillo","coordinates":[-4.1483,38.2643]}]}