{"lat":38.25,"lon":-106,"programs":["pota","sota"],"count":9,"references":[{"code":"US-0195","program":"pota","name":"Ogden-Treat State Wildlife Area","coordinates":[-105.767,38.3999]},{"code":"W0C/SC-010","program":"sota","name":"Bushnell Peak","coordinates":[-105.8892,38.3413]},{"code":"W0C/SC-026","program":"sota","name":"Hunts Peak","coordinates":[-105.9457,38.3831]},{"code":"W0C/SC-027","program":"sota","name":"North Twin Sisters","coordinates":[-105.9019,38.3525]},{"code":"W0C/SC-028","program":"sota","name":"Red Mountain","coordinates":[-105.9205,38.3678]},{"code":"W0C/SC-030","program":"sota","name":"Nipple Mountain","coordinates":[-105.797,38.2664]},{"code":"W0C/SC-056","program":"sota","name":"Burned Timber Mountain","coordinates":[-105.7575,38.4603]},{"code":"W0C/SC-087","program":"sota","name":"8759","coordinates":[-105.8235,38.4778]},{"code":"W0C/SC-102","program":"sota","name":"8380","coordinates":[-105.8801,38.4947]}]}