{"lat":38.25,"lon":141,"programs":["pota","sota"],"count":7,"references":[{"code":"JP-1048","program":"pota","name":"Matsushima Prefectural Nature Park","coordinates":[141.064,38.3533]},{"code":"JP-1049","program":"pota","name":"Asahiyama Prefectural Nature Park","coordinates":[141.181,38.4883]},{"code":"JP-1052","program":"pota","name":"Matsushima Koen Prefectural Park","coordinates":[141.061,38.3661]},{"code":"JP-1054","program":"pota","name":"Sendaiko Tagajo Chiku Kansho Ryokuchi Prefectural Park","coordinates":[141.033,38.2895]},{"code":"JP-1055","program":"pota","name":"Yamoto Kaihin Ryokuchi Prefectural Park","coordinates":[141.238,38.4053]},{"code":"JA/MG-097","program":"sota","name":"Bangamoriyama","coordinates":[141.0138,38.3642]},{"code":"JA/MG-098","program":"sota","name":"Asahiyama","coordinates":[141.181,38.4903]}]}