{"lat":38.25,"lon":128.25,"programs":["pota","sota"],"count":12,"references":[{"code":"KR-0283","program":"pota","name":"향로봉·건봉산천연보호구역\tHyangnobong and Geonbongsan National Nature Reserve","coordinates":[128.338,38.4298]},{"code":"HL/GW-044","program":"sota","name":"둥글봉 (Dunggeulbong)","coordinates":[128.314,38.3075]},{"code":"HL/GW-136","program":"sota","name":"병풍바위 (Byeongpungbawi)","coordinates":[128.4009,38.2598]},{"code":"HL/GW-144","program":"sota","name":"HL/GW-144","coordinates":[128.2534,38.3349]},{"code":"HL/GW-172","program":"sota","name":"HL/GW-172","coordinates":[128.2582,38.315]},{"code":"HL/GW-192","program":"sota","name":"HL/GW-192","coordinates":[128.2681,38.3765]},{"code":"HL/GW-201","program":"sota","name":"건봉산 (Geonbongsan)","coordinates":[128.3382,38.4298]},{"code":"HL/GW-276","program":"sota","name":"큰까치봉 (Keunkkachibong)","coordinates":[128.344,38.4955]},{"code":"HL/GW-282","program":"sota","name":"HL/GW-282","coordinates":[128.3773,38.2516]},{"code":"HL/GW-382","program":"sota","name":"노인산 (Noinsan)","coordinates":[128.3942,38.4693]},{"code":"HL/GW-386","program":"sota","name":"HL/GW-386","coordinates":[128.4018,38.4186]},{"code":"HL/GW-397","program":"sota","name":"오음산 (Oeumsan)","coordinates":[128.4863,38.3426]}]}