{"lat":38.5,"lon":-2.5,"programs":["pota","sota"],"count":9,"references":[{"code":"ES-0854","program":"pota","name":"Laguna del Arquillo Natura 2000","coordinates":[-2.3625,38.7472]},{"code":"EA5/AB-003","program":"sota","name":"Almenaras","coordinates":[-2.449,38.5458]},{"code":"EA5/AB-014","program":"sota","name":"Gallinero","coordinates":[-2.3809,38.5281]},{"code":"EA5/AB-023","program":"sota","name":"Alto de Peñalta","coordinates":[-2.3068,38.5811]},{"code":"EA5/AB-024","program":"sota","name":"Pico de la Cabeza","coordinates":[-2.3632,38.5769]},{"code":"EA5/AB-030","program":"sota","name":"La Cúspide","coordinates":[-2.4899,38.5615]},{"code":"EA5/AB-033","program":"sota","name":"Sierra de la Veracruz","coordinates":[-2.3386,38.5866]},{"code":"EA5/AB-035","program":"sota","name":"Alto del Bañadero","coordinates":[-2.3178,38.5999]},{"code":"EA5/AB-037","program":"sota","name":"Cabezallera","coordinates":[-2.2579,38.5331]}]}