{"lat":38.5,"lon":139.5,"programs":["pota","sota"],"count":18,"references":[{"code":"JP-2072","program":"pota","name":"Marine Park Nezugaseki Prefectural Park","coordinates":[139.545,38.5566]},{"code":"JA/NI-112","program":"sota","name":"Nihongoku","coordinates":[139.5969,38.5251]},{"code":"JA/NI-120","program":"sota","name":"Takatoya","coordinates":[139.6638,38.5086]},{"code":"JA/NI-121","program":"sota","name":"Gengayama","coordinates":[139.5856,38.503]},{"code":"JA/YM-034","program":"sota","name":"Mayasan","coordinates":[139.7278,38.5202]},{"code":"JA/YM-073","program":"sota","name":"Atsumidake","coordinates":[139.6307,38.6201]},{"code":"JA/YM-079","program":"sota","name":"Yoroidake","coordinates":[139.6655,38.618]},{"code":"JA/YM-081","program":"sota","name":"Yakushidake","coordinates":[139.6651,38.5832]},{"code":"JA/YM-085","program":"sota","name":"Fujikurayama","coordinates":[139.6857,38.6626]},{"code":"JA/YM-091","program":"sota","name":"Oohatayama","coordinates":[139.6455,38.548]},{"code":"JA/YM-092","program":"sota","name":"Higashiyama","coordinates":[139.6355,38.5918]},{"code":"JA/YM-093","program":"sota","name":"Torinosu","coordinates":[139.691,38.6083]},{"code":"JA/YM-094","program":"sota","name":"Kadomadai","coordinates":[139.6098,38.563]},{"code":"JA/YM-100","program":"sota","name":"JA/YM-100","coordinates":[139.5939,38.5727]},{"code":"JA/YM-104","program":"sota","name":"JA/YM-104","coordinates":[139.6521,38.6661]},{"code":"JA/YM-105","program":"sota","name":"Imozawayama","coordinates":[139.6314,38.522]},{"code":"JA/YM-110","program":"sota","name":"Arakurayama","coordinates":[139.711,38.7363]},{"code":"JA/YM-159","program":"sota","name":"Tenpakusan","coordinates":[139.5882,38.6131]}]}