{"lat":38.5,"lon":-109.25,"programs":["pota","sota"],"count":12,"references":[{"code":"US-11884","program":"pota","name":"The Palisade BLM Wilderness Area","coordinates":[-109.005,38.7058]},{"code":"US-5761","program":"pota","name":"La Sal Mountain National Forest","coordinates":[-109.184,38.5785]},{"code":"US-10984","program":"pota","name":"Hideout Canyon Camping Area BLM Recreation Management Area","coordinates":[-109.191,38.6909]},{"code":"W0C/RP-054","program":"sota","name":"8700","coordinates":[-109.0423,38.5678]},{"code":"W7U/GR-006","program":"sota","name":"Pace Benchmark","coordinates":[-109.0771,38.5422]},{"code":"W7U/GR-013","program":"sota","name":"North Beaver Mesa","coordinates":[-109.1859,38.6314]},{"code":"W7U/GR-014","program":"sota","name":"Polar Mesa","coordinates":[-109.1456,38.6574]},{"code":"W7U/GR-017","program":"sota","name":"7186","coordinates":[-109.2372,38.7144]},{"code":"W7U/GR-029","program":"sota","name":"6475","coordinates":[-109.2129,38.6848]},{"code":"W7U/SU-003","program":"sota","name":"Waas Mount","coordinates":[-109.2276,38.5392]},{"code":"W7U/SU-004","program":"sota","name":"Manns Peak","coordinates":[-109.2223,38.5147]},{"code":"W7U/SU-005","program":"sota","name":"Tomasaki Mount","coordinates":[-109.2068,38.5022]}]}