{"lat":38.5,"lon":-90.75,"programs":["pota"],"count":10,"references":[{"code":"US-1745","program":"pota","name":"Babler Memorial State Park","coordinates":[-90.6903,38.6175]},{"code":"US-1751","program":"pota","name":"Castlewood State Park","coordinates":[-90.545,38.5487]},{"code":"US-1783","program":"pota","name":"Route 66 State Park","coordinates":[-90.5935,38.5029]},{"code":"US-5699","program":"pota","name":"August A. Busch Memorial State Conservation Area","coordinates":[-90.74,38.7052]},{"code":"US-6489","program":"pota","name":"Howell Island State Conservation Area","coordinates":[-90.68,38.664]},{"code":"US-6492","program":"pota","name":"Weldon Spring State Conservation Area","coordinates":[-90.7247,38.692]},{"code":"US-8315","program":"pota","name":"Rockwoods State Conservation Area","coordinates":[-90.6656,38.5639]},{"code":"US-10866","program":"pota","name":"Forest 44 State Conservation Area","coordinates":[-90.5329,38.5233]},{"code":"US-11266","program":"pota","name":"August G Beckmeier State Conservation Area","coordinates":[-90.5279,38.6774]},{"code":"US-12084","program":"pota","name":"Weldon Springs National Historical Park","coordinates":[-90.7244,38.6961]}]}