{"lat":38.5,"lon":-78.5,"programs":["pota","sota"],"count":13,"references":[{"code":"US-9957","program":"pota","name":"Shenandoah Wilderness Area","coordinates":[-78.3275,38.5774]},{"code":"W4V/SH-001","program":"sota","name":"Hawksbill","coordinates":[-78.3953,38.5553]},{"code":"W4V/SH-002","program":"sota","name":"Stony Man","coordinates":[-78.3719,38.5977]},{"code":"W4V/SH-005","program":"sota","name":"Pinnacle, The","coordinates":[-78.33,38.6279]},{"code":"W4V/SH-011","program":"sota","name":"Robertson Mountain","coordinates":[-78.3426,38.5701]},{"code":"W4V/SH-012","program":"sota","name":"Old Rag Mountain","coordinates":[-78.3144,38.5517]},{"code":"W4V/SH-013","program":"sota","name":"Pass Mountain","coordinates":[-78.3144,38.6828]},{"code":"W4V/SH-017","program":"sota","name":"Knob Mountain","coordinates":[-78.3489,38.729]},{"code":"W4V/SH-024","program":"sota","name":"Kennedy Peak","coordinates":[-78.4877,38.742]},{"code":"W4V/SH-025","program":"sota","name":"Pignut Mountain","coordinates":[-78.264,38.7181]},{"code":"W4V/SH-026","program":"sota","name":"Oventop Mountain","coordinates":[-78.2759,38.6725]},{"code":"W4V/SH-035","program":"sota","name":"Graves Mountain","coordinates":[-78.3469,38.5029]},{"code":"W4V/SH-043","program":"sota","name":"Dulaney Mountain","coordinates":[-78.26,38.5082]}]}