{"lat":38.5,"lon":-28.25,"programs":["pota","sota"],"count":9,"references":[{"code":"PT-0202","program":"pota","name":"Parque Natural de Sao Jorge Nature Park","coordinates":[-28.1329,38.6719]},{"code":"PT-0204","program":"pota","name":"Area Protegida para a Gestao de Habitats ou Especies da Costa Noroeste Protected Area","coordinates":[-28.0549,38.6718]},{"code":"PT-0205","program":"pota","name":"Area Protegida para a Gestao de Habitats ou Especies da Costa Sudoeste Protected Area","coordinates":[-28.0211,38.6047]},{"code":"PT-0206","program":"pota","name":"Area Protegida para a Gestao de Habitats ou Especies da Costa das Velas Protected Area","coordinates":[-28.2193,38.6822]},{"code":"PT-0207","program":"pota","name":"Area Protegida para a Gestao de Habitats ou Especies do Pico da Esperanca e Planalto Central Protected Area","coordinates":[-28.0777,38.6507]},{"code":"PT-0208","program":"pota","name":"Area Protegida para a Gestao de Habitats ou Especies da Faja das Almas Protected Area","coordinates":[-28.0775,38.6284]},{"code":"PT-0213","program":"pota","name":"Area Protegida de Gestao de Recursos de Entre Morros Protected Area","coordinates":[-28.2255,38.6923]},{"code":"PT-0214","program":"pota","name":"Area Protegida de Gestao de Recursos da Costa das Fajas Protected Area","coordinates":[-28.2062,38.7189]},{"code":"CU/SJ-001","program":"sota","name":"Pico da Esperanca","coordinates":[-28.074041,38.650574]}]}