{"lat":38.5,"lon":-0.75,"programs":["gma","pota","sota"],"count":21,"references":[{"code":"EC/CV-032","program":"gma","name":"Cenezosa","coordinates":[-0.6620888,38.66463614]},{"code":"EC/CV-034","program":"gma","name":"Carrasqueta","coordinates":[-0.50485276,38.61498602]},{"code":"EC/CV-058","program":"gma","name":"Eixar","coordinates":[-0.59566665,38.70983052]},{"code":"EC/CV-073","program":"gma","name":"Cuartel","coordinates":[-0.55549999,38.59423603]},{"code":"EC/CV-084","program":"gma","name":"Fernoveta","coordinates":[-0.58512767,38.63791932]},{"code":"ES-0161","program":"pota","name":"Carrascal de la Font Roja Nature Park","coordinates":[-0.539353,38.6645]},{"code":"ES-0166","program":"pota","name":"Sierra de Mariola Nature Park","coordinates":[-0.554736,38.7331]},{"code":"ES-0967","program":"pota","name":"Maigmo i Serres de la Foia de Castalla Natura 2000","coordinates":[-0.7211,38.5567]},{"code":"EA5/AT-005","program":"sota","name":"Menejador","coordinates":[-0.5378,38.6586]},{"code":"EA5/AT-007","program":"sota","name":"Maigmó","coordinates":[-0.6312,38.502]},{"code":"EA5/AT-008","program":"sota","name":"Despenyador","coordinates":[-0.6721,38.5329]},{"code":"EA5/AT-010","program":"sota","name":"Penya de Migjorn","coordinates":[-0.5408,38.5346]},{"code":"EA5/AT-012","program":"sota","name":"Reconco","coordinates":[-0.7191,38.6298]},{"code":"EA5/AT-043","program":"sota","name":"Alt de Guisop","coordinates":[-0.6554,38.5108]},{"code":"EA5/AT-044","program":"sota","name":"El Cremat","coordinates":[-0.5156,38.6062]},{"code":"EA5/AT-045","program":"sota","name":"Replana","coordinates":[-0.7299,38.5708]},{"code":"EA5/AT-046","program":"sota","name":"Fenassosa","coordinates":[-0.6621,38.6646]},{"code":"EA5/AT-049","program":"sota","name":"La Buitrera de Biscoi","coordinates":[-0.5987,38.651]},{"code":"EA5/AT-051","program":"sota","name":"La Blasca","coordinates":[-0.6857,38.6877]},{"code":"EA5/AT-053","program":"sota","name":"Serra de la Font Freda","coordinates":[-0.5679,38.7105]},{"code":"EA5/AT-078","program":"sota","name":"Salt de l'Àguila","coordinates":[-0.5586,38.5119]}]}