{"lat":38.5,"lon":-105.25,"programs":["pota","sota"],"count":10,"references":[{"code":"US-0192","program":"pota","name":"Beaver Creek State Wildlife Area","coordinates":[-105.023,38.5376]},{"code":"US-11897","program":"pota","name":"Beaver Creek BLM Wilderness Area","coordinates":[-105.012,38.5706]},{"code":"US-13110","program":"pota","name":"Skaguay Reservoir State Wildlife Area","coordinates":[-105.053,38.6885]},{"code":"W0C/FR-133","program":"sota","name":"Big Bull Mountain","coordinates":[-105.1123,38.7153]},{"code":"W0C/FR-135","program":"sota","name":"Bull Hill","coordinates":[-105.1399,38.7361]},{"code":"W0C/FR-143","program":"sota","name":"Brind Mountain","coordinates":[-105.1169,38.6941]},{"code":"W0C/FR-158","program":"sota","name":"9880","coordinates":[-105.1586,38.6581]},{"code":"W0C/FR-159","program":"sota","name":"Little Pisgah Peak","coordinates":[-105.1808,38.6754]},{"code":"W0C/SC-057","program":"sota","name":"Nipple Mountain","coordinates":[-105.1255,38.64]},{"code":"W0C/SC-076","program":"sota","name":"Cooper Mountain","coordinates":[-105.1571,38.5871]}]}