{"lat":38.5,"lon":16.25,"programs":["pota","sota"],"count":10,"references":[{"code":"IT-0388","program":"pota","name":"Marchesale Natura 2000","coordinates":[16.2553,38.5236]},{"code":"IT-0556","program":"pota","name":"Riserva Naturale Cropani - Micone Provincial Park","coordinates":[16.2987,38.5144]},{"code":"IT-0687","program":"pota","name":"Parco Naturale Regionale Serre Regional Park","coordinates":[16.3579,38.5489]},{"code":"I/CL-040","program":"sota","name":"Colla dei Pecorari","coordinates":[16.3923,38.553]},{"code":"I/CL-049","program":"sota","name":"Monte San Nicola","coordinates":[16.4269,38.5683]},{"code":"I/CL-055","program":"sota","name":"Monte Trematerra","coordinates":[16.4397,38.6117]},{"code":"I/CL-076","program":"sota","name":"Passo di Napoli – Quota 1014","coordinates":[16.3591,38.7344]},{"code":"I/CL-081","program":"sota","name":"Monte Cucco","coordinates":[16.3328,38.6478]},{"code":"I/CL-102","program":"sota","name":"Monte la Rosa","coordinates":[16.4751,38.7143]},{"code":"I/CL-313","program":"sota","name":"Monte Pecoraro","coordinates":[16.3444,38.5292]}]}