{"lat":38.5,"lon":-107,"programs":["pota","sota"],"count":7,"references":[{"code":"US-12177","program":"pota","name":"Almont Triangle State Wildlife Area","coordinates":[-106.84,38.6966]},{"code":"US-12353","program":"pota","name":"Roaring Judy State Fish Hatchery","coordinates":[-106.848,38.7174]},{"code":"US-12683","program":"pota","name":"Gunnison River State Wildlife Area","coordinates":[-106.935,38.559]},{"code":"W0C/WE-095","program":"sota","name":"10655","coordinates":[-106.756,38.6307]},{"code":"W0C/WE-096","program":"sota","name":"Flat Top","coordinates":[-106.9089,38.7103]},{"code":"W0C/WE-109","program":"sota","name":"9420","coordinates":[-106.8107,38.7132]},{"code":"W0C/WE-111","program":"sota","name":"Antelope Benchmark","coordinates":[-106.9904,38.6504]}]}