{"lat":38.5,"lon":141.25,"programs":["gma","sota"],"count":12,"references":[{"code":"XJA/MG-055","program":"gma","name":"Takatsumori","coordinates":[141.3554,38.5882]},{"code":"XJA/MG-084","program":"gma","name":"Takatsumori","coordinates":[141.3511,38.586]},{"code":"JA/MG-043","program":"sota","name":"Okinagurayama","coordinates":[141.3958,38.6039]},{"code":"JA/MG-045","program":"sota","name":"Kenjyozan","coordinates":[141.431,38.5026]},{"code":"JA/MG-046","program":"sota","name":"Tatsuganesan","coordinates":[141.467,38.7499]},{"code":"JA/MG-051","program":"sota","name":"Jyoubonsan","coordinates":[141.3588,38.5006]},{"code":"JA/MG-057","program":"sota","name":"Ootsukayama","coordinates":[141.3735,38.675]},{"code":"JA/MG-060","program":"sota","name":"Horowasan (Otokohorowasan)","coordinates":[141.4074,38.6577]},{"code":"JA/MG-082","program":"sota","name":"Shingyodouzan","coordinates":[141.4318,38.732]},{"code":"JA/MG-084","program":"sota","name":"Takatsumori","coordinates":[141.3511,38.586]},{"code":"JA/MG-085","program":"sota","name":"Kobuchiyama","coordinates":[141.4473,38.5276]},{"code":"JA/MG-101","program":"sota","name":"Konpirayama","coordinates":[141.3312,38.5237]}]}