{"lat":38.5,"lon":-107.75,"programs":["pota","sota"],"count":8,"references":[{"code":"US-0008","program":"pota","name":"Black Canyon of the Gunnison National Park","coordinates":[-107.731,38.5762]},{"code":"US-1215","program":"pota","name":"Crawford State Park","coordinates":[-107.604,38.6871]},{"code":"W0C/SJ-021","program":"sota","name":"Youngs Peak","coordinates":[-107.6064,38.7114]},{"code":"W0C/UR-027","program":"sota","name":"South Saddle Peak","coordinates":[-107.5156,38.7052]},{"code":"W0C/UR-035","program":"sota","name":"Poison Spring Hill","coordinates":[-107.6446,38.5552]},{"code":"W0C/UR-037","program":"sota","name":"Pine Ridge","coordinates":[-107.5873,38.5147]},{"code":"W0C/UR-040","program":"sota","name":"Green Mountain","coordinates":[-107.7355,38.5949]},{"code":"W0C/UR-044","program":"sota","name":"Needle Rock","coordinates":[-107.5498,38.7245]}]}