{"lat":38.5,"lon":-4.5,"programs":["pota","sota"],"count":6,"references":[{"code":"ES-0087","program":"pota","name":"Valle de Alcudia y Sierra Madrona Nature Park","coordinates":[-4.31255,38.525]},{"code":"EA4/CR-010","program":"sota","name":"Morro de la Atalaya","coordinates":[-4.294,38.5169]},{"code":"EA4/CR-038","program":"sota","name":"Pico las Almagras","coordinates":[-4.4904,38.5446]},{"code":"EA4/CR-042","program":"sota","name":"Chorreras","coordinates":[-4.4033,38.54]},{"code":"EA4/CR-061","program":"sota","name":"Pico Castillón de las Morenas (noroeste)","coordinates":[-4.2795,38.6211]},{"code":"EA4/CR-065","program":"sota","name":"Pico del Arroyo de las Rasillas (noroeste)","coordinates":[-4.4101,38.7125]}]}