{"lat":38.5,"lon":-119.5,"programs":["gma","sota"],"count":5,"references":[{"code":"XW7N/TR-024","program":"gma","name":"Pine Nut Benchmark","coordinates":[-119.36530304,38.61090088]},{"code":"W6/ND-004","program":"sota","name":"Middle Sister","coordinates":[-119.2953,38.5078]},{"code":"W7N/TR-001","program":"sota","name":"East Sister","coordinates":[-119.2901,38.5232]},{"code":"W7N/TR-009","program":"sota","name":"Desert Creek Peak","coordinates":[-119.3157,38.6139]},{"code":"W7N/TR-085","program":"sota","name":"Wellington Hills","coordinates":[-119.3484,38.6317]}]}