{"lat":38.5,"lon":21.5,"programs":["pota","sota"],"count":8,"references":[{"code":"GR-0134","program":"pota","name":"Mega Lakos- Pyrgos Dimou  Thermou Wildlife Refuge","coordinates":[21.6789,38.5334]},{"code":"GR-0233","program":"pota","name":"Limnes Trichonida kai Lysimachia Natura 2000","coordinates":[21.5188,38.5752]},{"code":"SV/ST-045","program":"sota","name":"Tumpa","coordinates":[21.64889,38.71472]},{"code":"SV/ST-087","program":"sota","name":"Triantafillia","coordinates":[21.686388,38.7025]},{"code":"SV/ST-089","program":"sota","name":"Mega Isoma","coordinates":[21.706388,38.704723]},{"code":"SV/ST-091","program":"sota","name":"Mesovuni","coordinates":[21.659721,38.688057]},{"code":"SV/ST-093","program":"sota","name":"Mitikas","coordinates":[21.626389,38.689167]},{"code":"SV/ST-096","program":"sota","name":"Katelanos","coordinates":[21.574722,38.692223]}]}