{"lat":38.75,"lon":-79,"programs":["pota","sota"],"count":7,"references":[{"code":"US-1816","program":"pota","name":"Lost River State Park","coordinates":[-78.9237,38.8959]},{"code":"W4V/HB-037","program":"sota","name":"West Mountain","coordinates":[-78.93,38.7964]},{"code":"W8V/PH-094","program":"sota","name":"Big Ridge","coordinates":[-78.8912,38.9184]},{"code":"W8V/PH-098","program":"sota","name":"Snyder Knob","coordinates":[-78.7727,38.9285]},{"code":"W8V/PH-107","program":"sota","name":"Cove Mountain","coordinates":[-78.8264,38.8862]},{"code":"W8V/PH-110","program":"sota","name":"2917","coordinates":[-78.8524,38.8244]},{"code":"W8V/PH-118","program":"sota","name":"2740","coordinates":[-78.9975,38.9881]}]}