{"lat":38.75,"lon":22.25,"programs":["pota","sota"],"count":5,"references":[{"code":"GR-0093","program":"pota","name":"ETHNIKOS DRYMOS OITIS - KOILADA ASOPOU Natura 2000","coordinates":[22.2712,38.7865]},{"code":"SV/ST-001","program":"sota","name":"Pyrgos","coordinates":[22.255833,38.7925]},{"code":"SV/ST-007","program":"sota","name":"Xerovuni","coordinates":[22.305834,38.771667]},{"code":"SV/ST-008","program":"sota","name":"Greveno","coordinates":[22.288334,38.8225]},{"code":"SV/ST-127","program":"sota","name":"Prof. Ilias","coordinates":[22.448053,38.99448]}]}