{"lat":38.75,"lon":-78,"programs":["pota","sota"],"count":5,"references":[{"code":"US-1318","program":"pota","name":"Sky Meadows State Park","coordinates":[-77.9714,38.9913]},{"code":"W4V/SH-036","program":"sota","name":"Big Cobbler Mountain","coordinates":[-77.9531,38.8382]},{"code":"W4V/SH-039","program":"sota","name":"Naked Mountain","coordinates":[-77.9833,38.919]},{"code":"W4V/SH-042","program":"sota","name":"Little Cobbler Mountain","coordinates":[-77.9447,38.8679]},{"code":"W4V/SH-048","program":"sota","name":"Wildcat Mountain","coordinates":[-77.8391,38.7925]}]}