{"lat":38.75,"lon":-105.75,"programs":["pota","sota"],"count":11,"references":[{"code":"US-1217","program":"pota","name":"Eleven Mile State Park","coordinates":[-105.53,38.9381]},{"code":"US-1240","program":"pota","name":"Spinney Mountain State Park","coordinates":[-105.647,38.9859]},{"code":"US-12138","program":"pota","name":"Charlie Meyers State Wildlife Area","coordinates":[-105.598,38.9652]},{"code":"W0C/FR-041","program":"sota","name":"Dicks Peak","coordinates":[-105.6405,38.7954]},{"code":"W0C/FR-224","program":"sota","name":"10140","coordinates":[-105.5206,38.7809]},{"code":"W0C/SP-066","program":"sota","name":"Thirtynine Mile Mountain","coordinates":[-105.5552,38.8325]},{"code":"W0C/SP-079","program":"sota","name":"Stoll Mountain","coordinates":[-105.501,38.9923]},{"code":"W0C/SP-096","program":"sota","name":"10214","coordinates":[-105.5559,38.868]},{"code":"W0C/SP-101","program":"sota","name":"10090","coordinates":[-105.6513,38.8319]},{"code":"W0C/SP-107","program":"sota","name":"Threemile Mountain","coordinates":[-105.637,38.8613]},{"code":"W0C/SP-118","program":"sota","name":"Spinney Mountain","coordinates":[-105.613,38.9868]}]}