{"lat":38.75,"lon":-9.5,"programs":["pota","sota"],"count":7,"references":[{"code":"PT-0041","program":"pota","name":"Parque Natural de Sintra-Cascais Nature Park","coordinates":[-9.46278,38.8586]},{"code":"PT-0348","program":"pota","name":"Carenque Natural Monument","coordinates":[-9.2564,38.7741]},{"code":"PT-0362","program":"pota","name":"Campo de Lapiaz de Negrais Protected Landscape","coordinates":[-9.27207,38.8758]},{"code":"PT-0364","program":"pota","name":"Campo de Lapiaz da Granja dos Serrões Protected Landscape","coordinates":[-9.30513,38.8639]},{"code":"PT-0376","program":"pota","name":"Tapada Nacional de Mafra National Park","coordinates":[-9.29185,38.9568]},{"code":"PT-0377","program":"pota","name":"Litoral Sintra/Ericeira Protected Landscape Area","coordinates":[-9.44443,38.9031]},{"code":"CT/ES-002","program":"sota","name":"Cruz Alta","coordinates":[-9.3913,38.782]}]}