{"lat":38.75,"lon":-79.5,"programs":["pota","sota"],"count":11,"references":[{"code":"US-12438","program":"pota","name":"Dolly Sods Wilderness Area","coordinates":[-79.3656,38.987]},{"code":"US-12442","program":"pota","name":"Roaring Plains West Wilderness Area","coordinates":[-79.3958,38.9368]},{"code":"W8V/PH-005","program":"sota","name":"Porte Crayon, Mount","coordinates":[-79.4562,38.929]},{"code":"W8V/PH-014","program":"sota","name":"Picea Benchmark","coordinates":[-79.471,38.7965]},{"code":"W8V/PH-023","program":"sota","name":"Weiss Knob","coordinates":[-79.4298,38.9937]},{"code":"W8V/PH-054","program":"sota","name":"High Knob","coordinates":[-79.3358,38.8291]},{"code":"W8V/PH-066","program":"sota","name":"North Fork Benchmark","coordinates":[-79.2725,38.9363]},{"code":"W8V/PH-112","program":"sota","name":"Harman Knob","coordinates":[-79.3909,38.7926]},{"code":"W8V/PH-114","program":"sota","name":"Germany Knob","coordinates":[-79.4071,38.773]},{"code":"W8V/PH-115","program":"sota","name":"Cave Mountain","coordinates":[-79.2707,38.8473]},{"code":"W8V/PH-136","program":"sota","name":"Skidmore Mountain","coordinates":[-79.31,38.9154]}]}