{"lat":38.75,"lon":-5,"programs":["gma","pota","sota"],"count":11,"references":[{"code":"XEA4/CR-025","program":"gma","name":"Don Pablo","coordinates":[-4.88000011,38.95709991]},{"code":"ES-2152","program":"pota","name":"Heritage of Mercury. Almadén and Idrija World Heritage Site","coordinates":[-4.84708,38.8333]},{"code":"ES-1074","program":"pota","name":"Corredores de Siruela Natura 2000","coordinates":[-4.9444,38.8875]},{"code":"EA4/BA-014","program":"sota","name":"Doña Justa","coordinates":[-4.9659,38.7755]},{"code":"EA4/BA-024","program":"sota","name":"Morro de la Conquista","coordinates":[-4.893,38.9525]},{"code":"EA4/CR-096","program":"sota","name":"Cerro de la Osa","coordinates":[-4.7602,38.8973]},{"code":"EA4/CR-102","program":"sota","name":"Pilón del Lobo","coordinates":[-4.8599,38.8849]},{"code":"EA4/CR-107","program":"sota","name":"Pescadera","coordinates":[-4.7675,38.957]},{"code":"EA4/CR-112","program":"sota","name":"Cordonero","coordinates":[-4.7983,38.761]},{"code":"EA4/CR-113","program":"sota","name":"Virgen del Castillo","coordinates":[-4.8633,38.773]},{"code":"EA4/CR-115","program":"sota","name":"Pico Sierra de Cejalva","coordinates":[-4.8922,38.7862]}]}