{"lat":38.75,"lon":-81.75,"programs":["pota"],"count":5,"references":[{"code":"US-7059","program":"pota","name":"Frozen Camp Wildlife Management Area","coordinates":[-81.5453,38.7944]},{"code":"US-7061","program":"pota","name":"OBrien Lake Wildlife Management Area","coordinates":[-81.6426,38.7589]},{"code":"US-9914","program":"pota","name":"Elk Fork Lake Wildlife Management Area","coordinates":[-81.6121,38.7982]},{"code":"US-9915","program":"pota","name":"Cedar Lakes State Recreation Area","coordinates":[-81.6849,38.7952]},{"code":"US-12045","program":"pota","name":"Sandy Creek Wildlife Management Area","coordinates":[-81.5733,38.9157]}]}