{"lat":38.75,"lon":-78.5,"programs":["pota","sota"],"count":7,"references":[{"code":"US-1315","program":"pota","name":"Seven Bends State Park","coordinates":[-78.4911,38.8548]},{"code":"US-1316","program":"pota","name":"Shenandoah River State Park","coordinates":[-78.3074,38.8491]},{"code":"US-9910","program":"pota","name":"Massanutten National Recreation Trail","coordinates":[-78.3295,38.9279]},{"code":"US-9969","program":"pota","name":"Front Royal State Fish Hatchery","coordinates":[-78.2929,38.9501]},{"code":"W4V/HB-041","program":"sota","name":"Meneka Peak","coordinates":[-78.335,38.9493]},{"code":"W4V/HB-044","program":"sota","name":"Little Crease Mountain","coordinates":[-78.3387,38.8885]},{"code":"W4V/SH-007","program":"sota","name":"Hogback Mountain","coordinates":[-78.2742,38.762]}]}