{"lat":38.75,"lon":-123.5,"programs":["pota","sota"],"count":16,"references":[{"code":"US-3465","program":"pota","name":"Mailliard Redwoods Reserve State Conservation Area","coordinates":[-123.335,38.905]},{"code":"W6/NC-128","program":"sota","name":"Grizzly Peak","coordinates":[-123.2792,38.971]},{"code":"W6/NC-170","program":"sota","name":"Buck Peak","coordinates":[-123.4661,38.9556]},{"code":"W6/NC-171","program":"sota","name":"Black Mountain","coordinates":[-123.2689,38.7939]},{"code":"W6/NC-184","program":"sota","name":"Gube Mountain","coordinates":[-123.3185,38.8498]},{"code":"W6/NC-227","program":"sota","name":"Phelps Ridge","coordinates":[-123.415,38.8962]},{"code":"W6/NC-275","program":"sota","name":"1996","coordinates":[-123.3557,38.9482]},{"code":"W6/NC-301","program":"sota","name":"1900","coordinates":[-123.3413,38.9127]},{"code":"W6/NC-309","program":"sota","name":"Red Rock Benchmark","coordinates":[-123.4414,38.7935]},{"code":"W6/NC-330","program":"sota","name":"1770","coordinates":[-123.3609,38.9065]},{"code":"W6/NC-344","program":"sota","name":"1660","coordinates":[-123.3906,38.8241]},{"code":"W6/NC-347","program":"sota","name":"Burnt Ridge","coordinates":[-123.348,38.7883]},{"code":"W6/NC-355","program":"sota","name":"Flat Ridge","coordinates":[-123.3136,38.7728]},{"code":"W6/NC-488","program":"sota","name":"2540","coordinates":[-123.2729,38.8289]},{"code":"W6/NC-512","program":"sota","name":"Rockpile Peak","coordinates":[-123.358,38.8186]},{"code":"W6/NC-518","program":"sota","name":"1660","coordinates":[-123.3862,38.9892]}]}