{"lat":38.75,"lon":-119.5,"programs":["pota","sota"],"count":8,"references":[{"code":"US-13022","program":"pota","name":"Alkali Lake Wildlife Management Area","coordinates":[-119.4,38.9264]},{"code":"US-13023","program":"pota","name":"Artesia Lake State Wildlife Area","coordinates":[-119.372,38.9512]},{"code":"W7N/TR-004","program":"sota","name":"Oreana Peak","coordinates":[-119.479,38.8648]},{"code":"W7N/TR-010","program":"sota","name":"Eagle Mountain","coordinates":[-119.4781,38.8168]},{"code":"W7N/TR-011","program":"sota","name":"Rice Peak","coordinates":[-119.465,38.9844]},{"code":"W7N/TR-023","program":"sota","name":"7900","coordinates":[-119.4457,38.8324]},{"code":"W7N/TR-033","program":"sota","name":"7242","coordinates":[-119.424,38.7936]},{"code":"W7N/TR-049","program":"sota","name":"Shamrock Hill","coordinates":[-119.2611,38.9225]}]}