{"lat":38.75,"lon":16.5,"programs":["pota","sota"],"count":9,"references":[{"code":"IT-1936","program":"pota","name":"Scogliera di Staletti Natura 2000","coordinates":[16.5689,38.7567]},{"code":"IT-1937","program":"pota","name":"Oasi di Scolacium Natura 2000","coordinates":[16.5808,38.7869]},{"code":"IT-1980","program":"pota","name":"Valle Uria Natura 2000","coordinates":[16.6949,38.99]},{"code":"I/CL-080","program":"sota","name":"Colle Pallone","coordinates":[16.5024,38.9786]},{"code":"I/CL-082","program":"sota","name":"Colle Cerasio","coordinates":[16.5719,38.9754]},{"code":"I/CL-090","program":"sota","name":"Monte Gimigliano","coordinates":[16.5306,38.9804]},{"code":"I/CL-107","program":"sota","name":"Lazzato","coordinates":[16.6251,38.9795]},{"code":"I/CL-112","program":"sota","name":"Timpone i Comuni","coordinates":[16.6033,38.9329]},{"code":"I/CL-114","program":"sota","name":"Monte Cardito","coordinates":[16.6712,38.9706]}]}