{"lat":39,"lon":-105.75,"programs":["pota","sota"],"count":16,"references":[{"code":"US-11895","program":"pota","name":"Tarryall Reservoir State Wildlife Area","coordinates":[-105.609,39.231]},{"code":"US-12140","program":"pota","name":"Spinney Mountain State Wildlife Area","coordinates":[-105.739,39.0178]},{"code":"US-12172","program":"pota","name":"James Mark Jones State Wildlife Area","coordinates":[-105.733,39.1179]},{"code":"W0C/SP-065","program":"sota","name":"Puma Peak","coordinates":[-105.5815,39.1572]},{"code":"W0C/SP-071","program":"sota","name":"Schoolmarm Mountain","coordinates":[-105.5942,39.1153]},{"code":"W0C/SP-072","program":"sota","name":"Badger Mountain","coordinates":[-105.5126,39.049]},{"code":"W0C/SP-074","program":"sota","name":"Burntop","coordinates":[-105.5832,39.19]},{"code":"W0C/SP-078","program":"sota","name":"10874","coordinates":[-105.5484,39.126]},{"code":"W0C/SP-091","program":"sota","name":"10462","coordinates":[-105.5284,39.1452]},{"code":"W0C/SP-092","program":"sota","name":"The Pulverizer","coordinates":[-105.5293,39.021]},{"code":"W0C/SP-093","program":"sota","name":"Indian Benchmark","coordinates":[-105.7347,39.2389]},{"code":"W0C/SP-103","program":"sota","name":"10069","coordinates":[-105.552,39.0186]},{"code":"W0C/SP-110","program":"sota","name":"Maria Benchmark","coordinates":[-105.7484,39.0779]},{"code":"W0C/SP-113","program":"sota","name":"Eagle Rock","coordinates":[-105.6642,39.2234]},{"code":"W0C/SP-121","program":"sota","name":"Sulphur Mountain","coordinates":[-105.6415,39.033]},{"code":"W0C/SP-128","program":"sota","name":"Little Puma","coordinates":[-105.5702,39.1652]}]}