{"lat":39,"lon":16.5,"programs":["gma","sota"],"count":8,"references":[{"code":"IT/CL-1007","program":"gma","name":"Monte Gariglione","coordinates":[16.62439919,39.13560104]},{"code":"I/CL-007","program":"sota","name":"Montenero","coordinates":[16.5991,39.2246]},{"code":"I/CL-012","program":"sota","name":"Pietrascritta – Quota 1771","coordinates":[16.6636,39.1381]},{"code":"I/CL-015","program":"sota","name":"Monte Scorciavuoi","coordinates":[16.6136,39.1657]},{"code":"I/CL-024","program":"sota","name":"Toscana – Quota 1547","coordinates":[16.5582,39.1882]},{"code":"I/CL-045","program":"sota","name":"Colle Castagna","coordinates":[16.5304,39.0593]},{"code":"I/CL-057","program":"sota","name":"Serra Immella","coordinates":[16.7257,39.2437]},{"code":"I/CL-079","program":"sota","name":"Monte Panaro","coordinates":[16.5672,39.0028]}]}