{"lat":39,"lon":-113.5,"programs":["pota","sota"],"count":11,"references":[{"code":"US-6041","program":"pota","name":"Sink Hole BLM Recreation Management Area","coordinates":[-113.27,39.2046]},{"code":"US-6044","program":"pota","name":"Amasa Basin BLM Recreation Management Area","coordinates":[-113.308,39.1415]},{"code":"US-6048","program":"pota","name":"Notch Peak Trailhead BLM Recreation Management Area","coordinates":[-113.352,39.1294]},{"code":"US-6060","program":"pota","name":"Hermit's Cabin/Cave State Recreation Area","coordinates":[-113.403,39.2472]},{"code":"US-6064","program":"pota","name":"House Range BLM Recreation Management Area","coordinates":[-113.406,39.0429]},{"code":"US-10983","program":"pota","name":"Notch Peak WSA BLM Wilderness Area","coordinates":[-113.409,39.1433]},{"code":"W7U/MI-033","program":"sota","name":"7901","coordinates":[-113.3686,39.1116]},{"code":"W7U/MI-081","program":"sota","name":"6540","coordinates":[-113.4086,39.2362]},{"code":"W7U/MI-091","program":"sota","name":"6220","coordinates":[-113.4533,39.0148]},{"code":"W7U/MI-102","program":"sota","name":"5944","coordinates":[-113.4288,39.0284]},{"code":"W7U/SU-033","program":"sota","name":"Notch Peak","coordinates":[-113.4092,39.1432]}]}