{"lat":39,"lon":-4.75,"programs":["pota","sota"],"count":6,"references":[{"code":"ES-0869","program":"pota","name":"Bonales de la comarca de Los Montes del Guadiana Natura 2000","coordinates":[-4.5753,39.1147]},{"code":"EA4/CR-092","program":"sota","name":"Diablo","coordinates":[-4.6816,39.1656]},{"code":"EA4/CR-093","program":"sota","name":"Pico Morro de Castilnegro","coordinates":[-4.5529,39.0319]},{"code":"EA4/CR-101","program":"sota","name":"Caballos","coordinates":[-4.601,39.0513]},{"code":"EA4/CR-103","program":"sota","name":"Siyeruelo","coordinates":[-4.5027,39.0478]},{"code":"EA4/CR-109","program":"sota","name":"Grajo","coordinates":[-4.6295,39.016]}]}