{"lat":39,"lon":-4.5,"programs":["gma","pota","sota"],"count":11,"references":[{"code":"EC/CM-002","program":"gma","name":"Solonazo","coordinates":[-4.44229984,39.1833992]},{"code":"ES-0862","program":"pota","name":"Rios de la cuenca media del Guadiana y laderas vertientes Natura 2000","coordinates":[-4.405,39.0297]},{"code":"ES-1869","program":"pota","name":"Camino Natural del Guadiana National Recreation Trail","coordinates":[-4.3432,39.1577]},{"code":"EA4/CR-022","program":"sota","name":"Hontanar","coordinates":[-4.4422,39.1824]},{"code":"EA4/CR-066","program":"sota","name":"Rayo","coordinates":[-4.3732,39.1576]},{"code":"EA4/CR-071","program":"sota","name":"Navalrincón","coordinates":[-4.3621,39.217]},{"code":"EA4/CR-073","program":"sota","name":"Valronquillo I","coordinates":[-4.3296,39.0246]},{"code":"EA4/CR-074","program":"sota","name":"Pico Sierra de Navalaencina","coordinates":[-4.3429,39.1737]},{"code":"EA4/CR-075","program":"sota","name":"Sierra Huerta","coordinates":[-4.3162,39.1555]},{"code":"EA4/CR-082","program":"sota","name":"Pico Valmayor","coordinates":[-4.2848,39.0276]},{"code":"EA4/CR-084","program":"sota","name":"Pico Loma del Toro","coordinates":[-4.2686,39.1491]}]}