{"lat":39,"lon":16,"programs":["pota","sota"],"count":6,"references":[{"code":"IT-1988","program":"pota","name":"Monte Cocuzzo Natura 2000","coordinates":[16.1347,39.2219]},{"code":"I/CL-039","program":"sota","name":"Monte Mancuso","coordinates":[16.2251,39.0194]},{"code":"I/CL-046","program":"sota","name":"Monte Scudiero","coordinates":[16.2176,39.179]},{"code":"I/CL-096","program":"sota","name":"Monte Sant Angelo","coordinates":[16.1767,39.0966]},{"code":"I/CL-105","program":"sota","name":"Cozzo dello Scavo","coordinates":[16.1225,39.1287]},{"code":"I/CL-312","program":"sota","name":"Monte Cocuzzo","coordinates":[16.133,39.2187]}]}