{"lat":39,"lon":-110.25,"programs":["pota","sota"],"count":7,"references":[{"code":"US-5834","program":"pota","name":"Nefertiti BLM Recreation Management Area","coordinates":[-110.077,39.1955]},{"code":"US-5843","program":"pota","name":"Desolation Canyon BLM Wilderness Area","coordinates":[-110.19,39.241]},{"code":"US-11344","program":"pota","name":"Swasey's Beach BLM Recreation Management Area","coordinates":[-110.111,39.1163]},{"code":"US-11345","program":"pota","name":"Swaseys Boat Ramp BLM Recreation Management Area","coordinates":[-110.109,39.1123]},{"code":"W7U/EM-074","program":"sota","name":"Blue Castle Butte","coordinates":[-110.2035,39.0861]},{"code":"W7U/EM-082","program":"sota","name":"Gunnison Butte","coordinates":[-110.125,39.1059]},{"code":"W7U/GR-030","program":"sota","name":"6360","coordinates":[-110.0264,39.0682]}]}