{"lat":39,"lon":8.75,"programs":["pota","sota"],"count":14,"references":[{"code":"IT-0001","program":"pota","name":"Foresta di Monte Arcosu Natura 2000","coordinates":[8.84639,39.1286]},{"code":"IT-0043","program":"pota","name":"Canale su Longuvresu Natura 2000","coordinates":[8.8958,39.0322]},{"code":"IS0/IS-040","program":"sota","name":"Monte is Caràvius","coordinates":[8.8262,39.1487]},{"code":"IS0/IS-041","program":"sota","name":"Monte Tiriccu","coordinates":[8.8021,39.1224]},{"code":"IS0/IS-056","program":"sota","name":"Monte Maxia","coordinates":[8.8483,39.0816]},{"code":"IS0/IS-063","program":"sota","name":"Punta Sebera","coordinates":[8.832,39.0474]},{"code":"IS0/IS-066","program":"sota","name":"Serra Su Corru Campu","coordinates":[8.8528,39.1919]},{"code":"IS0/IS-085","program":"sota","name":"Punta Sa Cresia","coordinates":[8.9086,39.0293]},{"code":"IS0/IS-121","program":"sota","name":"Monte Conchioru","coordinates":[8.9275,39.1304]},{"code":"IS0/IS-136","program":"sota","name":"Monte Orri","coordinates":[8.7591,39.2294]},{"code":"IS0/IS-156","program":"sota","name":"Conca d'Oru","coordinates":[8.9585,39.1063]},{"code":"IS0/IS-169","program":"sota","name":"Punta Spanizzadas","coordinates":[8.8733,39.1511]},{"code":"IS0/IS-187","program":"sota","name":"Monte Su Baraccone","coordinates":[8.8963,39.0818]},{"code":"IS0/IS-264","program":"sota","name":"Monte Bagadiu","coordinates":[8.9456,39.0035]}]}