{"lat":39,"lon":-79.5,"programs":["pota","sota"],"count":6,"references":[{"code":"US-0607","program":"pota","name":"Canaan Valley National Wildlife Refuge","coordinates":[-79.447,39.0456]},{"code":"US-1802","program":"pota","name":"Blackwater Falls State Park","coordinates":[-79.4837,39.1126]},{"code":"US-1806","program":"pota","name":"Canaan Valley Resort State Park","coordinates":[-79.4652,39.0242]},{"code":"US-1812","program":"pota","name":"Fairfax Stone State Park","coordinates":[-79.4872,39.1949]},{"code":"US-12039","program":"pota","name":"Little Canaan Wildlife Management Area","coordinates":[-79.4349,39.1407]},{"code":"W8V/PH-041","program":"sota","name":"Pointy Knob","coordinates":[-79.4984,39.03]}]}