{"lat":39,"lon":-78.75,"programs":["pota","sota"],"count":7,"references":[{"code":"US-7015","program":"pota","name":"Short Mountain Wildlife Management Area","coordinates":[-78.6608,39.2038]},{"code":"US-7019","program":"pota","name":"Warden Lake Wildlife Management Area","coordinates":[-78.597,39.1308]},{"code":"US-12041","program":"pota","name":"Lost River Wildlife Management Area","coordinates":[-78.6721,39.0628]},{"code":"W4V/HB-031","program":"sota","name":"2810","coordinates":[-78.5675,39.0357]},{"code":"W8V/PH-111","program":"sota","name":"Bald Knob","coordinates":[-78.7428,39.0973]},{"code":"W8V/PH-126","program":"sota","name":"2619","coordinates":[-78.6454,39.2272]},{"code":"W8V/PH-138","program":"sota","name":"North River Mountain","coordinates":[-78.582,39.1882]}]}