{"lat":39,"lon":-0.75,"programs":["gma","pota","sota"],"count":9,"references":[{"code":"EC/CV-182","program":"gma","name":"Cruz","coordinates":[-0.73105275,39.10421943]},{"code":"EC/CV-197","program":"gma","name":"Montot","coordinates":[-0.62259167,39.04558056]},{"code":"ES-1017","program":"pota","name":"Riu Xuquer Natura 2000","coordinates":[-0.6428,39.1164]},{"code":"ES-1036","program":"pota","name":"Ullals del riu Verd Natura 2000","coordinates":[-0.5319,39.146]},{"code":"ES-1037","program":"pota","name":"Sima de les Graelles-Tous Natura 2000","coordinates":[-0.667,39.1138]},{"code":"ES-1039","program":"pota","name":"Cova de la Moneda-Cotes Natura 2000","coordinates":[-0.6128,39.0575]},{"code":"EA5/VL-089","program":"sota","name":"Quencall","coordinates":[-0.6157,39.2336]},{"code":"EA5/VL-094","program":"sota","name":"El Montot","coordinates":[-0.623,39.0451]},{"code":"EA5/VL-099","program":"sota","name":"Santa Ana","coordinates":[-0.5317,39.0311]}]}