{"lat":39,"lon":-97,"programs":["pota","wwbota"],"count":5,"references":[{"code":"US-2345","program":"pota","name":"Milford State Park","coordinates":[-96.8947,39.104]},{"code":"US-7393","program":"pota","name":"Milford Hatchery State Fishing Lake","coordinates":[-96.8977,39.083]},{"code":"US-7938","program":"pota","name":"Milford State Wildlife Area","coordinates":[-96.9248,39.0942]},{"code":"US-9185","program":"pota","name":"First Territorial Capitol State Historic Site","coordinates":[-96.7622,39.0851]},{"code":"B/US-0223","program":"wwbota","name":"Fort Riley Civil Defense Bunker (KS)","coordinates":[-96.7993,39.0865]}]}