{"lat":39,"lon":16.75,"programs":["pota","sota"],"count":6,"references":[{"code":"IT-0961","program":"pota","name":"Stagni sotto Timpone S. Francesco Natura 2000","coordinates":[16.9467,39.0372]},{"code":"IT-1802","program":"pota","name":"Monte Fuscaldo Natura 2000","coordinates":[16.8914,39.1139]},{"code":"I/CL-113","program":"sota","name":"Monte Fuscaldo","coordinates":[16.903,39.1259]},{"code":"I/CL-117","program":"sota","name":"Timpa di Cassiano","coordinates":[16.9082,39.2396]},{"code":"I/CL-122","program":"sota","name":"Serre di Altilia","coordinates":[16.8858,39.1754]},{"code":"I/CL-128","program":"sota","name":"Serre dei Fichi","coordinates":[16.9497,39.2022]}]}