{"lat":39,"lon":-9.25,"programs":["iota","pota","sota"],"count":7,"references":[{"code":"EU-040","program":"iota","name":"ESTREMADURA PROVINCE group","coordinates":[-9.25,39.125]},{"code":"PT-0042","program":"pota","name":"Serra de Montejunto Natura 2000","coordinates":[-9.05556,39.1875]},{"code":"PT-0043","program":"pota","name":"Serras do Socorro e Archeira Natura 2000","coordinates":[-9.2321,39.0298]},{"code":"PT-0345","program":"pota","name":"Local do Canhão Cársico de Ota Natural Monument","coordinates":[-9.0075,39.1115]},{"code":"PT-0359","program":"pota","name":"Quinta da Serra National Forest","coordinates":[-9.04887,39.1791]},{"code":"CT/ES-001","program":"sota","name":"Serra do Montejunto","coordinates":[-9.0487,39.1736]},{"code":"CT/ES-007","program":"sota","name":"Senhora do Socorro","coordinates":[-9.2249,39.0176]}]}