{"lat":39,"lon":-105,"programs":["sota"],"count":5,"references":[{"code":"W0C/FR-063","program":"sota","name":"Mount Herman","coordinates":[-104.9264,39.0818]},{"code":"W0C/FR-093","program":"sota","name":"Bald Mountain","coordinates":[-104.8489,39.1377]},{"code":"W0C/FR-096","program":"sota","name":"Rattlesnake Butte","coordinates":[-104.8444,39.1967]},{"code":"W0C/FR-202","program":"sota","name":"Raspberry Butte","coordinates":[-104.9092,39.2196]},{"code":"W0C/FR-206","program":"sota","name":"Larkspur Butte","coordinates":[-104.8666,39.2263]}]}