{"lat":39,"lon":20.5,"programs":["pota","sota"],"count":7,"references":[{"code":"GR-0287","program":"pota","name":"Aisthitiko Dasos Mytika Prevezis Forest Reserve","coordinates":[20.7161,39.0141]},{"code":"GR-0288","program":"pota","name":"Vouna Zaloggou Habitat Protection Area","coordinates":[20.6749,39.1565]},{"code":"SV/EP-026","program":"sota","name":"Zalogo","coordinates":[20.689444,39.14611]},{"code":"SV/EP-050","program":"sota","name":"Margarita","coordinates":[20.572222,39.183056]},{"code":"SV/EP-051","program":"sota","name":"Strwma","coordinates":[20.619722,39.171944]},{"code":"SV/EP-052","program":"sota","name":"Megali Tsuka","coordinates":[20.615833,39.191666]},{"code":"SV/EP-053","program":"sota","name":"Pirgakos","coordinates":[20.626667,39.21389]}]}