{"lat":39,"lon":140.75,"programs":["gma","sota"],"count":18,"references":[{"code":"XJA/IT-035","program":"gma","name":"Higashiyama","coordinates":[140.756,39.0963]},{"code":"JA/AT-017","program":"sota","name":"Hiranomatsuyama","coordinates":[140.7779,39.0387]},{"code":"JA/AT-019","program":"sota","name":"Arisuyama","coordinates":[140.7787,39.1948]},{"code":"JA/IT-006","program":"sota","name":"Yakeishidake","coordinates":[140.8288,39.1637]},{"code":"JA/IT-009","program":"sota","name":"Kyouzukayama","coordinates":[140.8887,39.1809]},{"code":"JA/IT-030","program":"sota","name":"Ooazamiyama","coordinates":[140.7857,39.0215]},{"code":"JA/IT-037","program":"sota","name":"JA/IT-037","coordinates":[140.7674,39.2092]},{"code":"JA/IT-039","program":"sota","name":"Sasamoriyama","coordinates":[140.7992,39.124]},{"code":"JA/IT-052","program":"sota","name":"Matsurubeyama","coordinates":[140.8431,39.0203]},{"code":"JA/IT-065","program":"sota","name":"Takahinousan","coordinates":[140.9047,39.0613]},{"code":"JA/IT-086","program":"sota","name":"Takateyama","coordinates":[140.8981,39.0295]},{"code":"JA/IT-096","program":"sota","name":"Kunimiyama","coordinates":[140.9499,39.0486]},{"code":"JA/IT-104","program":"sota","name":"Kotakimori","coordinates":[140.8603,39.0474]},{"code":"JA/IT-128","program":"sota","name":"Kobiyama","coordinates":[140.9046,39.097]},{"code":"JA/IT-188","program":"sota","name":"JA/IT-188","coordinates":[140.7586,39.0854]},{"code":"JA/IT-189","program":"sota","name":"Yokodake","coordinates":[140.8819,39.2299]},{"code":"JA/IT-196","program":"sota","name":"Near Hinokizawa","coordinates":[140.8512,39.2358]},{"code":"JA/IT-198","program":"sota","name":"Ogaramoriyama","coordinates":[140.9151,39.2474]}]}