{"lat":39,"lon":-4.25,"programs":["gma","pota","sota"],"count":5,"references":[{"code":"XEA4/CR-023","program":"gma","name":"Gatos","coordinates":[-4.0309,39.10800171]},{"code":"ES-0861","program":"pota","name":"Sierra de Picon Natura 2000","coordinates":[-4.1158,39.0606]},{"code":"EA4/CR-056","program":"sota","name":"Cerro Horadado","coordinates":[-4.1388,39.2382]},{"code":"EA4/CR-060","program":"sota","name":"Pico Casa de Valdebenito (norte)","coordinates":[-4.0764,39.2311]},{"code":"EA4/CR-080","program":"sota","name":"Pico Boca de los Barranquillos","coordinates":[-4.0631,39.1375]}]}