{"lat":39,"lon":-123.75,"programs":["pota","sota"],"count":12,"references":[{"code":"US-1179","program":"pota","name":"Navarro River Redwoods State Park","coordinates":[-123.69,39.1768]},{"code":"US-3438","program":"pota","name":"Greenwood State Beach","coordinates":[-123.719,39.1306]},{"code":"W6/NC-164","program":"sota","name":"Cold Spring Mountain","coordinates":[-123.5227,39.0224]},{"code":"W6/NC-295","program":"sota","name":"Bald Hill","coordinates":[-123.6454,39.0107]},{"code":"W6/NC-322","program":"sota","name":"Greenwood Ridge","coordinates":[-123.5516,39.0855]},{"code":"W6/NC-345","program":"sota","name":"1634","coordinates":[-123.5929,39.1061]},{"code":"W6/NC-377","program":"sota","name":"1420","coordinates":[-123.5083,39.1495]},{"code":"W6/NC-392","program":"sota","name":"Bald Hill","coordinates":[-123.575,39.1923]},{"code":"W6/NC-396","program":"sota","name":"Albion Ridge","coordinates":[-123.6363,39.2175]},{"code":"W6/NC-411","program":"sota","name":"1060","coordinates":[-123.635,39.2476]},{"code":"W6/NC-421","program":"sota","name":"980","coordinates":[-123.5753,39.152]},{"code":"W6/NC-526","program":"sota","name":"Flynn Hills","coordinates":[-123.5208,39.179]}]}