{"lat":39,"lon":141.25,"programs":["sota"],"count":6,"references":[{"code":"JA/IT-076","program":"sota","name":"Harataisan","coordinates":[141.4784,39.0689]},{"code":"JA/IT-080","program":"sota","name":"Sadatouyama","coordinates":[141.4866,39.2364]},{"code":"JA/IT-083","program":"sota","name":"Monomiyama","coordinates":[141.4017,39.2011]},{"code":"JA/IT-097","program":"sota","name":"Houraisan","coordinates":[141.3134,39.0862]},{"code":"JA/IT-100","program":"sota","name":"Abarayama","coordinates":[141.3328,39.1369]},{"code":"JA/IT-173","program":"sota","name":"Choushiyama","coordinates":[141.2793,39.1827]}]}