{"lat":39,"lon":-108.5,"programs":["pota","sota"],"count":7,"references":[{"code":"US-11890","program":"pota","name":"Colorado River Island State Wildlife Area","coordinates":[-108.487,39.0609]},{"code":"US-11891","program":"pota","name":"Tilman Bishop State Wildlife Area","coordinates":[-108.361,39.097]},{"code":"US-11894","program":"pota","name":"Orchard Mesa State Wildlife Area","coordinates":[-108.491,39.0504]},{"code":"US-11896","program":"pota","name":"Little Book Cliffs BLM Wilderness Area","coordinates":[-108.341,39.1633]},{"code":"W0C/RP-107","program":"sota","name":"Mount Lincoln","coordinates":[-108.3526,39.1302]},{"code":"W0C/RP-116","program":"sota","name":"6100","coordinates":[-108.3226,39.1603]},{"code":"W0C/SJ-026","program":"sota","name":"Horse Mountain","coordinates":[-108.3349,39.0697]}]}