{"lat":39,"lon":-114.75,"programs":["pota","sota"],"count":9,"references":[{"code":"US-2628","program":"pota","name":"Cave Lake State Park","coordinates":[-114.694,39.1906]},{"code":"W7N/WP-025","program":"sota","name":"Cave Mountain","coordinates":[-114.6147,39.1611]},{"code":"W7N/WP-044","program":"sota","name":"Camel Peak","coordinates":[-114.7169,39.237]},{"code":"W7N/WP-073","program":"sota","name":"Taylor Peak","coordinates":[-114.6546,39.0912]},{"code":"W7N/WP-078","program":"sota","name":"Cooper Summit","coordinates":[-114.6394,39.1585]},{"code":"W7N/WP-092","program":"sota","name":"9242","coordinates":[-114.6705,39.1]},{"code":"W7N/WP-101","program":"sota","name":"9094","coordinates":[-114.699,39.1489]},{"code":"W7N/WP-102","program":"sota","name":"9071","coordinates":[-114.6714,39.1607]},{"code":"W7N/WP-115","program":"sota","name":"8877","coordinates":[-114.6722,39.1409]}]}