{"lat":39,"lon":-5,"programs":["pota","sota"],"count":11,"references":[{"code":"ES-0867","program":"pota","name":"Alcornocal de Zumajo Natura 2000","coordinates":[-4.8372,39.1144]},{"code":"ES-1058","program":"pota","name":"Rio Guadalemar Natura 2000","coordinates":[-4.9214,39.0867]},{"code":"EA4/BA-015","program":"sota","name":"Castillo","coordinates":[-4.9947,39.0642]},{"code":"EA4/BA-025","program":"sota","name":"Cantos Negros","coordinates":[-4.8768,39.1956]},{"code":"EA4/BA-028","program":"sota","name":"Quejigo","coordinates":[-4.9172,39.0486]},{"code":"EA4/BA-032","program":"sota","name":"Cerro Milano","coordinates":[-4.9095,39.1259]},{"code":"EA4/BA-062","program":"sota","name":"Cerro del Cabezo","coordinates":[-4.9414,39.2199]},{"code":"EA4/CR-024","program":"sota","name":"Cerro Ancares","coordinates":[-4.786,39.0963]},{"code":"EA4/CR-098","program":"sota","name":"Pico del Collado del Alto (sureste)","coordinates":[-4.8298,39.0854]},{"code":"EA4/CR-099","program":"sota","name":"Sierra del Cabrero","coordinates":[-4.8032,39.1965]},{"code":"EA4/CR-108","program":"sota","name":"La Morra","coordinates":[-4.8289,39.0227]}]}