{"lat":39,"lon":-83.5,"programs":["pota","sota"],"count":6,"references":[{"code":"US-5446","program":"pota","name":"Pike State Forest","coordinates":[-83.3468,39.0791]},{"code":"US-9423","program":"pota","name":"Miller Nature Sanctuary State Nature Preserve","coordinates":[-83.3936,39.2018]},{"code":"W8O/SE-008","program":"sota","name":"Staley Knob","coordinates":[-83.3288,39.1095]},{"code":"W8O/SE-010","program":"sota","name":"Palmer Mountain","coordinates":[-83.367,39.0813]},{"code":"W8O/SW-001","program":"sota","name":"Washburn Hill","coordinates":[-83.4258,39.1377]},{"code":"W8O/SW-002","program":"sota","name":"Reeds Hill","coordinates":[-83.4218,39.1216]}]}