{"lat":39,"lon":9.5,"programs":["pota","sota"],"count":7,"references":[{"code":"IT-0034","program":"pota","name":"Isola dei Cavoli Natura 2000","coordinates":[9.53301,39.0857]},{"code":"IT-1525","program":"pota","name":"Capo Carbonara e stagno di Notteri - Punta Molentis Natura 2000","coordinates":[9.53837,39.1298]},{"code":"IT-1526","program":"pota","name":"Isola Serpentara Natura 2000","coordinates":[9.60539,39.1427]},{"code":"IT-1796","program":"pota","name":"Punta di Santa Giusta (Costa Rei) Natura 2000","coordinates":[9.56944,39.2369]},{"code":"IT-1797","program":"pota","name":"Costa Rei Natura 2000","coordinates":[9.57111,39.2458]},{"code":"IS0/IS-269","program":"sota","name":"Monte Maccioni","coordinates":[9.541,39.1785]},{"code":"IS0/IS-289","program":"sota","name":"M. Cannas","coordinates":[9.5472,39.2166]}]}