{"lat":39,"lon":-108,"programs":["pota","sota"],"count":6,"references":[{"code":"US-4401","program":"pota","name":"Grand Mesa National Forest","coordinates":[-107.883,39.0668]},{"code":"W0C/RP-048","program":"sota","name":"Campbell Mountain","coordinates":[-107.8066,39.2339]},{"code":"W0C/RP-091","program":"sota","name":"Red Mountain","coordinates":[-107.9109,39.2205]},{"code":"W0C/SJ-014","program":"sota","name":"Leon Peak","coordinates":[-107.844,39.0794]},{"code":"W0C/SJ-015","program":"sota","name":"Crag Crest","coordinates":[-107.9436,39.0606]},{"code":"W0C/UR-021","program":"sota","name":"11010","coordinates":[-107.7713,39.0437]}]}