{"lat":39,"lon":-118.5,"programs":["sota"],"count":6,"references":[{"code":"W7N/EM-106","program":"sota","name":"Big Kasock Mountain","coordinates":[-118.3245,39.0432]},{"code":"W7N/EM-142","program":"sota","name":"Squaw Peak","coordinates":[-118.4298,39.011]},{"code":"W7N/PC-060","program":"sota","name":"Sand Springs Range Cairn","coordinates":[-118.3496,39.1055]},{"code":"W7N/PC-126","program":"sota","name":"Aplite Ridge","coordinates":[-118.3813,39.1698]},{"code":"W7N/PC-140","program":"sota","name":"Barnett Hills","coordinates":[-118.4922,39.1286]},{"code":"W7N/PC-200","program":"sota","name":"5820","coordinates":[-118.3604,39.2244]}]}