{"lat":39.25,"lon":20.25,"programs":["pota","sota"],"count":14,"references":[{"code":"GR-0070","program":"pota","name":"Elos Kalodiki Protected Area","coordinates":[20.4652,39.3065]},{"code":"SV/EP-021","program":"sota","name":"Skorpiona","coordinates":[20.344723,39.442223]},{"code":"SV/EP-044","program":"sota","name":"595","coordinates":[20.31639,39.461388]},{"code":"SV/EP-045","program":"sota","name":"Megali Korifi","coordinates":[20.295,39.41611]},{"code":"SV/EP-046","program":"sota","name":"Perdika","coordinates":[20.29,39.366665]},{"code":"SV/EP-047","program":"sota","name":"926","coordinates":[20.383333,39.322224]},{"code":"SV/EP-048","program":"sota","name":"Kaloggeria","coordinates":[20.495277,39.294724]},{"code":"SV/EP-049","program":"sota","name":"Antilalos","coordinates":[20.491667,39.26472]},{"code":"SV/EP-069","program":"sota","name":"Paleokastro","coordinates":[20.441944,39.394444]},{"code":"SV/EP-070","program":"sota","name":"645","coordinates":[20.411667,39.413612]},{"code":"SV/EP-071","program":"sota","name":"596","coordinates":[20.476389,39.34139]},{"code":"SV/EP-072","program":"sota","name":"315","coordinates":[20.481112,39.281387]},{"code":"SV/EP-091","program":"sota","name":"956","coordinates":[20.3875,39.45889]},{"code":"SV/EP-106","program":"sota","name":"565","coordinates":[20.280556,39.470554]}]}