{"lat":39.25,"lon":-5.25,"programs":["pota","sota"],"count":6,"references":[{"code":"ES-0907","program":"pota","name":"Rincon del Torozo Natura 2000","coordinates":[-5.0422,39.4817]},{"code":"EA4/CC-050","program":"sota","name":"Risco de la Poyata","coordinates":[-5.0916,39.4972]},{"code":"EA4/CC-051","program":"sota","name":"Risco del Torozo","coordinates":[-5.0537,39.4844]},{"code":"EA4/CC-055","program":"sota","name":"Pico El Campanero","coordinates":[-5.1421,39.4589]},{"code":"EA4/CC-064","program":"sota","name":"Bimbrera","coordinates":[-5.1324,39.4346]},{"code":"EA4/CC-069","program":"sota","name":"Santa Catalina","coordinates":[-5.2242,39.4637]}]}