{"lat":39.25,"lon":-119.75,"programs":["pota","sota"],"count":11,"references":[{"code":"US-13195","program":"pota","name":"Jumbo Grade Trailhead BLM Historic Trail","coordinates":[-119.739,39.2814]},{"code":"W7N/TR-025","program":"sota","name":"Davidson, Mount","coordinates":[-119.6634,39.3082]},{"code":"W7N/TR-030","program":"sota","name":"Flowery Range HP","coordinates":[-119.5296,39.3959]},{"code":"W7N/TR-038","program":"sota","name":"7036","coordinates":[-119.6053,39.3458]},{"code":"W7N/TR-050","program":"sota","name":"6540","coordinates":[-119.6017,39.4038]},{"code":"W7N/TR-054","program":"sota","name":"Emma Peak","coordinates":[-119.6034,39.2963]},{"code":"W7N/TR-068","program":"sota","name":"5990","coordinates":[-119.689,39.4975]},{"code":"W7N/TR-071","program":"sota","name":"Washington Hill","coordinates":[-119.6189,39.465]},{"code":"W7N/WC-028","program":"sota","name":"Scott, Mount","coordinates":[-119.7052,39.2619]},{"code":"W7N/WC-051","program":"sota","name":"Louse Benchmark","coordinates":[-119.6645,39.4096]},{"code":"W7N/WC-087","program":"sota","name":"6075","coordinates":[-119.7006,39.4669]}]}