{"lat":39.25,"lon":140.75,"programs":["pota","sota"],"count":14,"references":[{"code":"JP-1036","program":"pota","name":"Yuda Onsenkyo Prefectural Nature Park","coordinates":[140.821,39.3024]},{"code":"JA/IT-057","program":"sota","name":"Matsukurayama","coordinates":[140.9332,39.4495]},{"code":"JA/IT-061","program":"sota","name":"Kuromori","coordinates":[140.8684,39.3483]},{"code":"JA/IT-068","program":"sota","name":"Arasawamori","coordinates":[140.8631,39.3632]},{"code":"JA/IT-070","program":"sota","name":"Maetsukamiyama","coordinates":[140.9315,39.2502]},{"code":"JA/IT-078","program":"sota","name":"Chougamori","coordinates":[140.9103,39.3787]},{"code":"JA/IT-084","program":"sota","name":"Tateyamori","coordinates":[140.8701,39.41]},{"code":"JA/IT-143","program":"sota","name":"JA/IT-143","coordinates":[140.9299,39.2751]},{"code":"JA/IT-144","program":"sota","name":"Hayama","coordinates":[140.9363,39.2885]},{"code":"JA/IT-195","program":"sota","name":"JA/IT-195","coordinates":[140.9128,39.4548]},{"code":"JA/IT-200","program":"sota","name":"Takanohashi","coordinates":[140.8236,39.2603]},{"code":"JA/IT-205","program":"sota","name":"JA/IT-205","coordinates":[140.9367,39.3963]},{"code":"JA/IT-216","program":"sota","name":"Shigakiyama","coordinates":[140.7782,39.4005]},{"code":"JA/IT-220","program":"sota","name":"Tougeyama","coordinates":[140.8576,39.2932]}]}