{"lat":39.25,"lon":-120.75,"programs":["sota"],"count":18,"references":[{"code":"W6/NS-151","program":"sota","name":"English Mountain","coordinates":[-120.5512,39.4465]},{"code":"W6/NS-170","program":"sota","name":"Black Buttes","coordinates":[-120.5577,39.3952]},{"code":"W6/NS-179","program":"sota","name":"Signal Peak","coordinates":[-120.5354,39.339]},{"code":"W6/NS-184","program":"sota","name":"Old Man Mountain","coordinates":[-120.5222,39.3703]},{"code":"W6/NS-195","program":"sota","name":"Grouse Ridge","coordinates":[-120.6126,39.3863]},{"code":"W6/NS-209","program":"sota","name":"Fall Creek Mountain","coordinates":[-120.6285,39.4052]},{"code":"W6/NS-216","program":"sota","name":"Findley Peak","coordinates":[-120.5749,39.4841]},{"code":"W6/NS-218","program":"sota","name":"Bowman Mountain","coordinates":[-120.6299,39.433]},{"code":"W6/NS-223","program":"sota","name":"Pinoli Ridge","coordinates":[-120.6209,39.4957]},{"code":"W6/NS-244","program":"sota","name":"7052","coordinates":[-120.547,39.4755]},{"code":"W6/NS-246","program":"sota","name":"Quartz Hill","coordinates":[-120.6224,39.472]},{"code":"W6/NS-273","program":"sota","name":"6522","coordinates":[-120.667,39.4568]},{"code":"W6/NS-296","program":"sota","name":"Clyde Mountain","coordinates":[-120.6607,39.3427]},{"code":"W6/NS-300","program":"sota","name":"Brady Mountain","coordinates":[-120.6033,39.3541]},{"code":"W6/NS-306","program":"sota","name":"Lowell Hill Ridge","coordinates":[-120.6874,39.3211]},{"code":"W6/NS-400","program":"sota","name":"Black Mountain","coordinates":[-120.607,39.2826]},{"code":"W6/NS-408","program":"sota","name":"5850","coordinates":[-120.6958,39.4951]},{"code":"W6/NS-413","program":"sota","name":"Scott Hill","coordinates":[-120.6649,39.2555]}]}