{"lat":39.25,"lon":20.5,"programs":["pota","sota"],"count":6,"references":[{"code":"GR-0069","program":"pota","name":"Paramithia Petousi- Agia Kyriaki Wildlife Refuge","coordinates":[20.5588,39.4754]},{"code":"SV/EP-096","program":"sota","name":"Turla","coordinates":[20.62,39.282223]},{"code":"SV/EP-097","program":"sota","name":"Tsukka","coordinates":[20.643333,39.296665]},{"code":"SV/EP-099","program":"sota","name":"Kakosouli","coordinates":[20.6625,39.377777]},{"code":"SV/EP-100","program":"sota","name":"Vritzaha","coordinates":[20.641111,39.46583]},{"code":"SV/EP-108","program":"sota","name":"Thisavros","coordinates":[20.738611,39.301666]}]}