{"lat":39.25,"lon":-122.75,"programs":["sota"],"count":5,"references":[{"code":"W6/NC-004","program":"sota","name":"Saint John Mountain","coordinates":[-122.6935,39.4346]},{"code":"W6/NC-007","program":"sota","name":"Sheetiron Mountain","coordinates":[-122.7342,39.4914]},{"code":"W6/NC-010","program":"sota","name":"Goat Mountain","coordinates":[-122.7149,39.2603]},{"code":"W6/NC-099","program":"sota","name":"Black Diamond Ridge","coordinates":[-122.6207,39.4097]},{"code":"W6/NC-329","program":"sota","name":"South Gravelly Ridge","coordinates":[-122.5123,39.3989]}]}