{"lat":39.25,"lon":-1.25,"programs":["gma","pota","sota"],"count":7,"references":[{"code":"EC/CV-148","program":"gma","name":"Cerro del Asno","coordinates":[-1.19391393,39.37254997]},{"code":"ES-1834","program":"pota","name":"Camino de Santiago-Levante National Recreation Trail","coordinates":[-1.21742,39.3375]},{"code":"EA5/VL-050","program":"sota","name":"Montote","coordinates":[-1.0364,39.4506]},{"code":"EA5/VL-064","program":"sota","name":"Corral Trillero","coordinates":[-1.088,39.4409]},{"code":"EA5/VL-070","program":"sota","name":"Pinoval","coordinates":[-1.0211,39.2625]},{"code":"EA5/VL-079","program":"sota","name":"Sierra de la Monterilla","coordinates":[-1.2408,39.3324]},{"code":"EA5/VL-082","program":"sota","name":"Collado de las Palomas","coordinates":[-1.1857,39.3204]}]}