{"lat":39.25,"lon":-5,"programs":["pota","sota"],"count":5,"references":[{"code":"ES-0190","program":"pota","name":"Parque natural del Turia Regional Reserve","coordinates":[-4.8774,39.3289]},{"code":"ES-1052","program":"pota","name":"Estena Natura 2000","coordinates":[-4.7772,39.3658]},{"code":"ES-2021","program":"pota","name":"Cíjara Wildlife Management Area","coordinates":[-4.82071,39.2898]},{"code":"EA4/BA-042","program":"sota","name":"Pico de la Mesa del Rubial (noreste)","coordinates":[-4.8936,39.2713]},{"code":"EA4/BA-046","program":"sota","name":"Pico Sierra de la Lobera (norte)","coordinates":[-4.8123,39.279]}]}