{"lat":39.25,"lon":-79.5,"programs":["pota"],"count":6,"references":[{"code":"US-1579","program":"pota","name":"Herrington Manor State Park","coordinates":[-79.4482,39.4538]},{"code":"US-1602","program":"pota","name":"Swallow Falls State Park","coordinates":[-79.4187,39.4991]},{"code":"US-4765","program":"pota","name":"Garrett State Forest","coordinates":[-79.4535,39.4963]},{"code":"US-4768","program":"pota","name":"Potomac State Forest","coordinates":[-79.2793,39.34]},{"code":"US-6397","program":"pota","name":"Wolf Den Run State Park","coordinates":[-79.2534,39.3916]},{"code":"US-7771","program":"pota","name":"Mt. Nebo Wildlife Management Area","coordinates":[-79.3744,39.4513]}]}