{"lat":39.25,"lon":21.25,"programs":["sota"],"count":11,"references":[{"code":"SV/EP-019","program":"sota","name":"Perdikovrisi","coordinates":[21.251389,39.4025]},{"code":"SV/EP-024","program":"sota","name":"Tripio Lithari","coordinates":[21.273056,39.299446]},{"code":"SV/EP-025","program":"sota","name":"Kokkinolakka","coordinates":[21.375278,39.305557]},{"code":"SV/TL-010","program":"sota","name":"Avgo","coordinates":[21.383333,39.489445]},{"code":"SV/TL-011","program":"sota","name":"Marosa","coordinates":[21.415,39.49278]},{"code":"SV/TL-038","program":"sota","name":"Prof. Ilias","coordinates":[21.432222,39.348057]},{"code":"SV/TL-039","program":"sota","name":"Tsukes","coordinates":[21.478056,39.401943]},{"code":"SV/TL-040","program":"sota","name":"Achladias","coordinates":[21.495,39.386112]},{"code":"SV/TL-043","program":"sota","name":"Xirovuni","coordinates":[21.355556,39.413612]},{"code":"SV/TL-044","program":"sota","name":"Hatzi","coordinates":[21.324444,39.41028]},{"code":"SV/TL-045","program":"sota","name":"Mavropuli","coordinates":[21.489721,39.4775]}]}