{"lat":39.25,"lon":-111.5,"programs":["pota","sota"],"count":6,"references":[{"code":"US-4397","program":"pota","name":"Manti-La Sal National Forest","coordinates":[-111.425,39.2833]},{"code":"W7U/EM-006","program":"sota","name":"Middle Mountain","coordinates":[-111.2582,39.4063]},{"code":"W7U/SP-002","program":"sota","name":"11100","coordinates":[-111.3025,39.4936]},{"code":"W7U/SP-003","program":"sota","name":"Sanpete 2 Benchmark","coordinates":[-111.4042,39.3743]},{"code":"W7U/SU-018","program":"sota","name":"South Tent Mountain","coordinates":[-111.3576,39.392]},{"code":"W7U/SU-020","program":"sota","name":"Lowry Top","coordinates":[-111.3204,39.4273]}]}