{"lat":39.25,"lon":9.5,"programs":["pota","sota"],"count":9,"references":[{"code":"IT-0018","program":"pota","name":"Stagni di Colostrai e delle Saline Natura 2000","coordinates":[9.59389,39.3453]},{"code":"IT-0047","program":"pota","name":"Foce del Flumendosa - Sa Praia Natura 2000","coordinates":[9.63,39.4275]},{"code":"IS0/IS-157","program":"sota","name":"Monte Narba","coordinates":[9.5175,39.4004]},{"code":"IS0/IS-189","program":"sota","name":"Bruncu Nieddu Mannu","coordinates":[9.5595,39.3935]},{"code":"IS0/IS-222","program":"sota","name":"Monte Perdosu","coordinates":[9.5292,39.4675]},{"code":"IS0/IS-234","program":"sota","name":"Bruncu Sciolas","coordinates":[9.5587,39.4647]},{"code":"IS0/IS-244","program":"sota","name":"Monte Ciuru","coordinates":[9.5627,39.3195]},{"code":"IS0/IS-277","program":"sota","name":"Monte Ferru","coordinates":[9.6026,39.3041]},{"code":"IS0/IS-296","program":"sota","name":"Monte Nai","coordinates":[9.5642,39.2567]}]}