{"lat":39.25,"lon":-108.25,"programs":["pota","sota"],"count":8,"references":[{"code":"US-11917","program":"pota","name":"Parachute Ponds State Wildlife Area","coordinates":[-108.049,39.442]},{"code":"US-12182","program":"pota","name":"Bill Patterson State Wildlife Area","coordinates":[-108.105,39.3946]},{"code":"W0C/RP-036","program":"sota","name":"Horse Mountain","coordinates":[-108.034,39.3227]},{"code":"W0C/RP-044","program":"sota","name":"Shale Benchmark","coordinates":[-108.1705,39.4384]},{"code":"W0C/RP-067","program":"sota","name":"Mount Logan","coordinates":[-108.1888,39.4016]},{"code":"W0C/RP-072","program":"sota","name":"Castle Peak","coordinates":[-108.0945,39.2711]},{"code":"W0C/RP-089","program":"sota","name":"Horsethief Mountain","coordinates":[-108.1331,39.2769]},{"code":"W0C/RP-115","program":"sota","name":"6230","coordinates":[-108.1354,39.323]}]}