{"lat":39.25,"lon":-75.25,"programs":["pota"],"count":6,"references":[{"code":"US-8033","program":"pota","name":"Buckshutem Wildlife Management Area","coordinates":[-75.1531,39.415]},{"code":"US-8045","program":"pota","name":"Millville Wildlife Management Area","coordinates":[-75.0633,39.3211]},{"code":"US-8046","program":"pota","name":"New Sweden Wildlife Management Area","coordinates":[-75.2477,39.2977]},{"code":"US-8057","program":"pota","name":"Union Lake Wildlife Management Area","coordinates":[-75.0983,39.4343]},{"code":"US-11988","program":"pota","name":"Cohansey River Wildlife Management Area","coordinates":[-75.21,39.394]},{"code":"US-11993","program":"pota","name":"Clarks Pond Wildlife Management Area","coordinates":[-75.209,39.391]}]}