{"lat":39.25,"lon":-120,"programs":["pota","sota"],"count":8,"references":[{"code":"US-13064","program":"pota","name":"Scripps Wildlife Management Area","coordinates":[-119.823,39.3033]},{"code":"W7N/WC-001","program":"sota","name":"Rose, Mount","coordinates":[-119.918,39.3439]},{"code":"W7N/WC-002","program":"sota","name":"Houghton, Mount","coordinates":[-119.9395,39.3341]},{"code":"W7N/WC-003","program":"sota","name":"Tamarack Peak","coordinates":[-119.9216,39.3183]},{"code":"W7N/WC-004","program":"sota","name":"Slide Mountain","coordinates":[-119.8844,39.3128]},{"code":"W7N/WC-005","program":"sota","name":"Chickadee Ridge","coordinates":[-119.8992,39.2915]},{"code":"W7N/WC-083","program":"sota","name":"Steamboat Hills","coordinates":[-119.79,39.3671]},{"code":"W7N/WC-111","program":"sota","name":"Rattlesnake Mountain","coordinates":[-119.7581,39.4723]}]}