{"lat":39.5,"lon":141.5,"programs":["sota"],"count":8,"references":[{"code":"JA/IT-015","program":"sota","name":"Gaitakamori","coordinates":[141.6045,39.7118]},{"code":"JA/IT-031","program":"sota","name":"Yomogidaira","coordinates":[141.7484,39.5293]},{"code":"JA/IT-034","program":"sota","name":"Hakoishi","coordinates":[141.6782,39.646]},{"code":"JA/IT-054","program":"sota","name":"Iwadakinohana","coordinates":[141.6702,39.6201]},{"code":"JA/IT-072","program":"sota","name":"Aomatsubayama","coordinates":[141.6253,39.6469]},{"code":"JA/IT-073","program":"sota","name":"Maegariyama","coordinates":[141.7371,39.6248]},{"code":"JA/IT-186","program":"sota","name":"Nishiyama","coordinates":[141.6581,39.6765]},{"code":"JA/IT-187","program":"sota","name":"Near Myozawayama","coordinates":[141.7274,39.5075]}]}