{"lat":39.5,"lon":141.25,"programs":["pota","sota"],"count":14,"references":[{"code":"JP-0108","program":"pota","name":"Hayachine Quasi-National Park","coordinates":[141.492,39.5432]},{"code":"JA/IT-002","program":"sota","name":"Hayachinesan","coordinates":[141.489,39.5584]},{"code":"JA/IT-003","program":"sota","name":"Yakushidake","coordinates":[141.4957,39.5299]},{"code":"JA/IT-010","program":"sota","name":"Aomatsubayama","coordinates":[141.4835,39.6975]},{"code":"JA/IT-018","program":"sota","name":"Hitsutoriyama","coordinates":[141.4243,39.7108]},{"code":"JA/IT-024","program":"sota","name":"JA/IT-024","coordinates":[141.403,39.6036]},{"code":"JA/IT-092","program":"sota","name":"Kuromoriyama","coordinates":[141.2777,39.6037]},{"code":"JA/IT-098","program":"sota","name":"Oonoyama","coordinates":[141.2884,39.5372]},{"code":"JA/IT-118","program":"sota","name":"Onigaseyama","coordinates":[141.2605,39.6449]},{"code":"JA/IT-183","program":"sota","name":"Shiromoriyama","coordinates":[141.446,39.5104]},{"code":"JA/IT-185","program":"sota","name":"JA/IT-185","coordinates":[141.3962,39.6814]},{"code":"JA/IT-199","program":"sota","name":"Tougeyama","coordinates":[141.3182,39.5744]},{"code":"JA/IT-208","program":"sota","name":"Takamori","coordinates":[141.2961,39.6547]},{"code":"JA/IT-210","program":"sota","name":"Jisayama","coordinates":[141.353,39.5469]}]}