{"lat":39.5,"lon":-120,"programs":["pota","sota"],"count":6,"references":[{"code":"US-4391","program":"pota","name":"Humboldt-Toiyabe National Forest","coordinates":[-119.86,39.5497]},{"code":"W7N/WC-011","program":"sota","name":"Peavine Peak","coordinates":[-119.932,39.5868]},{"code":"W7N/WC-084","program":"sota","name":"Spanish Benchmark","coordinates":[-119.7691,39.6507]},{"code":"W7N/WC-090","program":"sota","name":"Juniper Ridge","coordinates":[-119.8418,39.7142]},{"code":"W7N/WC-092","program":"sota","name":"Coyote Ridge","coordinates":[-119.8183,39.7225]},{"code":"W7N/WC-093","program":"sota","name":"Granite Hills","coordinates":[-119.939,39.6509]}]}