{"lat":39.5,"lon":-107.75,"programs":["pota","sota"],"count":14,"references":[{"code":"US-1220","program":"pota","name":"Harvey Gap State Park","coordinates":[-107.664,39.6152]},{"code":"US-1236","program":"pota","name":"Rifle Falls State Park","coordinates":[-107.699,39.6742]},{"code":"US-1237","program":"pota","name":"Rifle Gap State Park","coordinates":[-107.745,39.6333]},{"code":"US-10534","program":"pota","name":"Garfield Creek State Wildlife Area","coordinates":[-107.545,39.5232]},{"code":"US-10535","program":"pota","name":"West Rifle Creek State Wildlife Area","coordinates":[-107.75,39.6328]},{"code":"US-10539","program":"pota","name":"Rifle Falls State Fish Hatchery","coordinates":[-107.701,39.6955]},{"code":"W0C/RP-069","program":"sota","name":"8375","coordinates":[-107.6544,39.6716]},{"code":"W0C/RP-081","program":"sota","name":"8057","coordinates":[-107.6948,39.6072]},{"code":"W0C/RP-082","program":"sota","name":"Andgee Benchmark","coordinates":[-107.7182,39.6129]},{"code":"W0C/RP-088","program":"sota","name":"Jerry Benchmark","coordinates":[-107.6426,39.6032]},{"code":"W0C/RP-092","program":"sota","name":"Burning Mountain","coordinates":[-107.6055,39.5927]},{"code":"W0C/RP-096","program":"sota","name":"7540","coordinates":[-107.5609,39.6374]},{"code":"W0C/RP-103","program":"sota","name":"6808","coordinates":[-107.5633,39.6132]},{"code":"W0C/RP-126","program":"sota","name":"7634","coordinates":[-107.7446,39.6194]}]}