{"lat":39.5,"lon":-114.25,"programs":["pota","sota"],"count":9,"references":[{"code":"US-9252","program":"pota","name":"Government Peak BLM Wilderness Area","coordinates":[-114.157,39.5181]},{"code":"US-13207","program":"pota","name":"Blue Mass Scenic Area BLM Recreation Management Area","coordinates":[-114.22,39.7349]},{"code":"W7N/WP-057","program":"sota","name":"Kern Mountains HP","coordinates":[-114.1264,39.6641]},{"code":"W7N/WP-058","program":"sota","name":"9660","coordinates":[-114.2159,39.7061]},{"code":"W7N/WP-069","program":"sota","name":"9465","coordinates":[-114.1451,39.6671]},{"code":"W7N/WP-176","program":"sota","name":"Government Peak","coordinates":[-114.1531,39.5227]},{"code":"W7N/WP-191","program":"sota","name":"7724","coordinates":[-114.1306,39.7402]},{"code":"W7N/WP-208","program":"sota","name":"Tin Springs Mountain","coordinates":[-114.0856,39.5561]},{"code":"W7U/JU-009","program":"sota","name":"9860","coordinates":[-114.0416,39.7482]}]}