{"lat":39.5,"lon":-79,"programs":["pota","sota"],"count":7,"references":[{"code":"US-1567","program":"pota","name":"Dans Mountain State Park","coordinates":[-78.9478,39.5577]},{"code":"US-7767","program":"pota","name":"Dans Mountain Wildlife Management Area","coordinates":[-78.9472,39.5568]},{"code":"W3/WE-002","program":"sota","name":"Dans Rock","coordinates":[-78.8974,39.5818]},{"code":"W3/WE-009","program":"sota","name":"Haystack Mtn","coordinates":[-78.8206,39.6301]},{"code":"W3/WE-016","program":"sota","name":"Fort Hill","coordinates":[-78.9025,39.519]},{"code":"W8V/PH-146","program":"sota","name":"1850","coordinates":[-78.8007,39.5941]},{"code":"W8V/PH-150","program":"sota","name":"1730","coordinates":[-78.8259,39.5453]}]}