{"lat":39.5,"lon":-123,"programs":["pota","sota"],"count":8,"references":[{"code":"US-4460","program":"pota","name":"Mendocino National Forest","coordinates":[-122.812,39.5669]},{"code":"W6/CC-006","program":"sota","name":"Black Butte","coordinates":[-122.8725,39.7268]},{"code":"W6/CC-011","program":"sota","name":"Hull Mountain","coordinates":[-122.9368,39.5219]},{"code":"W6/CC-016","program":"sota","name":"Kneecap","coordinates":[-122.8044,39.5722]},{"code":"W6/NC-003","program":"sota","name":"Brushy Mountain","coordinates":[-122.8527,39.6644]},{"code":"W6/NC-005","program":"sota","name":"Bald Mountain","coordinates":[-122.9742,39.6206]},{"code":"W6/NC-013","program":"sota","name":"Etsel Ridge","coordinates":[-122.9818,39.6969]},{"code":"W6/NC-441","program":"sota","name":"Bear Wallow Ridge","coordinates":[-122.8149,39.6172]}]}