{"lat":39.5,"lon":2.5,"programs":["gma","pota","sota"],"count":30,"references":[{"code":"EC6/MA-012","program":"gma","name":"Pla de Mala Garba","coordinates":[2.6615,39.7313]},{"code":"ES-1218","program":"pota","name":"Des Teix al puig de ses Fites Natura 2000","coordinates":[2.6526,39.7283]},{"code":"ES-1219","program":"pota","name":"Comuna de Bunyola Natura 2000","coordinates":[2.7285,39.708]},{"code":"ES-1237","program":"pota","name":"Cova de Canet Natura 2000","coordinates":[2.6274,39.6548]},{"code":"ES-1238","program":"pota","name":"Avenc d'en Corbera Natura 2000","coordinates":[2.6308,39.6481]},{"code":"ES-1269","program":"pota","name":"Puigpunyent Natura 2000","coordinates":[2.5543,39.6203]},{"code":"ES-1275","program":"pota","name":"Puig de na Bauca Natura 2000","coordinates":[2.5206,39.5938]},{"code":"ES-1276","program":"pota","name":"Port des Canonge Natura 2000","coordinates":[2.5421,39.6938]},{"code":"ES-1277","program":"pota","name":"S'Estaca - Punta de Deia Natura 2000","coordinates":[2.6072,39.74]},{"code":"ES-1278","program":"pota","name":"Es Boixos Natura 2000","coordinates":[2.6865,39.7496]},{"code":"ES-1469","program":"pota","name":"Palacio Real de La Almudaina National Historic Site","coordinates":[2.648,39.5679]},{"code":"ES-1902","program":"pota","name":"Puig Gros Natura 2000","coordinates":[2.741,39.6943]},{"code":"ES-1903","program":"pota","name":"Puig de s'Extremera Natura 2000","coordinates":[2.722,39.6674]},{"code":"ES-1976","program":"pota","name":"Puig des Boixos Natura 2000","coordinates":[2.6318,39.6736]},{"code":"ES-1979","program":"pota","name":"Sa Foradada Natura 2000","coordinates":[2.6295,39.7472]},{"code":"ES-2126","program":"pota","name":"Puig de Ses Fites Natura 2000","coordinates":[2.6655,39.6909]},{"code":"ES-2131","program":"pota","name":"Es Teix Natura 2000","coordinates":[2.6526,39.7283]},{"code":"EA6/MA-007","program":"sota","name":"Puig d'Alfabia","coordinates":[2.7351,39.7444]},{"code":"EA6/MA-011","program":"sota","name":"Mola de Planícia","coordinates":[2.52475,39.6708]},{"code":"EA6/MA-016","program":"sota","name":"Sa Fita del Ram","coordinates":[2.5519,39.64981]},{"code":"EA6/MA-020","program":"sota","name":"Es Picó","coordinates":[2.72639,39.71877]},{"code":"EA6/MA-022","program":"sota","name":"Penyal des Migdia","coordinates":[2.59185,39.69371]},{"code":"EA6/MA-023","program":"sota","name":"Sa Comuna","coordinates":[2.6089,39.7023]},{"code":"EA6/MA-026","program":"sota","name":"Na Fàtima","coordinates":[2.64625,39.69341]},{"code":"EA6/MA-028","program":"sota","name":"Puig de na Bauçà","coordinates":[2.51836,39.60452]},{"code":"EA6/MA-033","program":"sota","name":"Pujol de Gat","coordinates":[2.56346,39.59037]},{"code":"EA6/MA-068","program":"sota","name":"Puig des Teix","coordinates":[2.6646,39.7321]},{"code":"EA6/MA-072","program":"sota","name":"Puig des Voltor","coordinates":[2.5825,39.6487]},{"code":"EA6/MA-073","program":"sota","name":"Puig de son Poc","coordinates":[2.6837,39.7031]},{"code":"EA6/MA-081","program":"sota","name":"Puig d'en Saragossa","coordinates":[2.5089,39.5125]}]}