{"lat":39.5,"lon":-95,"programs":["pota"],"count":5,"references":[{"code":"US-7521","program":"pota","name":"Bluffwoods State Conservation Area","coordinates":[-94.9663,39.6229]},{"code":"US-7677","program":"pota","name":"Pigeon Hill Conservation Reserve","coordinates":[-94.778,39.6724]},{"code":"US-8237","program":"pota","name":"Bee Creek State Conservation Area","coordinates":[-94.7812,39.5672]},{"code":"US-10585","program":"pota","name":"Kneib Memorial State Conservation Area","coordinates":[-94.932,39.7187]},{"code":"US-11229","program":"pota","name":"Jentell Brees Access State Conservation Area","coordinates":[-94.9671,39.6911]}]}