{"lat":39.5,"lon":-5.5,"programs":["pota","sota"],"count":9,"references":[{"code":"ES-1110","program":"pota","name":"Sierra de las Villuercas y Valle del Guadarranque Natura 2000","coordinates":[-5.3206,39.5567]},{"code":"EA4/CC-010","program":"sota","name":"Cervales","coordinates":[-5.3044,39.5515]},{"code":"EA4/CC-032","program":"sota","name":"Carbonero","coordinates":[-5.3298,39.572]},{"code":"EA4/CC-036","program":"sota","name":"Cerro de la Dehesilla","coordinates":[-5.3784,39.582]},{"code":"EA4/CC-037","program":"sota","name":"Pico Sierra del Rullo","coordinates":[-5.3525,39.5896]},{"code":"EA4/CC-038","program":"sota","name":"Risco Redondo","coordinates":[-5.4481,39.5511]},{"code":"EA4/CC-042","program":"sota","name":"Pico El Castañarejo","coordinates":[-5.3768,39.6146]},{"code":"EA4/CC-047","program":"sota","name":"Pico Castaños de Calabazas (noroeste)","coordinates":[-5.3884,39.6264]},{"code":"EA4/CC-062","program":"sota","name":"Pico El Corchito","coordinates":[-5.471,39.6192]}]}