{"lat":39.5,"lon":22,"programs":["pota","sota"],"count":6,"references":[{"code":"GR-0086","program":"pota","name":"Kladaries-Trypimeno-Magoula-Samari(damasiou tyrnavou) Wildlife Refuge","coordinates":[22.2317,39.7251]},{"code":"SV/TL-026","program":"sota","name":"Kutra","coordinates":[22.136944,39.6575]},{"code":"SV/TL-070","program":"sota","name":"Ag. Paraskevi","coordinates":[22.177355,39.551373]},{"code":"SV/TL-085","program":"sota","name":"Kuvaropetra","coordinates":[22.145761,39.60491]},{"code":"SV/TL-086","program":"sota","name":"439","coordinates":[22.243513,39.646973]},{"code":"SV/TL-087","program":"sota","name":"Podariko","coordinates":[22.247763,39.701035]}]}