{"lat":39.75,"lon":-111.25,"programs":["pota","sota"],"count":8,"references":[{"code":"US-3090","program":"pota","name":"Scofield State Park","coordinates":[-111.13,39.7931]},{"code":"US-11190","program":"pota","name":"Starvation Wildlife Management Area","coordinates":[-111.16,39.9292]},{"code":"US-11194","program":"pota","name":"Lower Fish Creek Wildlife Management Area","coordinates":[-111.056,39.8056]},{"code":"W7U/CR-008","program":"sota","name":"9100","coordinates":[-111.0922,39.7998]},{"code":"W7U/NU-059","program":"sota","name":"Tucker Peak","coordinates":[-111.1549,39.8974]},{"code":"W7U/UT-018","program":"sota","name":"8980","coordinates":[-111.1133,39.8913]},{"code":"W7U/WA-014","program":"sota","name":"Gremo Hill","coordinates":[-111.0511,39.9912]},{"code":"W7U/WA-016","program":"sota","name":"8775","coordinates":[-111.101,39.9751]}]}