{"lat":39.75,"lon":-123.25,"programs":["sota"],"count":7,"references":[{"code":"W6/NC-026","program":"sota","name":"Bluenose Ridge","coordinates":[-123.195,39.8924]},{"code":"W6/NC-031","program":"sota","name":"Buck Mountain","coordinates":[-123.2335,39.9344]},{"code":"W6/NC-095","program":"sota","name":"3295","coordinates":[-123.2482,39.8607]},{"code":"W6/NC-213","program":"sota","name":"Dingman Ridge","coordinates":[-123.1586,39.7572]},{"code":"W6/NC-440","program":"sota","name":"Castle Peak","coordinates":[-123.1237,39.9515]},{"code":"W6/NW-106","program":"sota","name":"Leech Lake Mountain","coordinates":[-123.0846,39.9236]},{"code":"W6/NW-169","program":"sota","name":"5780","coordinates":[-123.1528,39.9965]}]}