{"lat":39.75,"lon":-114,"programs":["pota","sota"],"count":12,"references":[{"code":"US-10980","program":"pota","name":"Scott's Basin WSA BLM Wilderness Area","coordinates":[-113.862,39.8836]},{"code":"US-10993","program":"pota","name":"Deep Creek Mountains BLM Recreation Management Area","coordinates":[-113.905,39.8478]},{"code":"US-11200","program":"pota","name":"Calao CCC Camp BLM Recreation Management Area","coordinates":[-113.788,39.8614]},{"code":"W7U/JU-001","program":"sota","name":"Haystack Peak","coordinates":[-113.9047,39.848]},{"code":"W7U/JU-002","program":"sota","name":"Red Mountain","coordinates":[-113.9367,39.7999]},{"code":"W7U/JU-003","program":"sota","name":"Trout Benchmark","coordinates":[-113.9658,39.7715]},{"code":"W7U/JU-006","program":"sota","name":"10621","coordinates":[-113.9311,39.7538]},{"code":"W7U/JU-017","program":"sota","name":"8676","coordinates":[-113.8436,39.8964]},{"code":"W7U/NU-013","program":"sota","name":"Ibapah Peak","coordinates":[-113.9197,39.8283]},{"code":"W7U/TO-001","program":"sota","name":"Rocky Peak","coordinates":[-113.8975,39.9116]},{"code":"W7U/TO-004","program":"sota","name":"10611","coordinates":[-113.8876,39.9253]},{"code":"W7U/TO-010","program":"sota","name":"Pole Benchmark","coordinates":[-113.8882,39.9796]}]}