{"lat":39.75,"lon":116.5,"programs":["pota"],"count":17,"references":[{"code":"CN-0255","program":"pota","name":"北京朝阳官庄公园 Regional Park","coordinates":[116.504,39.8786]},{"code":"CN-0256","program":"pota","name":"北京朝阳东坝郊野公园 Regional Park","coordinates":[116.567,39.9529]},{"code":"CN-0258","program":"pota","name":"北京通州城市绿心公园 Regional Park","coordinates":[116.718,39.8729]},{"code":"CN-0259","program":"pota","name":"北京通州大运河森林公园 Regional Park","coordinates":[116.739,39.8748]},{"code":"CN-0386","program":"pota","name":"北京朝阳黑桥公园 Park","coordinates":[116.531,39.996]},{"code":"CN-0501","program":"pota","name":"北京朝阳将府公园 Park","coordinates":[116.506,39.9701]},{"code":"CN-0502","program":"pota","name":"北京朝阳东坝千亩湖公园 Park","coordinates":[116.521,39.9705]},{"code":"CN-0503","program":"pota","name":"北京朝阳坝河休闲公园 Park","coordinates":[116.522,39.9663]},{"code":"CN-0504","program":"pota","name":"北京朝阳东风公园 Park","coordinates":[116.515,39.9549]},{"code":"CN-0505","program":"pota","name":"北京朝阳姚家园公园 Park","coordinates":[116.516,39.9448]},{"code":"CN-0506","program":"pota","name":"北京朝阳京城森林公园 Park","coordinates":[116.521,39.9321]},{"code":"CN-0507","program":"pota","name":"北京朝阳朝阳区平房公园 Park","coordinates":[116.531,39.9249]},{"code":"CN-0508","program":"pota","name":"北京朝阳京城梨园 Park","coordinates":[116.545,39.9324]},{"code":"CN-0509","program":"pota","name":"北京朝阳京城体育休闲公园 Park","coordinates":[116.53,39.9456]},{"code":"CN-0664","program":"pota","name":"北京朝阳金盏森林公园 Regional Park","coordinates":[116.603,39.9505]},{"code":"CN-0665","program":"pota","name":"北京朝阳常营公园 Park","coordinates":[116.581,39.9358]},{"code":"CN-1430","program":"pota","name":"北京通州台湖公园 Regional Park","coordinates":[116.634,39.823]}]}