{"lat":39.75,"lon":-95,"programs":["pota"],"count":9,"references":[{"code":"US-4578","program":"pota","name":"Pony Express National Historic Trail","coordinates":[-94.8486,39.7562]},{"code":"US-7386","program":"pota","name":"Browning Oxbow State Fishing Lake","coordinates":[-94.8988,39.7607]},{"code":"US-7874","program":"pota","name":"Arthur Dupree Memorial State Conservation Area","coordinates":[-94.8831,39.786]},{"code":"US-8251","program":"pota","name":"Honey Creek State Conservation Area","coordinates":[-94.965,39.9516]},{"code":"US-8256","program":"pota","name":"Monkey Mountain State Conservation Area","coordinates":[-94.999,39.9372]},{"code":"US-8265","program":"pota","name":"Worthwine Island State Conservation Area","coordinates":[-94.9336,39.8543]},{"code":"US-10586","program":"pota","name":"Youngdahl Urban State Conservation Area","coordinates":[-94.8146,39.7657]},{"code":"US-11039","program":"pota","name":"Sunbridge Hills State Conservation Area","coordinates":[-94.8676,39.8092]},{"code":"US-11040","program":"pota","name":"Caroline Sheridan Logan Memorial Wildlife Area","coordinates":[-94.8708,39.8193]}]}