{"lat":39.75,"lon":20,"programs":["pota","wwbota"],"count":5,"references":[{"code":"AL-0017","program":"pota","name":"Syri i Kalter (Blu Eyes) Protected Area","coordinates":[20.1895,39.9186]},{"code":"B/ZA-0005","program":"wwbota","name":"Bunkers Delvine Municipality","coordinates":[20.0097,39.949]},{"code":"B/ZA-0010","program":"wwbota","name":"Bunkers Dropull Municipality","coordinates":[20.2333,39.9833]},{"code":"B/ZA-0014","program":"wwbota","name":"Bunkers Finiq Municipality","coordinates":[20.0577,39.9064]},{"code":"B/ZA-0051","program":"wwbota","name":"Bunkers Sarande Municipality","coordinates":[20.0176,39.8744]}]}