{"lat":39.75,"lon":3.75,"programs":["pota"],"count":10,"references":[{"code":"ES-1212","program":"pota","name":"De Binigaus a cala Mitjana Natura 2000","coordinates":[3.9724,39.9455]},{"code":"ES-1213","program":"pota","name":"Costa Sud de Ciutadella Natura 2000","coordinates":[3.9017,39.9334]},{"code":"ES-1264","program":"pota","name":"Cap Negre Natura 2000","coordinates":[3.824,39.9499]},{"code":"ES-1271","program":"pota","name":"Arenal de Son Saura Natura 2000","coordinates":[3.8657,39.9188]},{"code":"ES-1304","program":"pota","name":"Ses Pallisses Natura 2000","coordinates":[3.9978,39.999]},{"code":"ES-1305","program":"pota","name":"Torre Llafuda Natura 2000","coordinates":[3.9272,39.9949]},{"code":"ES-1309","program":"pota","name":"Mal Lloc Natura 2000","coordinates":[3.9456,39.9988]},{"code":"ES-2225","program":"pota","name":"Barranc de Santa Anna Natura 2000","coordinates":[3.9497,39.9634]},{"code":"ES-2256","program":"pota","name":"Prehistoric Sites of Talayotic Menorca World Heritage Site","coordinates":[3.90888,39.9976]},{"code":"ES-1949","program":"pota","name":"Canal De Menorca Natura 2000","coordinates":[3.9224,39.899]}]}