{"lat":39.75,"lon":-112.25,"programs":["pota","sota"],"count":7,"references":[{"code":"US-5966","program":"pota","name":"Paul Bunyon's Woodpile BLM Recreation Management Area","coordinates":[-112.112,39.7683]},{"code":"W7U/JU-024","program":"sota","name":"Tintic Mountain","coordinates":[-112.0687,39.8196]},{"code":"W7U/JU-025","program":"sota","name":"Mammoth Peak","coordinates":[-112.1037,39.9317]},{"code":"W7U/JU-027","program":"sota","name":"Buckhorn Mountain","coordinates":[-112.0807,39.8536]},{"code":"W7U/JU-028","program":"sota","name":"Packard Peak","coordinates":[-112.1246,39.974]},{"code":"W7U/JU-032","program":"sota","name":"Silver Benchmark","coordinates":[-112.0695,39.9008]},{"code":"W7U/UT-037","program":"sota","name":"Pinyon Peak","coordinates":[-112.066,39.9941]}]}