{"lat":39.75,"lon":116,"programs":["pota"],"count":33,"references":[{"code":"CN-0135","program":"pota","name":"北京门头沟绿海家园公园 Regional Park","coordinates":[116.117,39.9296]},{"code":"CN-0136","program":"pota","name":"北京门头沟三家店蒲草湿地公园 Wetland Reserve","coordinates":[116.089,39.9707]},{"code":"CN-0162","program":"pota","name":"北京门头沟九龙山自然保护区 Nature Refuge","coordinates":[116.031,39.9548]},{"code":"CN-0173","program":"pota","name":"北京海淀西山国家森林公园 National Park","coordinates":[116.209,39.9771]},{"code":"CN-0420","program":"pota","name":"北京石景山老山城市休闲公园 Recreation Park","coordinates":[116.218,39.9139]},{"code":"CN-0512","program":"pota","name":"北京丰台北京园博园 Park","coordinates":[116.187,39.8738]},{"code":"CN-0513","program":"pota","name":"北京门头沟军庄滨水休闲公园 Park","coordinates":[116.084,39.9928]},{"code":"CN-0514","program":"pota","name":"北京石景山永定河休闲森林公园 National Park","coordinates":[116.178,39.8847]},{"code":"CN-0551","program":"pota","name":"北京丰台世纪森林公园 Park","coordinates":[116.24,39.8234]},{"code":"CN-0552","program":"pota","name":"北京海淀西郊砂石坑公园 Park","coordinates":[116.215,39.9203]},{"code":"CN-0553","program":"pota","name":"北京门头沟定都峰景区 Mountain Park","coordinates":[116.05,39.9045]},{"code":"CN-0554","program":"pota","name":"北京门头沟戒台寺郊野公园 Country Park","coordinates":[116.084,39.876]},{"code":"CN-0555","program":"pota","name":"北京门头沟京西古道山地 BLM Historic Trail","coordinates":[116.043,39.9636]},{"code":"CN-0556","program":"pota","name":"北京门头沟门城湖水利景区 Park","coordinates":[116.111,39.9424]},{"code":"CN-0557","program":"pota","name":"北京门头沟绿海运动公园 Regional Park","coordinates":[116.12,39.9143]},{"code":"CN-0558","program":"pota","name":"北京门头沟窑神庙公园 Park","coordinates":[116.053,39.9285]},{"code":"CN-0559","program":"pota","name":"北京门头沟滨河世纪广场公园 Regional Park","coordinates":[116.106,39.9377]},{"code":"CN-0560","program":"pota","name":"北京门头沟黑山公园 Regional Park","coordinates":[116.09,39.9393]},{"code":"CN-0561","program":"pota","name":"北京门头沟京门铁路遗址公园 Regional Park","coordinates":[116.092,39.9522]},{"code":"CN-0562","program":"pota","name":"北京门头沟葡山公园 Park","coordinates":[116.108,39.9235]},{"code":"CN-0564","program":"pota","name":"北京门头沟玉河古道天梯 Mountain Park","coordinates":[116.015,39.9274]},{"code":"CN-0565","program":"pota","name":"北京门头沟永定河公园 Regional Park","coordinates":[116.101,39.9459]},{"code":"CN-0566","program":"pota","name":"北京门头沟福亭公园 National Park","coordinates":[116.094,39.9563]},{"code":"CN-0567","program":"pota","name":"北京门头沟福鼎公园 Regional Park","coordinates":[116.094,39.9548]},{"code":"CN-0568","program":"pota","name":"北京门头沟石泉公园 Regional Park","coordinates":[116.077,39.9443]},{"code":"CN-0569","program":"pota","name":"北京门头沟定都峰登山步道 Mountain Park","coordinates":[116.104,39.9208]},{"code":"CN-0571","program":"pota","name":"北京门头沟渡口公园 Park","coordinates":[116.086,39.9843]},{"code":"CN-0572","program":"pota","name":"北京石景山冬奥公园 Park","coordinates":[116.163,39.8903]},{"code":"CN-0689","program":"pota","name":"北京门头沟科普郊野公园 Country Park","coordinates":[116.129,39.9242]},{"code":"CN-0697","program":"pota","name":"北京门头沟刺玫花坨 Mountain Park","coordinates":[116.012,39.9383]},{"code":"CN-0719","program":"pota","name":"北京西山国家森林公园 National Forest","coordinates":[116.182,39.97]},{"code":"CN-0728","program":"pota","name":"北京北宫国家森林公园 National Forest","coordinates":[116.114,39.8641]},{"code":"CN-1127","program":"pota","name":"河北青龙湖国家湿地公园 Wetland Reserve","coordinates":[116.066,39.7841]}]}