{"lat":39.75,"lon":-79.5,"programs":["pota","sota"],"count":7,"references":[{"code":"US-0622","program":"pota","name":"Bear Run State Conservation Area","coordinates":[-79.461,39.9057]},{"code":"US-1371","program":"pota","name":"Laurel Ridge State Park","coordinates":[-79.3634,39.9573]},{"code":"US-1392","program":"pota","name":"Ohiopyle State Park","coordinates":[-79.4944,39.868]},{"code":"US-8810","program":"pota","name":"PA 111 State Game Land","coordinates":[-79.3201,39.8587]},{"code":"US-8960","program":"pota","name":"PA 265 State Game Land","coordinates":[-79.4952,39.7761]},{"code":"US-8966","program":"pota","name":"PA 271 State Game Land","coordinates":[-79.2633,39.7864]},{"code":"W3/PT-004","program":"sota","name":"Laurel Hill","coordinates":[-79.4343,39.8319]}]}