{"lat":39.75,"lon":141.75,"programs":["sota"],"count":9,"references":[{"code":"JA/IT-069","program":"sota","name":"Nobeyama","coordinates":[141.7792,39.9185]},{"code":"JA/IT-102","program":"sota","name":"Kounesan","coordinates":[141.7641,39.9778]},{"code":"JA/IT-109","program":"sota","name":"Menzukumeyama","coordinates":[141.8362,39.7796]},{"code":"JA/IT-129","program":"sota","name":"Oomori","coordinates":[141.8312,39.8147]},{"code":"JA/IT-155","program":"sota","name":"JA/IT-155","coordinates":[141.8909,39.8086]},{"code":"JA/IT-156","program":"sota","name":"Hodohirazawa","coordinates":[141.89,39.8896]},{"code":"JA/IT-159","program":"sota","name":"Kameyama","coordinates":[141.8919,39.8592]},{"code":"JA/IT-170","program":"sota","name":"Nanatsumori","coordinates":[141.9316,39.9803]},{"code":"JA/IT-212","program":"sota","name":"Aizawamori","coordinates":[141.9003,39.7684]}]}