{"lat":39.75,"lon":140.75,"programs":["pota","sota"],"count":11,"references":[{"code":"JP-1887","program":"pota","name":"Kenmin-no-mori Prefectural Park","coordinates":[140.965,39.8957]},{"code":"JA/AT-001","program":"sota","name":"Komagatake (Onamedake)","coordinates":[140.7994,39.7611]},{"code":"JA/AT-005","program":"sota","name":"Yakeyama","coordinates":[140.757,39.9638]},{"code":"JA/AT-008","program":"sota","name":"Kurasawayama","coordinates":[140.7774,39.9002]},{"code":"JA/IT-004","program":"sota","name":"Gentagatake","coordinates":[140.8906,39.8808]},{"code":"JA/IT-005","program":"sota","name":"Hachimantai","coordinates":[140.8541,39.9578]},{"code":"JA/IT-007","program":"sota","name":"Zarumoriyama","coordinates":[140.8454,39.7915]},{"code":"JA/IT-012","program":"sota","name":"Magarisakiyama","coordinates":[140.7998,39.8816]},{"code":"JA/IT-023","program":"sota","name":"Ooshiromori","coordinates":[140.7851,39.842]},{"code":"JA/IT-182","program":"sota","name":"Takakurayama","coordinates":[140.89,39.7868]},{"code":"JA/IT-184","program":"sota","name":"Maemoriyama","coordinates":[140.9583,39.9777]}]}