{"lat":4,"lon":96.5,"programs":["sota"],"count":6,"references":[{"code":"YBS/AC-220","program":"sota","name":"Gunung Bekutak","coordinates":[96.6456,4.163]},{"code":"YBS/AC-279","program":"sota","name":"Gunung Sigogo","coordinates":[96.732,4.1372]},{"code":"YBS/AC-299","program":"sota","name":"YBS/AC-299","coordinates":[96.5824,4.199]},{"code":"YBS/AC-334","program":"sota","name":"YBS/AC-334","coordinates":[96.6709,4.1248]},{"code":"YBS/AC-537","program":"sota","name":"Gunung Sayeung","coordinates":[96.6543,4.0432]},{"code":"YBS/AC-590","program":"sota","name":"Gunung Lipis","coordinates":[96.6297,4.0775]}]}