{"lat":4.25,"lon":97.5,"programs":["sota"],"count":7,"references":[{"code":"YBS/AC-319","program":"sota","name":"Burni Gersang","coordinates":[97.6161,4.2861]},{"code":"YBS/AC-340","program":"sota","name":"Burni Tangga Seratus","coordinates":[97.5561,4.3279]},{"code":"YBS/AC-375","program":"sota","name":"YBS/AC-375","coordinates":[97.6553,4.4155]},{"code":"YBS/AC-406","program":"sota","name":"Burni Pantat Lesung","coordinates":[97.7017,4.2578]},{"code":"YBS/AC-438","program":"sota","name":"YBS/AC-438","coordinates":[97.5372,4.4365]},{"code":"YBS/AC-448","program":"sota","name":"YBS/AC-448","coordinates":[97.6122,4.4033]},{"code":"YBS/AC-499","program":"sota","name":"Bukit Pintu Gerbang","coordinates":[97.5978,4.4531]}]}