{"lat":4.25,"lon":96.75,"programs":["sota"],"count":10,"references":[{"code":"YBS/AC-027","program":"sota","name":"Gunung Singgah Mata","coordinates":[96.919,4.3056]},{"code":"YBS/AC-029","program":"sota","name":"Burni Pucuk Jagong","coordinates":[96.8922,4.2769]},{"code":"YBS/AC-032","program":"sota","name":"Burni Bekulah","coordinates":[96.8113,4.2571]},{"code":"YBS/AC-042","program":"sota","name":"YBS/AC-042","coordinates":[96.762,4.2822]},{"code":"YBS/AC-126","program":"sota","name":"YBS/AC-126","coordinates":[96.9059,4.3939]},{"code":"YBS/AC-171","program":"sota","name":"Burni Alurkucak","coordinates":[96.805,4.4153]},{"code":"YBS/AC-176","program":"sota","name":"Burni Pucuk Mungkur","coordinates":[96.8751,4.4083]},{"code":"YBS/AC-200","program":"sota","name":"YBS/AC-200","coordinates":[96.7969,4.4414]},{"code":"YBS/AC-210","program":"sota","name":"Burni Lengam Metuah","coordinates":[96.9642,4.4375]},{"code":"YBS/AC-286","program":"sota","name":"Burni Keciling","coordinates":[96.8775,4.4818]}]}