{"lat":4.5,"lon":97,"programs":["sota"],"count":17,"references":[{"code":"YBS/AC-055","program":"sota","name":"Burni Angkip","coordinates":[97.011,4.6232]},{"code":"YBS/AC-081","program":"sota","name":"Burni Jerang Belanga","coordinates":[97.0094,4.5337]},{"code":"YBS/AC-115","program":"sota","name":"Burni Jamur Lati","coordinates":[97.0553,4.5819]},{"code":"YBS/AC-117","program":"sota","name":"YBS/AC-117","coordinates":[97.0644,4.6011]},{"code":"YBS/AC-159","program":"sota","name":"Burni Rajawali","coordinates":[97.1166,4.5205]},{"code":"YBS/AC-165","program":"sota","name":"YBS/AC-165","coordinates":[97.0836,4.5811]},{"code":"YBS/AC-214","program":"sota","name":"Burni Petongalang","coordinates":[97.2413,4.5362]},{"code":"YBS/AC-219","program":"sota","name":"Burni Pulosanga","coordinates":[97.0991,4.5515]},{"code":"YBS/AC-222","program":"sota","name":"Gunung Daling","coordinates":[97.2036,4.5773]},{"code":"YBS/AC-258","program":"sota","name":"YBS/AC-258","coordinates":[97.0094,4.5064]},{"code":"YBS/AC-308","program":"sota","name":"Burni Kul","coordinates":[97.0493,4.6873]},{"code":"YBS/AC-324","program":"sota","name":"YBS/AC-324","coordinates":[97.0832,4.6618]},{"code":"YBS/AC-347","program":"sota","name":"Burni Genting Kera","coordinates":[97.1137,4.6753]},{"code":"YBS/AC-349","program":"sota","name":"Burni Cempedak","coordinates":[97.1585,4.6006]},{"code":"YBS/AC-392","program":"sota","name":"Burni Tenum","coordinates":[97.1834,4.7165]},{"code":"YBS/AC-434","program":"sota","name":"Batu Mesjid","coordinates":[97.15,4.7372]},{"code":"YBS/AC-468","program":"sota","name":"YBS/AC-468","coordinates":[97.1717,4.735]}]}