{"lat":4.5,"lon":-75.25,"programs":["pota"],"count":6,"references":[{"code":"CO-0020","program":"pota","name":"De Los Cerros del Norte de Ibagué Conservation Area","coordinates":[-75.223,4.52575]},{"code":"CO-0313","program":"pota","name":"Corazon California la Palma y Soledad Potosi State Forest","coordinates":[-75.2026,4.58741]},{"code":"CO-0342","program":"pota","name":"La Cima y Altamira Maupaz State Forest","coordinates":[-75.1664,4.61031]},{"code":"CO-0346","program":"pota","name":"La Gloria State Forest","coordinates":[-75.1872,4.65391]},{"code":"CO-0379","program":"pota","name":"Purace Porvenir Las Violetas State Forest","coordinates":[-75.0207,4.72383]},{"code":"CO-0394","program":"pota","name":"Vallelargo State Forest","coordinates":[-75.24,4.66298]}]}