{"lat":4.5,"lon":96.75,"programs":["sota"],"count":17,"references":[{"code":"YBS/AC-043","program":"sota","name":"Gunung Burniklieu","coordinates":[96.9579,4.5521]},{"code":"YBS/AC-053","program":"sota","name":"Bur Niatumedulang","coordinates":[96.9767,4.5456]},{"code":"YBS/AC-099","program":"sota","name":"YBS/AC-099","coordinates":[96.8706,4.5383]},{"code":"YBS/AC-109","program":"sota","name":"YBS/AC-109","coordinates":[96.8967,4.5369]},{"code":"YBS/AC-118","program":"sota","name":"YBS/AC-118","coordinates":[96.9319,4.5708]},{"code":"YBS/AC-133","program":"sota","name":"Bur Bies","coordinates":[96.7704,4.629]},{"code":"YBS/AC-138","program":"sota","name":"YBS/AC-138","coordinates":[96.7892,4.6554]},{"code":"YBS/AC-156","program":"sota","name":"Bur Genting","coordinates":[96.8908,4.5139]},{"code":"YBS/AC-157","program":"sota","name":"Bur Pillar","coordinates":[96.7864,4.5103]},{"code":"YBS/AC-168","program":"sota","name":"Bur Salahnama","coordinates":[96.8056,4.6581]},{"code":"YBS/AC-177","program":"sota","name":"YBS/AC-177","coordinates":[96.8775,4.5736]},{"code":"YBS/AC-178","program":"sota","name":"Bur Muio","coordinates":[96.8514,4.5762]},{"code":"YBS/AC-198","program":"sota","name":"Bur Reremai","coordinates":[96.7657,4.6515]},{"code":"YBS/AC-207","program":"sota","name":"YBS/AC-207","coordinates":[96.7603,4.6214]},{"code":"YBS/AC-209","program":"sota","name":"YBS/AC-209","coordinates":[96.8795,4.5931]},{"code":"YBS/AC-217","program":"sota","name":"YBS/AC-217","coordinates":[96.7928,4.58]},{"code":"YBS/AC-256","program":"sota","name":"Gunung Rijiwali","coordinates":[96.9984,4.6938]}]}