{"lat":4.5,"lon":-74.25,"programs":["gma","pota"],"count":13,"references":[{"code":"HK/3-006","program":"gma","name":"Cerro de Guadalupe","coordinates":[-74.05457,4.59142]},{"code":"CO-0025","program":"pota","name":"Tibaitatá Conservation Area","coordinates":[-74.2054,4.68076]},{"code":"CO-0096","program":"pota","name":"Humedales de Gualí Tres Esquinas y Lagunas del Funzhé State Conservation Area","coordinates":[-74.1892,4.70653]},{"code":"CO-0464","program":"pota","name":"El Cerro de Guadalupe National Park","coordinates":[-74.0543,4.59266]},{"code":"CO-0465","program":"pota","name":"Parque Regional La Florida National Park","coordinates":[-74.1434,4.73358]},{"code":"CO-0472","program":"pota","name":"PARQUE SAN ANDRES Recreation Park","coordinates":[-74.1106,4.71284]},{"code":"CO-0504","program":"pota","name":"Parque Timiza Recreation Park","coordinates":[-74.1543,4.60915]},{"code":"CO-0242","program":"pota","name":"Bosque Oriental de Bogota National Forest","coordinates":[-74.0371,4.6121]},{"code":"CO-0467","program":"pota","name":"Parque metropolitano Simón Bolívar Memorial Parkway","coordinates":[-74.0939,4.65806]},{"code":"CO-0488","program":"pota","name":"Parque Illimani Recreation Park","coordinates":[-74.1623,4.54682]},{"code":"CO-0498","program":"pota","name":"Canal El Virrey - El Chicò Recreation Park","coordinates":[-74.0561,4.67398]},{"code":"CO-0501","program":"pota","name":"El Country Recreation Park","coordinates":[-74.0381,4.70601]},{"code":"CO-0507","program":"pota","name":"Ciudad Montes Historic Site","coordinates":[-74.1152,4.6026]}]}