{"lat":4.5,"lon":-73.75,"programs":["pota"],"count":13,"references":[{"code":"CO-0047","program":"pota","name":"Chinchorro State Conservation Area","coordinates":[-73.62,4.70846]},{"code":"CO-0266","program":"pota","name":"La Bolsa National Forest","coordinates":[-73.7302,4.71419]},{"code":"CO-0292","program":"pota","name":"Rio Rucio National Forest","coordinates":[-73.6169,4.57156]},{"code":"CO-0311","program":"pota","name":"Colombia State Forest","coordinates":[-73.6854,4.59972]},{"code":"CO-0321","program":"pota","name":"El Desierto Patio Bonito State Forest","coordinates":[-73.6717,4.74131]},{"code":"CO-0329","program":"pota","name":"El Porvenir El Guadual State Forest","coordinates":[-73.5185,4.70481]},{"code":"CO-0339","program":"pota","name":"Jerico Libano y Sebastopol State Forest","coordinates":[-73.5514,4.60184]},{"code":"CO-0352","program":"pota","name":"La Siberia State Forest","coordinates":[-73.5912,4.56714]},{"code":"CO-0355","program":"pota","name":"La Vitilia La Palma State Forest","coordinates":[-73.5921,4.58421]},{"code":"CO-0363","program":"pota","name":"Marruecos State Forest","coordinates":[-73.7301,4.72971]},{"code":"CO-0364","program":"pota","name":"Montebello State Forest","coordinates":[-73.7392,4.66808]},{"code":"CO-0369","program":"pota","name":"Palosqui State Forest","coordinates":[-73.5226,4.60583]},{"code":"CO-0377","program":"pota","name":"Pozo Azul State Forest","coordinates":[-73.6011,4.55907]}]}