{"lat":4.5,"lon":-74.5,"programs":["pota"],"count":5,"references":[{"code":"CO-0130","program":"pota","name":"Sector Salto del Tequendama y Cerro Manjuí State Conservation Area","coordinates":[-74.3632,4.70294]},{"code":"CO-0413","program":"pota","name":"Chicaque State Natural Reserve","coordinates":[-74.3048,4.60628]},{"code":"CO-0426","program":"pota","name":"Laguna de Pedro Palo State Natural Reserve","coordinates":[-74.3875,4.68365]},{"code":"CO-0493","program":"pota","name":"Camino Real de Honda a Bogotá BLM Historic Trail","coordinates":[-74.3924,4.74786]},{"code":"CO-0527","program":"pota","name":"Camino Real La Mesa - San Javier \"Camino Del Resbalon\" BLM Historic Trail","coordinates":[-74.462,4.63398]}]}