{"lat":4.5,"lon":101.25,"programs":["sota"],"count":21,"references":[{"code":"9M2/KT-002","program":"sota","name":"Gunung Yong Belar","coordinates":[101.3618,4.6506]},{"code":"9M2/KT-004","program":"sota","name":"Gunung Bubu","coordinates":[101.3827,4.7395]},{"code":"9M2/KT-005","program":"sota","name":"Gunung Swettenham","coordinates":[101.4644,4.5771]},{"code":"9M2/KT-006","program":"sota","name":"Gunung Kayung","coordinates":[101.3866,4.7227]},{"code":"9M2/PH-001","program":"sota","name":"Gunung Irau","coordinates":[101.3652,4.529]},{"code":"9M2/PH-005","program":"sota","name":"Gunung Brinchang","coordinates":[101.3831,4.5169]},{"code":"9M2/PH-009","program":"sota","name":"Gunung Siku","coordinates":[101.3973,4.597]},{"code":"9M2/PH-013","program":"sota","name":"9M2/PH-013","coordinates":[101.4868,4.5692]},{"code":"9M2/PH-015","program":"sota","name":"Bukit Palas","coordinates":[101.4303,4.5656]},{"code":"9M2/PK-001","program":"sota","name":"Gunung Korbu","coordinates":[101.2976,4.69]},{"code":"9M2/PK-002","program":"sota","name":"Gunung Gayong","coordinates":[101.3108,4.6784]},{"code":"9M2/PK-007","program":"sota","name":"Gunung Junction","coordinates":[101.3339,4.6839]},{"code":"9M2/PK-009","program":"sota","name":"9M2/PK-009","coordinates":[101.3459,4.7181]},{"code":"9M2/PK-011","program":"sota","name":"9M2/PK-011","coordinates":[101.3322,4.7291]},{"code":"9M2/PK-012","program":"sota","name":"9M2/PK-012","coordinates":[101.375,4.7069]},{"code":"9M2/PK-013","program":"sota","name":"9M2/PK-013","coordinates":[101.3032,4.7378]},{"code":"9M2/PK-014","program":"sota","name":"Gunung Suku","coordinates":[101.3343,4.5427]},{"code":"9M2/PK-016","program":"sota","name":"Gunung Chabang","coordinates":[101.2679,4.5382]},{"code":"9M2/PK-018","program":"sota","name":"Gunung Jasar","coordinates":[101.2778,4.5985]},{"code":"9M2/PK-019","program":"sota","name":"Bukit Takai","coordinates":[101.2821,4.6535]},{"code":"9M2/PK-021","program":"sota","name":"Bukit Belanjor","coordinates":[101.2589,4.671]}]}