{"lat":4.75,"lon":-52.5,"programs":["pota"],"count":13,"references":[{"code":"GF-0002","program":"pota","name":"Parc naturel régional de Guyane Regional Park","coordinates":[-52.3333,4.93333]},{"code":"GF-0024","program":"pota","name":"MONT GRAND MATOURY  FR3600160 National Nature Reserve","coordinates":[-52.3688,4.85803]},{"code":"GF-0028","program":"pota","name":"Mont Grand Matoury et Petit Cayenne Biological Reserve","coordinates":[-52.491,4.894]},{"code":"GF-0029","program":"pota","name":"Savane du Petit Cayenne Biological Reserve","coordinates":[-52.423,4.878]},{"code":"GF-0030","program":"pota","name":"Rivière de Cayenne Biological Reserve","coordinates":[-52.385,4.904]},{"code":"GF-0034","program":"pota","name":"Savanes Et Marais De Macouria Conservation Area","coordinates":[-52.4505,4.98198]},{"code":"GF-0036","program":"pota","name":"Pripris Maillard Biological Reserve","coordinates":[-52.4582,4.98741]},{"code":"GF-0037","program":"pota","name":"Foret Maya Biological Reserve","coordinates":[-52.4509,4.96103]},{"code":"GF-0038","program":"pota","name":"Savane Malmaison Biological Reserve","coordinates":[-52.4376,4.97192]},{"code":"GF-0039","program":"pota","name":"Mont d'Or de Soula Biological Reserve","coordinates":[-52.4226,4.9311]},{"code":"GF-0040","program":"pota","name":"Savane Carapa Biological Reserve","coordinates":[-52.4344,4.95123]},{"code":"GF-0041","program":"pota","name":"Savanes-roches de la Carapa National Park","coordinates":[-52.4382,4.94493]},{"code":"GF-0042","program":"pota","name":"Savane Onemark Biological Reserve","coordinates":[-52.4797,4.93369]}]}