{"lat":4.75,"lon":-75.75,"programs":["pota"],"count":7,"references":[{"code":"CO-0375","program":"pota","name":"Planalto State Forest","coordinates":[-75.5938,4.99187]},{"code":"CO-0521","program":"pota","name":"Mirador Tambo El Privilegio Landscape Reserve","coordinates":[-75.6369,4.85609]},{"code":"CO-0012","program":"pota","name":"Alto del Nudo Conservation Area","coordinates":[-75.6854,4.86709]},{"code":"CO-0014","program":"pota","name":"Campoalegre Conservation Area","coordinates":[-75.5279,4.83981]},{"code":"CO-0024","program":"pota","name":"La Marcada Conservation Area","coordinates":[-75.6153,4.82901]},{"code":"CO-0098","program":"pota","name":"La Nona State Conservation Area","coordinates":[-75.7229,4.89131]},{"code":"CO-0276","program":"pota","name":"Quebrada La Nona National Forest","coordinates":[-75.7244,4.89478]}]}