{"lat":4.75,"lon":-73.75,"programs":["pota"],"count":6,"references":[{"code":"CO-0238","program":"pota","name":"Vista Hermosa de Monquentiva State Natural Reserve","coordinates":[-73.7413,4.90215]},{"code":"CO-0312","program":"pota","name":"Concepcion State Forest","coordinates":[-73.5472,4.77323]},{"code":"CO-0316","program":"pota","name":"Cuenca Alta de Los Rios Salinero y Moquentiva State Forest","coordinates":[-73.6507,4.92358]},{"code":"CO-0317","program":"pota","name":"Cuenca Alta del Rio Zaque State Forest","coordinates":[-73.7117,4.85349]},{"code":"CO-0351","program":"pota","name":"La Sabana de Las Delicias State Forest","coordinates":[-73.541,4.78684]},{"code":"CO-0411","program":"pota","name":"Carpanta State Natural Reserve","coordinates":[-73.7004,4.77298]}]}