{"lat":4.75,"lon":95.5,"programs":["sota"],"count":11,"references":[{"code":"YBS/AC-240","program":"sota","name":"Gle Bantee Linteung","coordinates":[95.6988,4.9958]},{"code":"YBS/AC-253","program":"sota","name":"Gke Sala","coordinates":[95.6811,4.893]},{"code":"YBS/AC-296","program":"sota","name":"YBS/AC-296","coordinates":[95.5988,4.9894]},{"code":"YBS/AC-355","program":"sota","name":"YBS/AC-355","coordinates":[95.6618,4.9536]},{"code":"YBS/AC-429","program":"sota","name":"Gle Bulai","coordinates":[95.5916,4.9264]},{"code":"YBS/AC-563","program":"sota","name":"Gle Tagok Kecil","coordinates":[95.5189,4.9236]},{"code":"YBS/AC-568","program":"sota","name":"Gle Bulat","coordinates":[95.5656,4.9083]},{"code":"YBS/AC-571","program":"sota","name":"Gle Alue Le Jerengeh","coordinates":[95.5583,4.8633]},{"code":"YBS/AC-574","program":"sota","name":"YBS/AC-574","coordinates":[95.7419,4.8233]},{"code":"YBS/AC-586","program":"sota","name":"Gle Keunaree","coordinates":[95.5942,4.7513]},{"code":"YBS/AC-604","program":"sota","name":"YBS/AC-604","coordinates":[95.7202,4.7985]}]}