{"lat":40,"lon":140.75,"programs":["pota","sota"],"count":13,"references":[{"code":"JP-0007","program":"pota","name":"Towada-Hachimantai National Park","coordinates":[140.939,40.2442]},{"code":"JA/AT-010","program":"sota","name":"Sanboukou","coordinates":[140.7605,40.0204]},{"code":"JA/AT-021","program":"sota","name":"Gonomiyadake","coordinates":[140.8459,40.1458]},{"code":"JA/AT-046","program":"sota","name":"Hachimori","coordinates":[140.818,40.1092]},{"code":"JA/AT-144","program":"sota","name":"Yuse","coordinates":[140.8551,40.091]},{"code":"JA/AT-146","program":"sota","name":"Boukui","coordinates":[140.8537,40.1953]},{"code":"JA/IT-033","program":"sota","name":"Kawanagedake","coordinates":[140.8609,40.1684]},{"code":"JA/IT-044","program":"sota","name":"Takakurayama","coordinates":[140.923,40.0682]},{"code":"JA/IT-046","program":"sota","name":"Nakadake","coordinates":[140.9444,40.246]},{"code":"JA/IT-081","program":"sota","name":"Aodaira","coordinates":[140.9367,40.1949]},{"code":"JA/IT-095","program":"sota","name":"Asahiyama","coordinates":[140.9244,40.1123]},{"code":"JA/IT-111","program":"sota","name":"Kuromori","coordinates":[140.975,40.1111]},{"code":"JA/IT-211","program":"sota","name":"Yagamidake","coordinates":[140.9442,40.1272]}]}