{"lat":40,"lon":-8.75,"programs":["pota","sota"],"count":5,"references":[{"code":"PT-0036","program":"pota","name":"Paul da Madriz Natura 2000","coordinates":[-8.63778,40.1281]},{"code":"PT-0037","program":"pota","name":"Paul do Taipal Natura 2000","coordinates":[-8.68972,40.1844]},{"code":"PT-0038","program":"pota","name":"Paul de Arzila Nature Reserve","coordinates":[-8.55528,40.1686]},{"code":"PT-0366","program":"pota","name":"Fôja National Forest","coordinates":[-8.7294,40.2052]},{"code":"CT/BL-022","program":"sota","name":"Serra do Rabaçal","coordinates":[-8.5004,40.0308]}]}