{"lat":40,"lon":-7.75,"programs":["pota","sota"],"count":6,"references":[{"code":"PT-0029","program":"pota","name":"Serra da Gardunha Nature Park","coordinates":[-7.51083,40.0989]},{"code":"CT/BB-002","program":"sota","name":"Serra da Gardunha","coordinates":[-7.5255,40.0805]},{"code":"CT/BB-008","program":"sota","name":"Zibreiro","coordinates":[-7.709,40.0289]},{"code":"CT/BB-011","program":"sota","name":"Serra da Maunça","coordinates":[-7.6491,40.0984]},{"code":"CT/BB-019","program":"sota","name":"Serra do Gomes","coordinates":[-7.5881,40.1513]},{"code":"CT/BL-030","program":"sota","name":"Senhora da Peneda","coordinates":[-7.7467,40.0789]}]}