{"lat":40,"lon":9,"programs":["pota","sota"],"count":14,"references":[{"code":"IT-0025","program":"pota","name":"Monte Gonare Natura 2000","coordinates":[9.1975,40.2342]},{"code":"IS0/IS-006","program":"sota","name":"Conca Giuanni Fais","coordinates":[9.204,40.0301]},{"code":"IS0/IS-037","program":"sota","name":"Punta Sasisorgiu","coordinates":[9.1677,40.169]},{"code":"IS0/IS-039","program":"sota","name":"Monte Pisanu Mele","coordinates":[9.2277,40.1827]},{"code":"IS0/IS-042","program":"sota","name":"Ghenna Grecu","coordinates":[9.1383,40.0208]},{"code":"IS0/IS-045","program":"sota","name":"N.S. di Gonani","coordinates":[9.2031,40.2278]},{"code":"IS0/IS-080","program":"sota","name":"Monte Pizzuri","coordinates":[9.1527,40.1286]},{"code":"IS0/IS-083","program":"sota","name":"s'Enna Sa Taula","coordinates":[9.0908,40.1292]},{"code":"IS0/IS-089","program":"sota","name":"Monte Olisezzo","coordinates":[9.0017,40.0658]},{"code":"IS0/IS-098","program":"sota","name":"Monte Santa Vittoria","coordinates":[9.0048,40.0886]},{"code":"IS0/IS-161","program":"sota","name":"Punta Gulana","coordinates":[9.1228,40.1615]},{"code":"IS0/IS-173","program":"sota","name":"Serra sa Radicra","coordinates":[9.1343,40.14]},{"code":"IS0/IS-193","program":"sota","name":"Monte Nieddu di Ottana","coordinates":[9.0525,40.1825]},{"code":"IS0/IS-223","program":"sota","name":"M.sa Pranedda","coordinates":[9.0588,40.2134]}]}