{"lat":40,"lon":-1.5,"programs":["gma","pota","sota"],"count":11,"references":[{"code":"EC/CV-004","program":"gma","name":"Cruz de 3 Reinos","coordinates":[-1.44885832,40.14514997]},{"code":"ES-0765","program":"pota","name":"Cuenca del Ebron Natura 2000","coordinates":[-1.3544,40.2278]},{"code":"ES-0880","program":"pota","name":"Sierra del Santeron Natura 2000","coordinates":[-1.4058,40.0461]},{"code":"ES-1014","program":"pota","name":"Rius del Raco d'Ademus Natura 2000","coordinates":[-1.2669,40.0756]},{"code":"ES-1030","program":"pota","name":"Arroyo Cerezo Natura 2000","coordinates":[-1.3811,40.0758]},{"code":"ES-2452","program":"pota","name":"Hontanar-La Ferriza Natura 2000","coordinates":[-1.3144,40.0358]},{"code":"EA2/TE-034","program":"sota","name":"Cruz de Lázaro","coordinates":[-1.46992,40.22974]},{"code":"EA4/CU-005","program":"sota","name":"Talayón","coordinates":[-1.4089,40.0405]},{"code":"EA4/CU-019","program":"sota","name":"Cerro de la Atalaya","coordinates":[-1.4513,40.0605]},{"code":"EA4/CU-023","program":"sota","name":"Muela Cubillo","coordinates":[-1.4717,40.0428]},{"code":"EA5/VL-020","program":"sota","name":"Cabeza Peñalba","coordinates":[-1.408,40.101]}]}