{"lat":40,"lon":-105.75,"programs":["pota","sota"],"count":18,"references":[{"code":"US-12106","program":"pota","name":"Brainard Lake Recreation Area National Forest","coordinates":[-105.534,40.0801]},{"code":"W0C/FR-011","program":"sota","name":"Apache Peak","coordinates":[-105.6509,40.0584]},{"code":"W0C/FR-012","program":"sota","name":"Mount Alice","coordinates":[-105.6635,40.2392]},{"code":"W0C/FR-013","program":"sota","name":"Mount Audubon","coordinates":[-105.6162,40.099]},{"code":"W0C/FR-014","program":"sota","name":"Copeland Mountain","coordinates":[-105.6464,40.182]},{"code":"W0C/FR-026","program":"sota","name":"Saint Vrain Mountain","coordinates":[-105.5856,40.161]},{"code":"W0C/FR-111","program":"sota","name":"Chiefs Head Peak","coordinates":[-105.6416,40.2497]},{"code":"W0C/FR-112","program":"sota","name":"North Arapaho Peak","coordinates":[-105.6502,40.0264]},{"code":"W0C/FR-113","program":"sota","name":"Kiowa Peak","coordinates":[-105.6243,40.0478]},{"code":"W0C/FR-114","program":"sota","name":"Arikaree Peak","coordinates":[-105.6384,40.0467]},{"code":"W0C/FR-115","program":"sota","name":"Ogalalla Peak","coordinates":[-105.6667,40.17]},{"code":"W0C/FR-116","program":"sota","name":"Isolation Peak","coordinates":[-105.6778,40.2024]},{"code":"W0C/FR-177","program":"sota","name":"Popeye Peak","coordinates":[-105.5195,40.2305]},{"code":"W0C/PR-042","program":"sota","name":"Hopi","coordinates":[-105.6738,40.0637]},{"code":"W0C/PR-051","program":"sota","name":"Andrews Peak","coordinates":[-105.7098,40.2439]},{"code":"W0C/PR-057","program":"sota","name":"Hiamovi Mountain","coordinates":[-105.6958,40.1584]},{"code":"W0C/PR-058","program":"sota","name":"Watanga Mountain","coordinates":[-105.7135,40.1689]},{"code":"W0C/PR-075","program":"sota","name":"Mount Irving Hale","coordinates":[-105.7202,40.1377]}]}