{"lat":40,"lon":-106,"programs":["pota","sota"],"count":13,"references":[{"code":"US-9678","program":"pota","name":"Windy Gap Watchable State Wildlife Area","coordinates":[-105.976,40.1047]},{"code":"W0C/PR-068","program":"sota","name":"East Twin Peaks","coordinates":[-105.7527,40.1644]},{"code":"W0C/PR-095","program":"sota","name":"10854","coordinates":[-105.7584,40.0266]},{"code":"W0C/PR-104","program":"sota","name":"10626","coordinates":[-105.7637,40.0592]},{"code":"W0C/PR-109","program":"sota","name":"Apiatan Mountain","coordinates":[-105.943,40.2476]},{"code":"W0C/PR-113","program":"sota","name":"Granby Peak","coordinates":[-105.804,40.1138]},{"code":"W0C/PR-119","program":"sota","name":"9900","coordinates":[-105.8222,40.0663]},{"code":"W0C/PR-131","program":"sota","name":"9398","coordinates":[-105.9,40.0187]},{"code":"W0C/PR-134","program":"sota","name":"Trail Mountain","coordinates":[-105.9646,40.1899]},{"code":"W0C/PR-135","program":"sota","name":"9328","coordinates":[-105.8494,40.082]},{"code":"W0C/PR-141","program":"sota","name":"9180","coordinates":[-105.9871,40.14]},{"code":"W0C/PR-144","program":"sota","name":"Green Ridge","coordinates":[-105.8331,40.1878]},{"code":"W0C/PR-155","program":"sota","name":"Table Mountain","coordinates":[-105.9043,40.1632]}]}