{"lat":40,"lon":20.75,"programs":["sota"],"count":9,"references":[{"code":"SV/EP-001","program":"sota","name":"Smolikas","coordinates":[20.925146,40.088955]},{"code":"SV/EP-004","program":"sota","name":"Bogdani","coordinates":[20.976944,40.109444]},{"code":"SV/EP-005","program":"sota","name":"Trapezitsa","coordinates":[20.802778,40.044445]},{"code":"SV/EP-007","program":"sota","name":"Mosia","coordinates":[20.95,40.085]},{"code":"SV/EP-035","program":"sota","name":"Pirgos","coordinates":[20.7775,40.171665]},{"code":"SV/EP-036","program":"sota","name":"Buchetsi","coordinates":[20.959444,40.24361]},{"code":"SV/EP-038","program":"sota","name":"Tsuma Kalioro","coordinates":[20.944445,40.06389]},{"code":"SV/EP-109","program":"sota","name":"Radiovuni","coordinates":[20.811388,40.031113]},{"code":"SV/EP-111","program":"sota","name":"Lapatos","coordinates":[20.750834,40.002224]}]}