{"lat":40,"lon":-77.75,"programs":["gma","pota","sota"],"count":7,"references":[{"code":"XW3/PD-005","program":"gma","name":"Horse Knob East","coordinates":[-77.72260284,40.11240005]},{"code":"US-8775","program":"pota","name":"PA 076 State Game Land","coordinates":[-77.7264,40.1231]},{"code":"US-8867","program":"pota","name":"PA 169 State Game Land","coordinates":[-77.5093,40.1637]},{"code":"W3/PD-002","program":"sota","name":"Clarks Knob","coordinates":[-77.7477,40.05]},{"code":"W3/PD-003","program":"sota","name":"Rising Mtn","coordinates":[-77.67,40.2103]},{"code":"W3/PD-004","program":"sota","name":"Blue Mtn","coordinates":[-77.5989,40.1883]},{"code":"W3/PD-037","program":"sota","name":"Timmons Mountain","coordinates":[-77.6977,40.1442]}]}