{"lat":40.25,"lon":21.5,"programs":["pota","sota"],"count":7,"references":[{"code":"GR-0053","program":"pota","name":"Lampanitsa (Ardassas-Vlastis) National Wildlife Refuge","coordinates":[21.5841,40.4411]},{"code":"GR-0054","program":"pota","name":"Prasina(Eratias-Galatinis-Kaloneriou) Wildlife Refuge","coordinates":[21.5312,40.3304]},{"code":"SV/MC-021","program":"sota","name":"Kor. Gavra","coordinates":[21.543888,40.29889]},{"code":"SV/MC-022","program":"sota","name":"Skopia","coordinates":[21.588888,40.28528]},{"code":"SV/MC-073","program":"sota","name":"Siniatsiko","coordinates":[21.5575,40.404724]},{"code":"SV/MC-091","program":"sota","name":"Kurumpa","coordinates":[21.706188,40.42144]},{"code":"SV/MC-092","program":"sota","name":"Aetovuni","coordinates":[21.721752,40.393642]}]}