{"lat":40.25,"lon":-6,"programs":["gma","pota","sota"],"count":8,"references":[{"code":"XEA1/SL-010","program":"gma","name":"Buitre","coordinates":[-5.89429998,40.32440186]},{"code":"ES-0498","program":"pota","name":"Candelario Natura 2000","coordinates":[-5.7625,40.3398]},{"code":"ES-0502","program":"pota","name":"Valle del Cuerpo de Hombre Natura 2000","coordinates":[-5.9037,40.3567]},{"code":"ES-1791","program":"pota","name":"Camino Natural Vía de la Plata National Recreation Trail","coordinates":[-5.8599,40.2703]},{"code":"EA1/SL-003","program":"sota","name":"Peña Negra","coordinates":[-5.79739,40.35309]},{"code":"EA1/SL-026","program":"sota","name":"El Berrocalejo","coordinates":[-5.91551,40.3941]},{"code":"EA1/SL-030","program":"sota","name":"Peña del Cuervo","coordinates":[-5.88429,40.32663]},{"code":"EA1/SL-032","program":"sota","name":"Pizarral","coordinates":[-5.99897,40.31652]}]}