{"lat":40.25,"lon":-4,"programs":["pota","wwbota"],"count":5,"references":[{"code":"ES-0160","program":"pota","name":"Curso Medio del rio Guadarrama y su entorno Regional Park","coordinates":[-3.93716,40.4262]},{"code":"ES-2356","program":"pota","name":"Polvoranca Regional Park","coordinates":[-3.80207,40.3279]},{"code":"ES-2357","program":"pota","name":"Bosquesur Regional Park","coordinates":[-3.78109,40.2984]},{"code":"ES-2359","program":"pota","name":"La Cantueña Regional Park","coordinates":[-3.75552,40.2591]},{"code":"B/EA-0107","program":"wwbota","name":"Búnker Venta La Rubia","coordinates":[-3.81152,40.365001]}]}