{"lat":40.25,"lon":9.25,"programs":["pota","sota"],"count":7,"references":[{"code":"IT-0048","program":"pota","name":"Monte Ortobene Natura 2000","coordinates":[9.37895,40.33]},{"code":"IS0/IS-034","program":"sota","name":"Punta Cusidore","coordinates":[9.4595,40.2625]},{"code":"IS0/IS-068","program":"sota","name":"Cuccuru Nigheeddu","coordinates":[9.3737,40.3233]},{"code":"IS0/IS-073","program":"sota","name":"Cuccuru Su Pirastru","coordinates":[9.3408,40.4142]},{"code":"IS0/IS-146","program":"sota","name":"Punta Murittu","coordinates":[9.4142,40.3475]},{"code":"IS0/IS-196","program":"sota","name":"Punta Durrisola","coordinates":[9.4517,40.35]},{"code":"IS0/IS-205","program":"sota","name":"Monte Manasuddas","coordinates":[9.4519,40.3105]}]}