{"lat":40.25,"lon":-2,"programs":["pota","sota"],"count":8,"references":[{"code":"ES-0085","program":"pota","name":"Serranía de Cuenca Nature Park","coordinates":[-1.87103,40.2531]},{"code":"EA2/TE-025","program":"sota","name":"Cerro de la Cebadilla","coordinates":[-1.75798,40.38952]},{"code":"EA4/CU-001","program":"sota","name":"Mogorrita","coordinates":[-1.7714,40.3447]},{"code":"EA4/CU-002","program":"sota","name":"San Felipe","coordinates":[-1.8593,40.401]},{"code":"EA4/CU-004","program":"sota","name":"Bandera","coordinates":[-1.8519,40.319]},{"code":"EA4/CU-016","program":"sota","name":"Pico Vasallo de Tragacete","coordinates":[-1.8913,40.3753]},{"code":"EA4/CU-018","program":"sota","name":"Cerro Sancho","coordinates":[-1.9496,40.4092]},{"code":"EA4/GU-021","program":"sota","name":"La Campana","coordinates":[-1.8703,40.493]}]}