{"lat":40.25,"lon":-78.25,"programs":["gma","pota","sota"],"count":9,"references":[{"code":"XW3/SV-055","program":"gma","name":"Raystown Lake Hill","coordinates":[-78.03829956,40.41699982]},{"code":"US-1428","program":"pota","name":"Trough Creek State Park","coordinates":[-78.1299,40.3119]},{"code":"US-8817","program":"pota","name":"PA 118 State Game Land","coordinates":[-78.1639,40.4565]},{"code":"W3/SV-034","program":"sota","name":"Horse Knob","coordinates":[-78.0886,40.3528]},{"code":"W3/SV-038","program":"sota","name":"Round Mtn","coordinates":[-78.1342,40.2987]},{"code":"W3/SV-052","program":"sota","name":"Allegrippis Ridge","coordinates":[-78.2258,40.2647]},{"code":"W3/SV-067","program":"sota","name":"Shirley Knob","coordinates":[-78.0337,40.2872]},{"code":"W3/SV-073","program":"sota","name":"1670","coordinates":[-78.155,40.3149]},{"code":"W3/SV-080","program":"sota","name":"1370","coordinates":[-78.0964,40.3904]}]}