{"lat":40.25,"lon":15.5,"programs":["gma","pota","sota"],"count":14,"references":[{"code":"IT/BS-1006","program":"gma","name":"Toppa d'Albano","coordinates":[15.74330044,40.48939896]},{"code":"XI/CA-045","program":"gma","name":"Monte Cavallo","coordinates":[15.6613,40.3932]},{"code":"IT-0669","program":"pota","name":"Parco Nazionale dell'Appennino Lucano - Val d'Agri - Lagonegrese National Park","coordinates":[15.7257,40.3464]},{"code":"I/BS-023","program":"sota","name":"Monte Fontanalunga","coordinates":[15.6969,40.3992]},{"code":"I/BS-028","program":"sota","name":"Monte Cavallo","coordinates":[15.6706,40.4068]},{"code":"I/BS-033","program":"sota","name":"Serre la Rapanza","coordinates":[15.5876,40.4753]},{"code":"I/BS-060","program":"sota","name":"Monte di Tigliano","coordinates":[15.6819,40.4496]},{"code":"I/BS-111","program":"sota","name":"Monte Cavallo","coordinates":[15.6613,40.3932]},{"code":"I/CA-029","program":"sota","name":"Serra Longa","coordinates":[15.7072,40.3245]},{"code":"I/CA-037","program":"sota","name":"Madonna di Sito Alto","coordinates":[15.6181,40.4095]},{"code":"I/CA-038","program":"sota","name":"Serre di Campo Soprano","coordinates":[15.5069,40.3577]},{"code":"I/CA-044","program":"sota","name":"Serra Malpasso","coordinates":[15.7266,40.297]},{"code":"I/CA-102","program":"sota","name":"Monte Nuovo","coordinates":[15.5953,40.2895]},{"code":"I/CA-124","program":"sota","name":"Toppa la Castagnella","coordinates":[15.6133,40.2864]}]}