{"lat":40.25,"lon":-1.75,"programs":["pota","sota"],"count":11,"references":[{"code":"ES-0767","program":"pota","name":"Los Cuadrejones - Dehesa del Saladar Natura 2000","coordinates":[-1.5186,40.3744]},{"code":"ES-0768","program":"pota","name":"Valdecabriel - Las Tejeras Natura 2000","coordinates":[-1.6089,40.2842]},{"code":"ES-0769","program":"pota","name":"Alto Tajo y Muela de San Juan Natura 2000","coordinates":[-1.7467,40.3972]},{"code":"ES-0770","program":"pota","name":"Estrechos del Guadalaviar Natura 2000","coordinates":[-1.6106,40.4028]},{"code":"ES-0771","program":"pota","name":"Tremedales de Orihuela Natura 2000","coordinates":[-1.6689,40.465]},{"code":"EA2/TE-004","program":"sota","name":"Sierra Alta","coordinates":[-1.5895,40.4835]},{"code":"EA2/TE-005","program":"sota","name":"Muela de San Juan","coordinates":[-1.7237,40.4191]},{"code":"EA2/TE-024","program":"sota","name":"Peñablanca","coordinates":[-1.66872,40.46321]},{"code":"EA2/TE-030","program":"sota","name":"Puntal de los Cuervos","coordinates":[-1.65082,40.31749]},{"code":"EA4/CU-013","program":"sota","name":"Pico La Cruceta","coordinates":[-1.7469,40.3097]},{"code":"EA4/CU-014","program":"sota","name":"Pico Alto del Oso","coordinates":[-1.6679,40.2674]}]}