{"lat":40.25,"lon":-123.75,"programs":["sota"],"count":8,"references":[{"code":"W6/CC-017","program":"sota","name":"Black Lassic","coordinates":[-123.5411,40.3401]},{"code":"W6/NC-036","program":"sota","name":"East Larabee Buttes","coordinates":[-123.7128,40.423]},{"code":"W6/NW-178","program":"sota","name":"Coffee Pot","coordinates":[-123.5135,40.2806]},{"code":"W6/NW-216","program":"sota","name":"Buck Mountain","coordinates":[-123.5886,40.4426]},{"code":"W6/NW-271","program":"sota","name":"Charles Mountain","coordinates":[-123.6591,40.3922]},{"code":"W6/NW-280","program":"sota","name":"4376","coordinates":[-123.6131,40.36]},{"code":"W6/NW-324","program":"sota","name":"3960","coordinates":[-123.5514,40.4838]},{"code":"W6/NW-357","program":"sota","name":"3300","coordinates":[-123.6823,40.4714]}]}