{"lat":40.25,"lon":-111.25,"programs":["sota"],"count":7,"references":[{"code":"W7U/NU-034","program":"sota","name":"Heber Mountain","coordinates":[-111.1844,40.4342]},{"code":"W7U/WA-001","program":"sota","name":"Red Creek Mountain","coordinates":[-111.0083,40.4082]},{"code":"W7U/WA-002","program":"sota","name":"Currant Creek Peak","coordinates":[-111.1749,40.3782]},{"code":"W7U/WA-005","program":"sota","name":"Racetrack Benchmark","coordinates":[-111.1305,40.3094]},{"code":"W7U/WA-010","program":"sota","name":"9563","coordinates":[-111.1822,40.3392]},{"code":"W7U/WA-013","program":"sota","name":"Buckhorn Knoll","coordinates":[-111.0277,40.2698]},{"code":"W7U/WA-015","program":"sota","name":"8978","coordinates":[-111.2094,40.3347]}]}