{"lat":40.25,"lon":22,"programs":["pota","sota"],"count":11,"references":[{"code":"GR-0035","program":"pota","name":"Xiroleivado Wildlife Refuge","coordinates":[22.0503,40.4833]},{"code":"GR-0042","program":"pota","name":"Rizomata Wildlife Refuge","coordinates":[22.2244,40.3361]},{"code":"GR-0049","program":"pota","name":"Mikri Santa Wildlife Refuge","coordinates":[22.1462,40.4095]},{"code":"GR-0052","program":"pota","name":"Avgi-Imera Kozanis(Polymylou) Wildlife Refuge","coordinates":[22.09,40.3435]},{"code":"SV/MC-011","program":"sota","name":"Arapis","coordinates":[22.14611,40.40917]},{"code":"SV/MC-014","program":"sota","name":"Kastania","coordinates":[22.109167,40.422222]},{"code":"SV/MC-044","program":"sota","name":"Xirovuni","coordinates":[22.035278,40.4825]},{"code":"SV/MC-045","program":"sota","name":"Eresou Ipsoma","coordinates":[22.045,40.445]},{"code":"SV/MC-047","program":"sota","name":"Agathi","coordinates":[22.062778,40.39111]},{"code":"SV/MC-048","program":"sota","name":"Papa Xorafia","coordinates":[22.215,40.326668]},{"code":"SV/MC-087","program":"sota","name":"Suvleri","coordinates":[22.01687,40.318142]}]}