{"lat":40.25,"lon":-0.25,"programs":["gma","pota","sota"],"count":18,"references":[{"code":"EC/CV-015","program":"gma","name":"Mola del Vilar","coordinates":[-0.15162222,40.453675]},{"code":"EC/CV-016","program":"gma","name":"Arriello","coordinates":[-0.21632225,40.46103053]},{"code":"EC/CV-019","program":"gma","name":"Folch","coordinates":[-0.17619448,40.48958886]},{"code":"EC/CV-020","program":"gma","name":"Picayo","coordinates":[-0.24137777,40.3890833]},{"code":"EC/CV-040","program":"gma","name":"Orenga","coordinates":[-0.07012225,40.39492775]},{"code":"EC/CV-081","program":"gma","name":"Bovalar","coordinates":[-0.14222221,40.3714611]},{"code":"EC/CV-098","program":"gma","name":"La Selleta","coordinates":[-0.09593331,40.35269167]},{"code":"EC/CV-117","program":"gma","name":"Puch","coordinates":[-0.01848335,40.37096112]},{"code":"ES-0996","program":"pota","name":"L'Alt Maestrat Natura 2000","coordinates":[-0.165,40.4219]},{"code":"EA5/CS-007","program":"sota","name":"Mola d´Ares","coordinates":[-0.1317,40.4665]},{"code":"EA5/CS-009","program":"sota","name":"Nevera","coordinates":[-0.0298,40.4678]},{"code":"EA5/CS-012","program":"sota","name":"Castell","coordinates":[-0.1669,40.3377]},{"code":"EA5/CS-015","program":"sota","name":"Espaneguera","coordinates":[-0.0861,40.2974]},{"code":"EA5/CS-016","program":"sota","name":"Tossal de Saragossa","coordinates":[-0.0011,40.2901]},{"code":"EA5/CS-024","program":"sota","name":"Mola de la Vila","coordinates":[-0.1517,40.4537]},{"code":"EA5/CS-025","program":"sota","name":"Arriello","coordinates":[-0.2166,40.461]},{"code":"EA5/CS-032","program":"sota","name":"Sant Cristòfol","coordinates":[-0.1398,40.3596]},{"code":"EA5/CS-038","program":"sota","name":"Tossal de la Vila","coordinates":[-0.0355,40.2676]}]}