{"lat":40.25,"lon":8.25,"programs":["pota","sota","wwbota"],"count":5,"references":[{"code":"IT-0037","program":"pota","name":"Entroterra e zona costiera tra Bosa, Capo Marargiu e Porto Tangone Natura 2000","coordinates":[8.44265,40.425]},{"code":"IS0/IS-106","program":"sota","name":"Monte Mannu","coordinates":[8.4193,40.3782]},{"code":"IS0/IS-108","program":"sota","name":"Monte Sa Pittada","coordinates":[8.4552,40.3535]},{"code":"IS0/IS-141","program":"sota","name":"Pedra Ettori","coordinates":[8.4408,40.4733]},{"code":"B/IT-0241","program":"wwbota","name":"Bunker (Spiaggia Turas  / Sardegna)","coordinates":[8.48317,40.27067]}]}