{"lat":40.25,"lon":-6.25,"programs":["pota","sota"],"count":15,"references":[{"code":"ES-0120","program":"pota","name":"Las Batuecas-Sierra de Francia Nature Park","coordinates":[-6.09063,40.4563]},{"code":"ES-1099","program":"pota","name":"Granadilla Natura 2000","coordinates":[-6.0617,40.2756]},{"code":"EA1/SL-011","program":"sota","name":"Cerro Rongiero","coordinates":[-6.1991,40.48166]},{"code":"EA1/SL-013","program":"sota","name":"Alto de Leras","coordinates":[-6.15983,40.48868]},{"code":"EA1/SL-015","program":"sota","name":"Orconera","coordinates":[-6.09937,40.46102]},{"code":"EA1/SL-028","program":"sota","name":"Pardo","coordinates":[-6.04471,40.3972]},{"code":"EA1/SL-033","program":"sota","name":"Risco del Águila Castañera","coordinates":[-6.07345,40.4217]},{"code":"EA4/CC-022","program":"sota","name":"Manzano, Sierra del","coordinates":[-6.1761,40.3099]},{"code":"EA4/CC-023","program":"sota","name":"Cordón","coordinates":[-6.1117,40.3959]},{"code":"EA4/CC-039","program":"sota","name":"Pico Chapallal","coordinates":[-6.24,40.3764]},{"code":"EA4/CC-048","program":"sota","name":"Calama","coordinates":[-6.053,40.3398]},{"code":"EA4/CC-056","program":"sota","name":"Pico Sierra de los Riscales (suroeste)","coordinates":[-6.1814,40.4056]},{"code":"EA4/CC-067","program":"sota","name":"Alto de Pinajarro","coordinates":[-6.2104,40.2998]},{"code":"EA4/CC-070","program":"sota","name":"Talamar","coordinates":[-6.1836,40.3628]},{"code":"EA4/CC-083","program":"sota","name":"Pico El Regajito","coordinates":[-6.218,40.3422]}]}