{"lat":40.25,"lon":-74,"programs":["pota","wwbota"],"count":8,"references":[{"code":"US-0180","program":"pota","name":"Twin Lights State Historic Site","coordinates":[-73.986,40.3962]},{"code":"US-6544","program":"pota","name":"New Jersey Coastal State Trail","coordinates":[-73.985,40.4267]},{"code":"B/US-0093","program":"wwbota","name":"Nike Missile Site NY-56 (NY)","coordinates":[-73.99333,40.44806]},{"code":"B/US-0289","program":"wwbota","name":"Battery Gunnison","coordinates":[-73.99504,40.45994]},{"code":"B/US-0294","program":"wwbota","name":"Battery Mills","coordinates":[-73.99188,40.43476]},{"code":"B/US-0296","program":"wwbota","name":"Battery 219","coordinates":[-73.98334,40.38655]},{"code":"B/US-0297","program":"wwbota","name":"Battery 116","coordinates":[-73.98915,40.38927]},{"code":"B/US-0298","program":"wwbota","name":"Battery Proof","coordinates":[-73.99961,40.46796]}]}