{"lat":40.5,"lon":13.75,"programs":["gma","pota","sota"],"count":9,"references":[{"code":"IT/CA-1000","program":"gma","name":"Monte Epomeo","coordinates":[13.89429,40.73014]},{"code":"IT/CA-1001","program":"gma","name":"Pietra del Acqua","coordinates":[13.8853,40.7243]},{"code":"IT/CA-1002","program":"gma","name":"Monte Trippodi","coordinates":[13.91828,40.7256]},{"code":"IT/CA-1003","program":"gma","name":"Montagnone","coordinates":[13.93141,40.73908]},{"code":"IT/CA-1004","program":"gma","name":"Fondo dÂ´ Oglio","coordinates":[13.92364,40.7402]},{"code":"IT-0135","program":"pota","name":"Isola di Vivara Natura 2000","coordinates":[13.9932,40.7445]},{"code":"IT-1542","program":"pota","name":"Corpo centrale dell'Isola di Ischia Natura 2000","coordinates":[13.9086,40.7306]},{"code":"I/CA-145","program":"sota","name":"Monte Epomeo","coordinates":[13.8946,40.7302]},{"code":"I/CA-203","program":"sota","name":"Monte di Vezzi","coordinates":[13.9462,40.7107]}]}