{"lat":40.5,"lon":140,"programs":["pota","sota"],"count":15,"references":[{"code":"JP-1030","program":"pota","name":"Tsugaru Shirakami Prefectural Nature Park","coordinates":[140.111,40.6294]},{"code":"JA/AM-004","program":"sota","name":"Mukaishirakamidake","coordinates":[140.0454,40.5239]},{"code":"JA/AM-012","program":"sota","name":"Futase","coordinates":[140.0426,40.596]},{"code":"JA/AM-013","program":"sota","name":"Tengudake","coordinates":[140.0843,40.5271]},{"code":"JA/AM-015","program":"sota","name":"Shimotozawa","coordinates":[140.0987,40.5712]},{"code":"JA/AM-017","program":"sota","name":"Aogayama","coordinates":[140.0987,40.6549]},{"code":"JA/AM-018","program":"sota","name":"Rangannomori","coordinates":[140.1555,40.5796]},{"code":"JA/AM-019","program":"sota","name":"Oonaruki","coordinates":[140.1476,40.6059]},{"code":"JA/AM-024","program":"sota","name":"Takakuramori","coordinates":[140.164,40.5407]},{"code":"JA/AM-026","program":"sota","name":"Masugatayama","coordinates":[140.0483,40.6761]},{"code":"JA/AM-029","program":"sota","name":"Serizawa","coordinates":[140.2484,40.501]},{"code":"JA/AM-035","program":"sota","name":"Sasanagareyama","coordinates":[140.0459,40.6966]},{"code":"JA/AM-036","program":"sota","name":"Shikarigadake","coordinates":[140.1639,40.664]},{"code":"JA/AM-076","program":"sota","name":"Shirakamidake","coordinates":[140.0182,40.5074]},{"code":"JA/AM-078","program":"sota","name":"Chausuyama","coordinates":[140.0312,40.6085]}]}