{"lat":40.5,"lon":17.75,"programs":["pota","wwbota"],"count":5,"references":[{"code":"IT-0132","program":"pota","name":"Torre Guaceto e Macchia S. Giovanni Natura 2000","coordinates":[17.7581,40.7436]},{"code":"IT-0908","program":"pota","name":"Foce Canale Giancola Natura 2000","coordinates":[17.8675,40.6842]},{"code":"IT-1151","program":"pota","name":"Bosco I Lucci Natura 2000","coordinates":[17.8619,40.575]},{"code":"IT-1155","program":"pota","name":"Bosco di Santa Teresa Natura 2000","coordinates":[17.9203,40.5406]},{"code":"B/IT-0032","program":"wwbota","name":"Bunker (Riserva Nat Torre Guaceto  / Puglia )","coordinates":[17.79816,40.71603]}]}