{"lat":40.5,"lon":-115.5,"programs":["sota"],"count":16,"references":[{"code":"W7N/ES-001","program":"sota","name":"Ruby Dome","coordinates":[-115.4754,40.6217]},{"code":"W7N/ES-002","program":"sota","name":"11340","coordinates":[-115.3928,40.6221]},{"code":"W7N/ES-004","program":"sota","name":"Fitzgerald, Mount","coordinates":[-115.4103,40.6038]},{"code":"W7N/ES-006","program":"sota","name":"Gilbert, Mount","coordinates":[-115.446,40.6243]},{"code":"W7N/ES-007","program":"sota","name":"Mount Talbot","coordinates":[-115.349,40.6632]},{"code":"W7N/ES-008","program":"sota","name":"Verdi Peak","coordinates":[-115.3575,40.6454]},{"code":"W7N/ES-010","program":"sota","name":"Liberty Peak","coordinates":[-115.4001,40.5865]},{"code":"W7N/ES-013","program":"sota","name":"Wines Peak","coordinates":[-115.4078,40.55]},{"code":"W7N/ES-014","program":"sota","name":"Lake Peak","coordinates":[-115.395,40.5636]},{"code":"W7N/ES-017","program":"sota","name":"10835","coordinates":[-115.4176,40.6234]},{"code":"W7N/ES-018","program":"sota","name":"Green Benchmark","coordinates":[-115.2996,40.7105]},{"code":"W7N/ES-019","program":"sota","name":"10820","coordinates":[-115.449,40.6072]},{"code":"W7N/ES-022","program":"sota","name":"10529","coordinates":[-115.4103,40.6631]},{"code":"W7N/ES-027","program":"sota","name":"10095","coordinates":[-115.4371,40.588]},{"code":"W7N/ES-132","program":"sota","name":"Smith Peak","coordinates":[-115.3338,40.6604]},{"code":"W7N/ES-133","program":"sota","name":"8319","coordinates":[-115.3242,40.6004]}]}