{"lat":40.5,"lon":24.5,"programs":["pota","sota"],"count":7,"references":[{"code":"GR-0017","program":"pota","name":"Thasos(Oros Ypsario kai paraktia zoni) Natura 2000","coordinates":[24.702,40.6991]},{"code":"GR-0018","program":"pota","name":"Kallirachi-Maries National Wildlife Refuge","coordinates":[24.5532,40.6606]},{"code":"SV/MC-002","program":"sota","name":"Profitis Ilias","coordinates":[24.696945,40.725834]},{"code":"SV/MC-003","program":"sota","name":"Ipsarion","coordinates":[24.705555,40.703335]},{"code":"SV/MC-039","program":"sota","name":"Ai Matis","coordinates":[24.554167,40.672222]},{"code":"SV/MC-079","program":"sota","name":"Trikorfo","coordinates":[24.73652,40.64301]},{"code":"SV/MC-080","program":"sota","name":"Valanida","coordinates":[24.596275,40.74043]}]}