{"lat":40.5,"lon":-111.25,"programs":["pota","sota"],"count":11,"references":[{"code":"US-11090","program":"pota","name":"Kamas Utah State Fish Hatchery","coordinates":[-111.228,40.6238]},{"code":"US-11107","program":"pota","name":"Kamas State Wildlife Habitat Management Area","coordinates":[-111.238,40.6316]},{"code":"W7U/SM-017","program":"sota","name":"Long Benchmark","coordinates":[-111.0181,40.6951]},{"code":"W7U/SM-018","program":"sota","name":"11340","coordinates":[-111.0257,40.7094]},{"code":"W7U/SM-021","program":"sota","name":"11260","coordinates":[-111.0301,40.6844]},{"code":"W7U/SM-028","program":"sota","name":"Wall Benchmark","coordinates":[-111.0612,40.6779]},{"code":"W7U/SM-032","program":"sota","name":"10647","coordinates":[-111.0959,40.6905]},{"code":"W7U/SM-033","program":"sota","name":"Duke Benchmark","coordinates":[-111.1444,40.6769]},{"code":"W7U/SM-036","program":"sota","name":"Hoyt Peak","coordinates":[-111.1979,40.6922]},{"code":"W7U/SM-040","program":"sota","name":"9865","coordinates":[-111.1435,40.7124]},{"code":"W7U/SM-044","program":"sota","name":"8829","coordinates":[-111.1729,40.6104]}]}