{"lat":40.5,"lon":15.25,"programs":["pota","sota"],"count":23,"references":[{"code":"IT-2023","program":"pota","name":"Monte Paratiello Natura 2000","coordinates":[15.4025,40.7489]},{"code":"IT-0362","program":"pota","name":"Massiccio del Monte Eremita Natura 2000","coordinates":[15.3431,40.7303]},{"code":"IT-0491","program":"pota","name":"Riserva Naturale Foce Sele - Tanagro Regional Reserve","coordinates":[15.2718,40.5952]},{"code":"I/BS-019","program":"sota","name":"Serra Raichiane – Quota 1446","coordinates":[15.4097,40.7408]},{"code":"I/BS-075","program":"sota","name":"Serra di Fagalo","coordinates":[15.4757,40.6802]},{"code":"I/BS-081","program":"sota","name":"Monte la Rossa","coordinates":[15.4693,40.619]},{"code":"I/CA-006","program":"sota","name":"Monte Alburno","coordinates":[15.3242,40.5353]},{"code":"I/CA-009","program":"sota","name":"Monte della Nuda","coordinates":[15.2511,40.5465]},{"code":"I/CA-023","program":"sota","name":"Monte Marzano","coordinates":[15.3057,40.7386]},{"code":"I/CA-031","program":"sota","name":"Monte Raistulo","coordinates":[15.3403,40.7226]},{"code":"I/CA-058","program":"sota","name":"Monte la Marta","coordinates":[15.4439,40.5047]},{"code":"I/CA-083","program":"sota","name":"Monte Cucuzzone","coordinates":[15.3739,40.6858]},{"code":"I/CA-092","program":"sota","name":"Monte Forloso","coordinates":[15.3686,40.5506]},{"code":"I/CA-109","program":"sota","name":"Monte San Giacomo","coordinates":[15.4594,40.5818]},{"code":"I/CA-120","program":"sota","name":"Serroni di Roccia","coordinates":[15.4121,40.5239]},{"code":"I/CA-125","program":"sota","name":"Costa Castello","coordinates":[15.403,40.5371]},{"code":"I/CA-131","program":"sota","name":"Monte Sciamarro","coordinates":[15.413,40.6316]},{"code":"I/CA-135","program":"sota","name":"Monte la Serrapola","coordinates":[15.4898,40.5875]},{"code":"I/CA-152","program":"sota","name":"Serra Monte Tre Croci","coordinates":[15.3034,40.6584]},{"code":"I/CA-158","program":"sota","name":"Lo Scorzo","coordinates":[15.2605,40.5857]},{"code":"I/CA-172","program":"sota","name":"Palomonte","coordinates":[15.2915,40.6638]},{"code":"I/CA-181","program":"sota","name":"Monte Pruno","coordinates":[15.2723,40.6825]},{"code":"I/CA-196","program":"sota","name":"Castelluccio","coordinates":[15.3419,40.5802]}]}