{"lat":40.5,"lon":-123,"programs":["pota","sota"],"count":16,"references":[{"code":"US-3590","program":"pota","name":"Weaverville Joss House State Historical Park","coordinates":[-122.94,40.7311]},{"code":"W6/CC-009","program":"sota","name":"Bully Choop Mountain","coordinates":[-122.7671,40.5552]},{"code":"W6/NW-176","program":"sota","name":"Lookout Peak","coordinates":[-122.7827,40.5059]},{"code":"W6/NW-180","program":"sota","name":"Bluenose Peak","coordinates":[-122.8521,40.5008]},{"code":"W6/NW-221","program":"sota","name":"Horse Mane Ridge","coordinates":[-122.8801,40.5401]},{"code":"W6/NW-264","program":"sota","name":"North Hoadley Peaks","coordinates":[-122.7525,40.6892]},{"code":"W6/NW-279","program":"sota","name":"4377","coordinates":[-122.9979,40.6963]},{"code":"W6/NW-318","program":"sota","name":"Sugarloaf Peak","coordinates":[-122.9318,40.5075]},{"code":"W6/NW-330","program":"sota","name":"Browns Mountain","coordinates":[-122.8732,40.7385]},{"code":"W6/NW-353","program":"sota","name":"3385","coordinates":[-122.9069,40.6983]},{"code":"W6/NW-358","program":"sota","name":"3248","coordinates":[-122.8337,40.6898]},{"code":"W6/NW-360","program":"sota","name":"3185","coordinates":[-122.9222,40.6187]},{"code":"W6/NW-363","program":"sota","name":"South Browns Mountain","coordinates":[-122.9684,40.6425]},{"code":"W6/NW-364","program":"sota","name":"Musser Hill","coordinates":[-122.9033,40.7435]},{"code":"W6/NW-422","program":"sota","name":"Tylers Peak","coordinates":[-122.8297,40.6465]},{"code":"W6/NW-435","program":"sota","name":"3707","coordinates":[-122.7672,40.639]}]}