{"lat":40.75,"lon":-111,"programs":["sota"],"count":6,"references":[{"code":"W7U/SM-006","program":"sota","name":"Lamotte Peak","coordinates":[-110.752,40.7737]},{"code":"W7U/SM-011","program":"sota","name":"A-1 Peak","coordinates":[-110.8332,40.7681]},{"code":"W7U/SM-014","program":"sota","name":"Kletting Peak","coordinates":[-110.8567,40.7624]},{"code":"W7U/SM-025","program":"sota","name":"Moffit Peak","coordinates":[-110.9545,40.8098]},{"code":"W7U/SM-027","program":"sota","name":"10959","coordinates":[-110.7677,40.8394]},{"code":"W7U/SM-034","program":"sota","name":"Gold Hill","coordinates":[-110.9137,40.8116]}]}