{"lat":40.75,"lon":29,"programs":["pota"],"count":7,"references":[{"code":"TR-0088","program":"pota","name":"Büyükada Nature Park","coordinates":[29.123,40.849]},{"code":"TR-0103","program":"pota","name":"Değirmenburnu Nature Park","coordinates":[29.0929,40.8839]},{"code":"TR-0107","program":"pota","name":"Dilburnu Nature Park","coordinates":[29.1104,40.8608]},{"code":"TR-0318","program":"pota","name":"Moda Coastal Park","coordinates":[29.0286,40.9802]},{"code":"TR-0319","program":"pota","name":"Kalamış Atatürk Park","coordinates":[29.0382,40.9797]},{"code":"TR-0320","program":"pota","name":"Fenerbahçe Park","coordinates":[29.0342,40.9678]},{"code":"TR-0333","program":"pota","name":"Maltepe Orhangazi City Park","coordinates":[29.1151,40.9308]}]}