{"lat":40.75,"lon":-77.75,"programs":["pota","sota"],"count":6,"references":[{"code":"US-5462","program":"pota","name":"Bald Eagle State Forest","coordinates":[-77.6709,40.8836]},{"code":"US-9013","program":"pota","name":"PA 323 State Game Land","coordinates":[-77.7123,40.9766]},{"code":"W3/PW-016","program":"sota","name":"Nittanny Mtn 2302","coordinates":[-77.6951,40.8599]},{"code":"W3/PW-044","program":"sota","name":"Brush Mtn 2094","coordinates":[-77.5837,40.883]},{"code":"W3/PW-055","program":"sota","name":"Egg Hill","coordinates":[-77.6021,40.8318]},{"code":"W3/PW-065","program":"sota","name":"Bald Eagle Mtn 1730","coordinates":[-77.6842,40.9743]}]}