{"lat":40.75,"lon":17,"programs":["gma","pota"],"count":5,"references":[{"code":"IT/PU-1004","program":"gma","name":"Serio","coordinates":[17.2010994,40.81359863]},{"code":"IT-0200","program":"pota","name":"Laghi di Conversano Natura 2000","coordinates":[17.1261,40.9217]},{"code":"IT-0988","program":"pota","name":"Pozzo Cucù Natura 2000","coordinates":[17.1678,40.9039]},{"code":"IT-1013","program":"pota","name":"Murgia dei Trulli Natura 2000","coordinates":[17.2361,40.8522]},{"code":"IT-1090","program":"pota","name":"Grotte di Castellana Natura 2000","coordinates":[17.1519,40.8719]}]}