{"lat":40.75,"lon":-76.25,"programs":["gma","pota","sota"],"count":6,"references":[{"code":"XW3/SV-037","program":"gma","name":"Beaver Valley Hill","coordinates":[-76.2460022,40.94950104]},{"code":"US-1378","program":"pota","name":"Locust Lake State Park","coordinates":[-76.1191,40.7857]},{"code":"US-1429","program":"pota","name":"Tuscarora State Park","coordinates":[-76.021,40.8091]},{"code":"US-9016","program":"pota","name":"PA 326 State Game Land","coordinates":[-76.2108,40.7661]},{"code":"W3/SV-033","program":"sota","name":"Bears Head","coordinates":[-76.0797,40.8503]},{"code":"W3/SV-064","program":"sota","name":"Buck Mountain","coordinates":[-76.2078,40.9508]}]}