{"lat":40.75,"lon":-111.75,"programs":["pota","sota"],"count":6,"references":[{"code":"US-3068","program":"pota","name":"East Canyon State Park","coordinates":[-111.587,40.9011]},{"code":"US-10564","program":"pota","name":"East Canyon State Wildlife Management Area","coordinates":[-111.628,40.9343]},{"code":"W7U/MO-004","program":"sota","name":"Deadox Benchmark","coordinates":[-111.639,40.8722]},{"code":"W7U/MO-006","program":"sota","name":"Redrock Peak","coordinates":[-111.5874,40.9679]},{"code":"W7U/NU-058","program":"sota","name":"Lookout Peak","coordinates":[-111.7154,40.8343]},{"code":"W7U/SM-052","program":"sota","name":"6516","coordinates":[-111.5112,40.9978]}]}