{"lat":40.75,"lon":-77,"programs":["pota","sota"],"count":7,"references":[{"code":"US-1421","program":"pota","name":"Shikellamy State Park","coordinates":[-76.8017,40.8818]},{"code":"US-8890","program":"pota","name":"PA 193 State Game Land","coordinates":[-76.8892,40.9051]},{"code":"US-8909","program":"pota","name":"PA 212 State Game Land","coordinates":[-76.8753,40.7592]},{"code":"US-8930","program":"pota","name":"PA 233 State Game Land","coordinates":[-76.8582,40.7503]},{"code":"W3/SV-054","program":"sota","name":"Montour Ridge","coordinates":[-76.8161,40.942]},{"code":"W3/SV-076","program":"sota","name":"Little Mountain","coordinates":[-76.8164,40.7533]},{"code":"W3/SV-083","program":"sota","name":"Shamokin Mountain","coordinates":[-76.9595,40.8998]}]}