{"lat":40.75,"lon":-1.75,"programs":["gma","pota","sota"],"count":5,"references":[{"code":"XEA4/GU-040","program":"gma","name":"Betera","coordinates":[-1.63139999,40.8321991]},{"code":"ES-0048","program":"pota","name":"Laguna de Gallocanta Nature Park","coordinates":[-1.50648,40.9766]},{"code":"ES-1904","program":"pota","name":"Laguna de Gallocanta Wetland Reserve","coordinates":[-1.55,40.9667]},{"code":"ES-0902","program":"pota","name":"Sierra de Caldereros Natura 2000","coordinates":[-1.7281,40.8536]},{"code":"EA4/GU-033","program":"sota","name":"Lituero","coordinates":[-1.7183,40.8457]}]}