{"lat":40.75,"lon":20.75,"programs":["pota","sota","wwbota"],"count":9,"references":[{"code":"AL-0011","program":"pota","name":"Prespës National Park","coordinates":[20.9167,40.75]},{"code":"MK-0092","program":"pota","name":"Trpejca, makedonski dab (Ohrid) Protected Area","coordinates":[20.7838,40.9604]},{"code":"MK-0108","program":"pota","name":"Zaliv na koskite Archeological Reserve","coordinates":[20.7983,40.9946]},{"code":"MK-0013","program":"pota","name":"Prespa lake Protected Area","coordinates":[20.9921,40.9628]},{"code":"Z3/WM-054","program":"sota","name":"Lako Signoj","coordinates":[20.832,40.97]},{"code":"Z3/WM-154","program":"sota","name":"Visochi Vrv","coordinates":[20.957,40.9164]},{"code":"B/Z3-0001","program":"wwbota","name":"Bunker Ljubanishta Ohrid","coordinates":[20.777,40.923]},{"code":"B/Z3-0040","program":"wwbota","name":"Bunkers Galichica front","coordinates":[20.7964,40.9706]},{"code":"B/ZA-0048","program":"wwbota","name":"Bunkers Pustec Municipality","coordinates":[20.9022,40.7869]}]}