{"lat":40.75,"lon":-123,"programs":["sota"],"count":13,"references":[{"code":"W6/NW-007","program":"sota","name":"Gibson Peak","coordinates":[-122.8732,40.9435]},{"code":"W6/NW-012","program":"sota","name":"8215","coordinates":[-122.9909,40.9554]},{"code":"W6/NW-014","program":"sota","name":"8169","coordinates":[-122.8805,40.9274]},{"code":"W6/NW-015","program":"sota","name":"Siligo Peak","coordinates":[-122.9001,40.9453]},{"code":"W6/NW-016","program":"sota","name":"Seven Up Peak","coordinates":[-122.8787,40.96]},{"code":"W6/NW-022","program":"sota","name":"Little Granite Peak","coordinates":[-122.9992,40.9329]},{"code":"W6/NW-027","program":"sota","name":"Red Mountain","coordinates":[-122.8967,40.911]},{"code":"W6/NW-029","program":"sota","name":"7864","coordinates":[-122.8834,40.977]},{"code":"W6/NW-036","program":"sota","name":"Monument Peak","coordinates":[-122.9784,40.8319]},{"code":"W6/NW-054","program":"sota","name":"Weaver Bally","coordinates":[-122.9939,40.8159]},{"code":"W6/NW-065","program":"sota","name":"7250","coordinates":[-122.9873,40.9147]},{"code":"W6/NW-081","program":"sota","name":"6988","coordinates":[-122.9892,40.8749]},{"code":"W6/NW-437","program":"sota","name":"Low Benchmark","coordinates":[-122.7834,40.8106]}]}