{"lat":40.75,"lon":-76.5,"programs":["gma","pota","sota"],"count":8,"references":[{"code":"XW3/SV-048","program":"gma","name":"Scoth Valley Hill","coordinates":[-76.25289917,40.99890137]},{"code":"US-5480","program":"pota","name":"Weiser State Forest","coordinates":[-76.3346,40.8306]},{"code":"US-8757","program":"pota","name":"PA 058 State Game Land","coordinates":[-76.2769,40.9176]},{"code":"US-9019","program":"pota","name":"PA 329 State Game Land","coordinates":[-76.2999,40.8344]},{"code":"W3/SV-036","program":"sota","name":"Catawissa Mtn 1945","coordinates":[-76.2861,40.8929]},{"code":"W3/SV-042","program":"sota","name":"Catawissa Mtn 1830","coordinates":[-76.4245,40.9398]},{"code":"W3/SV-047","program":"sota","name":"McCauley Mtn","coordinates":[-76.2997,40.9671]},{"code":"W3/SV-071","program":"sota","name":"Nescopeck Mountain","coordinates":[-76.3362,40.979]}]}