{"lat":40.75,"lon":-106.75,"programs":["sota"],"count":12,"references":[{"code":"W0C/MZ-001","program":"sota","name":"Big Agnes Mountain","coordinates":[-106.6923,40.8297]},{"code":"W0C/MZ-003","program":"sota","name":"South Buck Mountain","coordinates":[-106.7389,40.8679]},{"code":"W0C/PR-064","program":"sota","name":"Mount Zirkel","coordinates":[-106.6631,40.8314]},{"code":"W0C/PR-065","program":"sota","name":"Flattop Mountain","coordinates":[-106.6355,40.8047]},{"code":"W0C/PR-070","program":"sota","name":"Peggy Peak","coordinates":[-106.6306,40.8343]},{"code":"W0C/PR-073","program":"sota","name":"Goosenest","coordinates":[-106.6647,40.8588]},{"code":"W0C/PR-078","program":"sota","name":"Bear Mountain","coordinates":[-106.6117,40.7828]},{"code":"W0C/PR-086","program":"sota","name":"Davis Peak","coordinates":[-106.7006,40.9205]},{"code":"W0C/PR-093","program":"sota","name":"Buffalo Ridge","coordinates":[-106.715,40.9619]},{"code":"W0C/PR-123","program":"sota","name":"9726","coordinates":[-106.5932,40.9229]},{"code":"W0C/PR-129","program":"sota","name":"Sheep Mountain","coordinates":[-106.5078,40.7714]},{"code":"W0C/PR-152","program":"sota","name":"11820","coordinates":[-106.6476,40.774]}]}