{"lat":40.75,"lon":15.5,"programs":["pota","sota"],"count":11,"references":[{"code":"IT-0085","program":"pota","name":"Monte Vulture Natura 2000","coordinates":[15.6222,40.9419]},{"code":"IT-0466","program":"pota","name":"Grotticelle di Monticchio Natura 2000","coordinates":[15.5486,40.9233]},{"code":"IT-0561","program":"pota","name":"Riserva Naturale Coste Castello Provincial Park","coordinates":[15.7314,40.8087]},{"code":"IT-0594","program":"pota","name":"Riserva Naturale Agromonte Spacciaboschi Provincial Park","coordinates":[15.7294,40.8528]},{"code":"I/BS-022","program":"sota","name":"Monte Santa Croce","coordinates":[15.5868,40.7793]},{"code":"I/BS-027","program":"sota","name":"Costa Squadro – Quota 1340","coordinates":[15.5376,40.7938]},{"code":"I/BS-029","program":"sota","name":"Monte Vulture","coordinates":[15.6356,40.9508]},{"code":"I/BS-034","program":"sota","name":"Costa del Gaudo","coordinates":[15.5031,40.7864]},{"code":"I/BS-040","program":"sota","name":"Monte Caruso","coordinates":[15.7158,40.7626]},{"code":"I/BS-083","program":"sota","name":"Serra di Guerra","coordinates":[15.56,40.8616]},{"code":"I/CA-143","program":"sota","name":"Serro della Croce","coordinates":[15.5368,40.9969]}]}