{"lat":40.75,"lon":14,"programs":["pota","sota","wwbota"],"count":8,"references":[{"code":"IT-0558","program":"pota","name":"Cratere di Astroni Natura 2000","coordinates":[14.1497,40.8447]},{"code":"IT-0655","program":"pota","name":"Parco Regionale dei Campi Flegrei Regional Park","coordinates":[14.0774,40.842]},{"code":"IT-0775","program":"pota","name":"Parco Metropolitano delle Colline di Napoli Other Conservation Area","coordinates":[14.1921,40.8672]},{"code":"IT-1131","program":"pota","name":"Collina dei Camaldoli Natura 2000","coordinates":[14.1972,40.8567]},{"code":"I/CA-197","program":"sota","name":"Camaldoli","coordinates":[14.192,40.8582]},{"code":"I/CA-210","program":"sota","name":"Monte Barbaro","coordinates":[14.1097,40.8447]},{"code":"B/IT-0129","program":"wwbota","name":"Bunker (Cuma / Campania)","coordinates":[14.04909,40.85018]},{"code":"B/IT-0130","program":"wwbota","name":"Bunker (Poc  / Campania)","coordinates":[14.0871,40.78175]}]}