{"lat":40.75,"lon":15.25,"programs":["pota","sota"],"count":9,"references":[{"code":"IT-2022","program":"pota","name":"Vallone delle Ripe, Torrente Malta e Monte Giano Natura 2000","coordinates":[15.4693,40.7629]},{"code":"IT-1174","program":"pota","name":"Boschi di Guardia dei Lombardi e Andretta Natura 2000","coordinates":[15.2544,40.9456]},{"code":"IT-1663","program":"pota","name":"Bosco di Zampaglione (Calitri) Natura 2000","coordinates":[15.4808,40.9383]},{"code":"IT-2020","program":"pota","name":"Lago di Conza della Campania Natura 2000","coordinates":[15.3358,40.8808]},{"code":"I/BS-091","program":"sota","name":"Caperroni – Quota 622","coordinates":[15.3726,40.8782]},{"code":"I/CA-018","program":"sota","name":"Monte Eremita","coordinates":[15.3447,40.7608]},{"code":"I/CA-108","program":"sota","name":"La Toppa","coordinates":[15.3243,40.9968]},{"code":"I/CA-128","program":"sota","name":"Cresta del Gallo","coordinates":[15.2677,40.8402]},{"code":"I/CA-141","program":"sota","name":"Cairano","coordinates":[15.3654,40.8959]}]}