{"lat":40.75,"lon":-97,"programs":["pota"],"count":5,"references":[{"code":"US-3493","program":"pota","name":"Nine Mile Prairie National Historical Park","coordinates":[-96.8056,40.8717]},{"code":"US-5647","program":"pota","name":"Branched Oak State Recreation Area","coordinates":[-96.8707,40.973]},{"code":"US-5649","program":"pota","name":"Pawnee State Recreation Area","coordinates":[-96.8699,40.8483]},{"code":"US-5662","program":"pota","name":"Conestoga Lake State Recreation Area","coordinates":[-96.8496,40.7699]},{"code":"US-13093","program":"pota","name":"Oak Glen Wildlife Management Area","coordinates":[-96.9855,40.9667]}]}