{"lat":41,"lon":-3.5,"programs":["gma","pota","sota"],"count":24,"references":[{"code":"EC/CL-008","program":"gma","name":"Pico del Lobo","coordinates":[-3.46499991,41.18429947]},{"code":"EC/CL-009","program":"gma","name":"Pico del Granero","coordinates":[-3.39540005,41.21580124]},{"code":"XEA4/GU-013","program":"gma","name":"La Cebosa","coordinates":[-3.43860006,41.15879822]},{"code":"XEA4/GU-015","program":"gma","name":"Santuy","coordinates":[-3.46860003,41.12239838]},{"code":"XEA4/GU-017","program":"gma","name":"Atalaya","coordinates":[-3.36529994,41.1969986]},{"code":"XEA4/GU-020","program":"gma","name":"Regajo de las Yeguas","coordinates":[-3.33820009,41.16120148]},{"code":"XEA4/GU-022","program":"gma","name":"Cabeza del Viejo","coordinates":[-3.41190004,41.05139923]},{"code":"XEA4/GU-024","program":"gma","name":"Pinarejo","coordinates":[-3.26069999,41.17129898]},{"code":"XEA4/GU-025","program":"gma","name":"Aguila I","coordinates":[-3.38179994,41.15930176]},{"code":"ES-1877","program":"pota","name":"Camino Natural de los hayedos y robledales de Riaza National Recreation Trail","coordinates":[-3.40969,41.214]},{"code":"ES-0086","program":"pota","name":"Sierra Norte de Guadalajara Nature Park","coordinates":[-3.28256,41.1668]},{"code":"EA4/GU-001","program":"sota","name":"Pico del Lobo","coordinates":[-3.4663,41.1832]},{"code":"EA4/GU-002","program":"sota","name":"Cerrón","coordinates":[-3.4741,41.1538]},{"code":"EA4/GU-004","program":"sota","name":"Ocejón","coordinates":[-3.2554,41.1045]},{"code":"EA4/GU-014","program":"sota","name":"Tiñosa","coordinates":[-3.3955,41.2158]},{"code":"EA4/GU-016","program":"sota","name":"Campo","coordinates":[-3.2564,41.1393]},{"code":"EA4/GU-026","program":"sota","name":"Cabeza de Cabida","coordinates":[-3.3777,41.1184]},{"code":"EA4/GU-028","program":"sota","name":"San Cristobal I","coordinates":[-3.3742,41.0547]},{"code":"EA4/GU-032","program":"sota","name":"Cabeza de Ranas","coordinates":[-3.3371,41.1032]},{"code":"EA4/GU-054","program":"sota","name":"Cerro de Corralejo","coordinates":[-3.3785,41.0895]},{"code":"EA4/MD-015","program":"sota","name":"La Tornera","coordinates":[-3.4132,41.0186]},{"code":"EA4/MD-028","program":"sota","name":"Peña de la Cabra","coordinates":[-3.4815,41.0108]},{"code":"EA4/MD-029","program":"sota","name":"Porrejón","coordinates":[-3.4586,41.05]},{"code":"EA4/MD-051","program":"sota","name":"Pico de Bañaderos","coordinates":[-3.4794,41.0719]}]}