{"lat":41,"lon":-122,"programs":["sota"],"count":8,"references":[{"code":"W6/NE-140","program":"sota","name":"Grizzly Peak","coordinates":[-121.9786,41.1447]},{"code":"W6/NE-143","program":"sota","name":"Mushroom Rock","coordinates":[-121.8535,41.1741]},{"code":"W6/NE-172","program":"sota","name":"North Red Mountain","coordinates":[-121.8052,41.1034]},{"code":"W6/NE-184","program":"sota","name":"Bald Mountain","coordinates":[-121.8539,41.0968]},{"code":"W6/NE-227","program":"sota","name":"Dutchman Peak","coordinates":[-121.9945,41.0917]},{"code":"W6/NE-262","program":"sota","name":"Oak Mountain","coordinates":[-121.9691,41.023]},{"code":"W6/NE-313","program":"sota","name":"5641","coordinates":[-121.7803,41.1776]},{"code":"W6/NE-321","program":"sota","name":"3300","coordinates":[-121.9965,41.0379]}]}