{"lat":41,"lon":15.25,"programs":["pota","sota"],"count":8,"references":[{"code":"IT-1643","program":"pota","name":"Accadia - Deliceto Natura 2000","coordinates":[15.3003,41.1878]},{"code":"I/PU-002","program":"sota","name":"Monte Crispiniano","coordinates":[15.3014,41.2]},{"code":"I/PU-005","program":"sota","name":"Monte Tre Titoli","coordinates":[15.3574,41.1897]},{"code":"I/PU-009","program":"sota","name":"Colle Visconti","coordinates":[15.2676,41.13]},{"code":"I/PU-013","program":"sota","name":"Monte Serbaroli – Quota 820","coordinates":[15.3483,41.1489]},{"code":"I/PU-014","program":"sota","name":"Sant'Agata di Puglia – Quota 794","coordinates":[15.3792,41.152]},{"code":"I/PU-015","program":"sota","name":"Serra Mezzana – Quota 772","coordinates":[15.4807,41.078]},{"code":"I/PU-016","program":"sota","name":"Monte Celezza","coordinates":[15.4121,41.2058]}]}