{"lat":41,"lon":28.75,"programs":["pota"],"count":12,"references":[{"code":"TR-0082","program":"pota","name":"Ayvatbendi Nature Park","coordinates":[28.9208,41.1979]},{"code":"TR-0085","program":"pota","name":"Bentler Nature Park","coordinates":[28.9871,41.1895]},{"code":"TR-0115","program":"pota","name":"F. Rıfkı Atay Nature Park","coordinates":[28.9611,41.1927]},{"code":"TR-0116","program":"pota","name":"Fatih Çeşmesi Nature Park","coordinates":[28.9448,41.1689]},{"code":"TR-0119","program":"pota","name":"Göktürk Göleti Nature Park","coordinates":[28.8773,41.1903]},{"code":"TR-0129","program":"pota","name":"Irmak Nature Park","coordinates":[28.9577,41.1718]},{"code":"TR-0145","program":"pota","name":"Kirazlıbent Nature Park","coordinates":[28.9591,41.1703]},{"code":"TR-0148","program":"pota","name":"Kömürcübent Nature Park","coordinates":[28.9617,41.2052]},{"code":"TR-0162","program":"pota","name":"Neşetsuyu Nature Park","coordinates":[28.9688,41.1885]},{"code":"TR-0179","program":"pota","name":"Şamlar Nature Park","coordinates":[28.7618,41.1357]},{"code":"TR-0315","program":"pota","name":"Gülhane Park","coordinates":[28.9815,41.0133]},{"code":"TR-0323","program":"pota","name":"IBB Maçka Democracy Park","coordinates":[28.993,41.0446]}]}