{"lat":41,"lon":22,"programs":["pota","sota","wwbota"],"count":12,"references":[{"code":"GR-0031","program":"pota","name":"Tzena-Pinovo Dimou Exaplatanou Wildlife Refuge","coordinates":[22.1808,41.1114]},{"code":"MK-0037","program":"pota","name":"Konopishte Protected Area","coordinates":[22.0822,41.2345]},{"code":"MK-0068","program":"pota","name":"Gladnica, Mariovo Protected Area","coordinates":[22.1944,41.179]},{"code":"SV/MC-063","program":"sota","name":"Korfula","coordinates":[22.11861,41.103333]},{"code":"Z3/WM-052","program":"sota","name":"Zelen Breg","coordinates":[22.2107,41.1611]},{"code":"Z3/WM-081","program":"sota","name":"Dudica","coordinates":[22.1437,41.126]},{"code":"Z3/WM-088","program":"sota","name":"Porta","coordinates":[22.1709,41.1552]},{"code":"Z3/WM-094","program":"sota","name":"Mala Rupa","coordinates":[22.2475,41.1639]},{"code":"Z3/WM-095","program":"sota","name":"Chardak","coordinates":[22.1349,41.1719]},{"code":"Z3/WM-107","program":"sota","name":"Cici Kaja","coordinates":[22.2458,41.1966]},{"code":"Z3/WM-119","program":"sota","name":"Prashnik","coordinates":[22.0138,41.1324]},{"code":"B/Z3-0023","program":"wwbota","name":"Bunker Summit of Sokol Nidze","coordinates":[22.1094,41.1691]}]}