{"lat":41,"lon":9.25,"programs":["iota","pota","sota"],"count":8,"references":[{"code":"EU-041","program":"iota","name":"MADDALENA ARCHIPELAGO","coordinates":[9.41499996,41.23500061]},{"code":"IT-0003","program":"pota","name":"Parco Nazionale dell'Arcipelago di La Maddalena National Park","coordinates":[9.4122,41.2295]},{"code":"IS0/IS-160","program":"sota","name":"Punta Cugnana","coordinates":[9.4711,41.0177]},{"code":"IS0/IS-249","program":"sota","name":"Monte Canu","coordinates":[9.3478,41.1377]},{"code":"IS0/IS-255","program":"sota","name":"Punta Occhione","coordinates":[9.4183,41.0958]},{"code":"IS0/IS-300","program":"sota","name":"Teialone","coordinates":[9.4739,41.2138]},{"code":"IS0/IS-330","program":"sota","name":"Guardia Vecchia","coordinates":[9.3995,41.2239]},{"code":"IS0/IS-331","program":"sota","name":"Guardia Preposti","coordinates":[9.3475,41.2352]}]}