{"lat":41,"lon":9,"programs":["pota","sota"],"count":9,"references":[{"code":"IT-0022","program":"pota","name":"Monte Russu Natura 2000","coordinates":[9.12715,41.1465]},{"code":"IT-1823","program":"pota","name":"Capo Testa Natura 2000","coordinates":[9.14806,41.2406]},{"code":"IS0/IS-116","program":"sota","name":"Serra Di Lo Tassu","coordinates":[9.1239,41.0098]},{"code":"IS0/IS-125","program":"sota","name":"Punta Scarracciana","coordinates":[9.1467,41.0125]},{"code":"IS0/IS-167","program":"sota","name":"Monte Puntaccia","coordinates":[9.0702,41.0396]},{"code":"IS0/IS-175","program":"sota","name":"Monte Liccia Alta","coordinates":[9.1671,41.0117]},{"code":"IS0/IS-185","program":"sota","name":"Monte Padru","coordinates":[9.2133,41.0225]},{"code":"IS0/IS-191","program":"sota","name":"St.zo Casa Noa","coordinates":[9.08,41.0167]},{"code":"IS0/IS-201","program":"sota","name":"Monte Giuncana","coordinates":[9.0458,41.0467]}]}