{"lat":41,"lon":-3,"programs":["pota","sota"],"count":8,"references":[{"code":"ES-0884","program":"pota","name":"Valle y salinas del Salado Natura 2000","coordinates":[-2.7525,41.08]},{"code":"ES-0890","program":"pota","name":"Cerros volcanicos de Canamares Natura 2000","coordinates":[-2.9494,41.2061]},{"code":"ES-0891","program":"pota","name":"Valle del rio Canamares Natura 2000","coordinates":[-2.9428,41.0358]},{"code":"EA4/GU-012","program":"sota","name":"Bodera","coordinates":[-2.8804,41.1539]},{"code":"EA4/GU-038","program":"sota","name":"El Recuenco","coordinates":[-2.9595,41.1547]},{"code":"EA4/GU-041","program":"sota","name":"Otero","coordinates":[-2.9537,41.1101]},{"code":"EA4/GU-064","program":"sota","name":"Vertice Cabeza Gorda","coordinates":[-2.7509,41.1911]},{"code":"EA4/GU-065","program":"sota","name":"Alto de la Muela","coordinates":[-2.7625,41.1065]}]}