{"lat":41,"lon":-8.5,"programs":["pota","sota"],"count":8,"references":[{"code":"PT-0127","program":"pota","name":"Valongo Natura 2000","coordinates":[-8.46917,41.1467]},{"code":"CT/DL-003","program":"sota","name":"Serra de Santa Justa","coordinates":[-8.4935,41.1716]},{"code":"CT/DL-011","program":"sota","name":"Serra da Boneca","coordinates":[-8.3461,41.0636]},{"code":"CT/DL-012","program":"sota","name":"Vandoma","coordinates":[-8.3906,41.2001]},{"code":"CT/DL-014","program":"sota","name":"Serra de Pias","coordinates":[-8.4679,41.145]},{"code":"CT/DL-018","program":"sota","name":"Serra de Santa Iria","coordinates":[-8.4108,41.0963]},{"code":"CT/DL-019","program":"sota","name":"Serra das Flores","coordinates":[-8.4422,41.0911]},{"code":"CT/DL-020","program":"sota","name":"Cornadinho","coordinates":[-8.4846,41.241]}]}