{"lat":41,"lon":-7,"programs":["gma","pota","sota"],"count":8,"references":[{"code":"XCT/TM-010","program":"gma","name":"Serra do Reboredo","coordinates":[-6.95200014,41.18030167]},{"code":"PT-0009","program":"pota","name":"Douro Internacional Natura 2000","coordinates":[-6.77333,41.0903]},{"code":"PT-0101","program":"pota","name":"Vale do agueda Natura 2000","coordinates":[-6.76694,41.0956]},{"code":"CT/TM-028","program":"sota","name":"Mua","coordinates":[-6.9557,41.1949]},{"code":"CT/TM-030","program":"sota","name":"Cabeço do Outeiro","coordinates":[-6.759,41.2108]},{"code":"CT/TM-040","program":"sota","name":"Cumeada","coordinates":[-6.9999,41.0582]},{"code":"CT/TM-041","program":"sota","name":"Penedo Durão","coordinates":[-6.8192,41.0568]},{"code":"CT/TM-042","program":"sota","name":"Centieiro","coordinates":[-6.9377,41.1025]}]}