{"lat":41,"lon":-1.5,"programs":["pota","sota"],"count":6,"references":[{"code":"ES-0744","program":"pota","name":"Montes de La Cuenca de Gallocanta Natura 2000","coordinates":[-1.4834,41.0079]},{"code":"ES-1773","program":"pota","name":"Camino Natural del Santander-Mediterráneo National Recreation Trail","coordinates":[-1.39242,41.077]},{"code":"ES-1803","program":"pota","name":"Camino del Cid National Recreation Trail","coordinates":[-1.34334,41.0198]},{"code":"ES-1984","program":"pota","name":"Camino de la Vera Cruz National Historic Trail","coordinates":[-1.34538,41.017]},{"code":"ES-2081","program":"pota","name":"Vía Pecuaria Pirineo Occidental-Valle Ebro-Sistema Iberico Occidental National Historic Trail","coordinates":[-1.34185,41.0188]},{"code":"EA2/ZG-022","program":"sota","name":"La Monja","coordinates":[-1.48077,41.0182]}]}