{"lat":41,"lon":22.25,"programs":["pota","sota"],"count":5,"references":[{"code":"GR-0273","program":"pota","name":"Gripas (Fanou) Wildlife Refuge","coordinates":[22.4041,41.0512]},{"code":"MK-0041","program":"pota","name":"Div prnar, Gevgelija Protected Area","coordinates":[22.4951,41.1605]},{"code":"MK-0069","program":"pota","name":"Gol chovek, Gevgelija National Park","coordinates":[22.3838,41.1669]},{"code":"MK-0079","program":"pota","name":"Blato Negorski Banji Protected Area","coordinates":[22.4822,41.1729]},{"code":"Z3/WM-030","program":"sota","name":"Dve Ushi","coordinates":[22.282,41.223]}]}