{"lat":41,"lon":14.5,"programs":["gma","pota","sota"],"count":9,"references":[{"code":"IT/CA-1006","program":"gma","name":"Monte Pizzone","coordinates":[14.60999966,41.02280045]},{"code":"IT-1063","program":"pota","name":"Massiccio del Taburno Natura 2000","coordinates":[14.5806,41.1114]},{"code":"IT-1145","program":"pota","name":"Camposauro Natura 2000","coordinates":[14.5911,41.1742]},{"code":"I/CA-078","program":"sota","name":"Monte Pentime","coordinates":[14.647,41.1859]},{"code":"I/CA-118","program":"sota","name":"Monte Teano","coordinates":[14.6814,41.0036]},{"code":"I/CA-137","program":"sota","name":"Monte San Michele","coordinates":[14.6719,41.1716]},{"code":"I/CA-150","program":"sota","name":"Monte Saucolo","coordinates":[14.5184,41.0579]},{"code":"I/CA-307","program":"sota","name":"Monte Taburno","coordinates":[14.6033,41.0928]},{"code":"I/CA-308","program":"sota","name":"Camposauro","coordinates":[14.5972,41.1667]}]}