{"lat":41,"lon":0.75,"programs":["pota","sota"],"count":15,"references":[{"code":"ES-0406","program":"pota","name":"Tivissa-Vandellòs-Llaberia Natura 2000","coordinates":[0.8058,41.0367]},{"code":"ES-0410","program":"pota","name":"Riu Siurana i planes del Priorat Natura 2000","coordinates":[0.8064,41.1825]},{"code":"EA3/TA-007","program":"sota","name":"Miranda de Llaberia","coordinates":[0.8636,41.0919]},{"code":"EA3/TA-011","program":"sota","name":"Cabrafiga","coordinates":[0.895,41.0534]},{"code":"EA3/TA-027","program":"sota","name":"Mola de Colldejou","coordinates":[0.8738,41.1075]},{"code":"EA3/TA-028","program":"sota","name":"Lo Molló","coordinates":[0.9211,41.2131]},{"code":"EA3/TA-037","program":"sota","name":"Serra de Pradell","coordinates":[0.9061,41.1651]},{"code":"EA3/TA-038","program":"sota","name":"Puig de n'Eres","coordinates":[0.9516,41.2002]},{"code":"EA3/TA-039","program":"sota","name":"Punta de Jovara","coordinates":[0.7807,41.0288]},{"code":"EA3/TA-040","program":"sota","name":"La Punta del Guixar","coordinates":[0.8032,41.0684]},{"code":"EA3/TA-042","program":"sota","name":"los Tossals","coordinates":[0.8562,41.2127]},{"code":"EA3/TA-047","program":"sota","name":"Santa Bàrbara","coordinates":[0.9149,41.127]},{"code":"EA3/TA-048","program":"sota","name":"Cresta del Coix","coordinates":[0.9503,41.1618]},{"code":"EA3/TA-052","program":"sota","name":"Mola de la Viuda","coordinates":[0.837,41.0377]},{"code":"EA3/TA-056","program":"sota","name":"Puig del Marqués","coordinates":[0.8759,41.0364]}]}