{"lat":41,"lon":-124.25,"programs":["pota","sota"],"count":6,"references":[{"code":"US-1162","program":"pota","name":"Humboldt Lagoons State Park","coordinates":[-124.108,41.2224]},{"code":"US-1182","program":"pota","name":"Sue-Meg State Park","coordinates":[-124.155,41.1365]},{"code":"US-3582","program":"pota","name":"Trinidad State Beach","coordinates":[-124.15,41.0589]},{"code":"US-6449","program":"pota","name":"Little River State Beach","coordinates":[-124.108,41.0153]},{"code":"W6/CC-058","program":"sota","name":"Rodgers Peak","coordinates":[-124.0287,41.1615]},{"code":"W6/NC-375","program":"sota","name":"Maple Benchmark","coordinates":[-124.0943,41.0898]}]}