{"lat":41,"lon":-7.25,"programs":["sota"],"count":5,"references":[{"code":"CT/BA-024","program":"sota","name":"São Gabriel","coordinates":[-7.0893,41.0363]},{"code":"CT/BA-025","program":"sota","name":"Calábria","coordinates":[-7.0158,41.0301]},{"code":"CT/BA-026","program":"sota","name":"Castelo Velho","coordinates":[-7.1402,41.1506]},{"code":"CT/TM-033","program":"sota","name":"Carpinteiro","coordinates":[-7.1936,41.1867]},{"code":"CT/TM-053","program":"sota","name":"Reboredo","coordinates":[-7.0181,41.1667]}]}