{"lat":41.25,"lon":-79.25,"programs":["pota"],"count":7,"references":[{"code":"US-0619","program":"pota","name":"Allegheny National Forest","coordinates":[-79.1022,41.4864]},{"code":"US-1341","program":"pota","name":"Clear Creek State Park","coordinates":[-79.0769,41.3229]},{"code":"US-1345","program":"pota","name":"Cook Forest State Park","coordinates":[-79.2211,41.3527]},{"code":"US-5464","program":"pota","name":"Clear Creek State Forest","coordinates":[-79.0811,41.3138]},{"code":"US-8725","program":"pota","name":"PA 024 State Game Land","coordinates":[-79.1988,41.4343]},{"code":"US-8977","program":"pota","name":"PA 283 State Game Land","coordinates":[-79.1991,41.3027]},{"code":"US-12235","program":"pota","name":"Clarion National Wild and Scenic River","coordinates":[-79.1042,41.3331]}]}