{"lat":41.25,"lon":140.75,"programs":["sota"],"count":6,"references":[{"code":"JA/AM-031","program":"sota","name":"Daisakuyama","coordinates":[140.86,41.3245]},{"code":"JA/AM-051","program":"sota","name":"Metakiyama","coordinates":[140.9752,41.4391]},{"code":"JA/AM-060","program":"sota","name":"Ohoudake","coordinates":[140.9574,41.2629]},{"code":"JA/AM-063","program":"sota","name":"JA/AM-063","coordinates":[140.8222,41.3132]},{"code":"JA/AM-065","program":"sota","name":"Mukounoyama","coordinates":[140.9604,41.281]},{"code":"JA/AM-082","program":"sota","name":"Maruyama","coordinates":[140.8281,41.2992]}]}