{"lat":41.25,"lon":22.75,"programs":["gma","pota","sota","wwbota"],"count":15,"references":[{"code":"LZM/BL-004","program":"gma","name":"Tumba","coordinates":[22.927512,41.338585]},{"code":"LZM/OG-002","program":"gma","name":"Muratov vrah","coordinates":[22.976714,41.477591]},{"code":"LZM/OG-013","program":"gma","name":"Atanasova tumba","coordinates":[22.976205,41.453677]},{"code":"LZM/OG-015","program":"gma","name":"Chukata","coordinates":[22.995307,41.448344]},{"code":"MK-0017","program":"pota","name":"Koleshinski waterfall Protected Area","coordinates":[22.8054,41.3671]},{"code":"MK-0018","program":"pota","name":"Smolarski waterfall Protected Area","coordinates":[22.8976,41.365]},{"code":"MK-0045","program":"pota","name":"Sostoina od platan, Mokrino Protected Area","coordinates":[22.8692,41.3788]},{"code":"MK-0046","program":"pota","name":"Platan, Koleshino Protected Area","coordinates":[22.812,41.3828]},{"code":"MK-0080","program":"pota","name":"Belasica Mountain Protected Area","coordinates":[22.9249,41.3413]},{"code":"MK-0020","program":"pota","name":"Monospitovo swamp Protected Area","coordinates":[22.7802,41.3844]},{"code":"LZ/OB-018","program":"sota","name":"1914","coordinates":[22.9916,41.3336]},{"code":"Z3/EM-003","program":"sota","name":"Samar","coordinates":[22.916,41.341]},{"code":"Z3/EM-016","program":"sota","name":"Semer Kajas","coordinates":[22.879,41.3408]},{"code":"Z3/EM-029","program":"sota","name":"Adjiica","coordinates":[22.9596,41.4923]},{"code":"B/Z3-0041","program":"wwbota","name":"Bunkers Belasica front","coordinates":[22.8652,41.3518]}]}