{"lat":41.25,"lon":25.25,"programs":["gma","sota"],"count":15,"references":[{"code":"LZM/ER-008","program":"gma","name":"Egreka","coordinates":[25.379679,41.25699]},{"code":"LZM/ER-010","program":"gma","name":"Varha","coordinates":[25.472647,41.28771]},{"code":"LZM/ER-013","program":"gma","name":"Smaila","coordinates":[25.424117,41.280477]},{"code":"LZM/ER-028","program":"gma","name":"Tikla","coordinates":[25.410948,41.290569]},{"code":"LZM/ER-032","program":"gma","name":"Butrovoto","coordinates":[25.353956,41.269832]},{"code":"LZM/ER-033","program":"gma","name":"Balabantepe","coordinates":[25.486516,41.334362]},{"code":"LZM/ER-040","program":"gma","name":"Golaka","coordinates":[25.381057,41.292826]},{"code":"LZM/ER-045","program":"gma","name":"Gargatepe","coordinates":[25.439395,41.394824]},{"code":"LZM/ER-056","program":"gma","name":"Asara","coordinates":[25.422691,41.390505]},{"code":"LZM/ER-057","program":"gma","name":"Enchova chuka","coordinates":[25.31323,41.291004]},{"code":"LZ/RO-132","program":"sota","name":"Stramni rid","coordinates":[25.482,41.4435]},{"code":"LZ/RO-133","program":"sota","name":"Golyamata chuka","coordinates":[25.2514,41.2969]},{"code":"LZ/RO-145","program":"sota","name":"Asar","coordinates":[25.4534,41.402]},{"code":"LZ/RO-155","program":"sota","name":"Zli vrah","coordinates":[25.2835,41.4276]},{"code":"LZ/RO-188","program":"sota","name":"Kalabak","coordinates":[25.4579,41.2811]}]}