{"lat":41.25,"lon":-8.5,"programs":["gma","sota"],"count":10,"references":[{"code":"XCT/DL-009","program":"gma","name":"Monte de Lousada","coordinates":[-8.29679966,41.30989838]},{"code":"CT/DL-002","program":"sota","name":"Citânia de Sanfins","coordinates":[-8.3861,41.3236]},{"code":"CT/DL-016","program":"sota","name":"Outeiro Alto","coordinates":[-8.4884,41.2926]},{"code":"CT/DL-017","program":"sota","name":"Monte Telégrafo","coordinates":[-8.2738,41.31]},{"code":"CT/MN-033","program":"sota","name":"Monte da Penha","coordinates":[-8.2687,41.4295]},{"code":"CT/MN-039","program":"sota","name":"Outinho","coordinates":[-8.3811,41.4976]},{"code":"CT/MN-042","program":"sota","name":"Penedo das Letras","coordinates":[-8.4577,41.4671]},{"code":"CT/MN-047","program":"sota","name":"Senhora dos Montes","coordinates":[-8.3435,41.4047]},{"code":"CT/MN-049","program":"sota","name":"Castro","coordinates":[-8.4037,41.4183]},{"code":"CT/MN-060","program":"sota","name":"Penedice","coordinates":[-8.4124,41.4766]}]}