{"lat":41.25,"lon":25.75,"programs":["gma","sota"],"count":12,"references":[{"code":"LZM/ER-005","program":"gma","name":"Kodzha ele","coordinates":[25.877931,41.308372]},{"code":"LZM/ER-006","program":"gma","name":"Kartal bunartepe","coordinates":[25.879347,41.338312]},{"code":"LZM/ER-012","program":"gma","name":"Pozharite","coordinates":[25.862782,41.359763]},{"code":"LZM/ER-019","program":"gma","name":"Kurtgedik","coordinates":[25.89735,41.35536]},{"code":"LZM/ER-026","program":"gma","name":"Kerezlik","coordinates":[25.931978,41.337036]},{"code":"LZM/ER-030","program":"gma","name":"Yaransart","coordinates":[25.775937,41.353051]},{"code":"LZM/ER-062","program":"gma","name":"Sultantepe","coordinates":[25.83214,41.421462]},{"code":"LZM/ER-065","program":"gma","name":"Kurbanlaka","coordinates":[25.994098,41.36835]},{"code":"LZM/ER-067","program":"gma","name":"Chaldyuzi","coordinates":[25.90235,41.406113]},{"code":"LZ/RO-135","program":"sota","name":"Klisesart","coordinates":[25.8262,41.3832]},{"code":"LZ/RO-162","program":"sota","name":"Adatepe","coordinates":[25.9764,41.3509]},{"code":"LZ/RO-185","program":"sota","name":"Kodzhaele","coordinates":[25.878,41.3084]}]}