{"lat":41.25,"lon":-73.25,"programs":["pota"],"count":5,"references":[{"code":"US-1684","program":"pota","name":"Indian Well State Park","coordinates":[-73.124,41.3416]},{"code":"US-1687","program":"pota","name":"Kettletown State Park","coordinates":[-73.2015,41.4302]},{"code":"US-1705","program":"pota","name":"Osborndale State Park","coordinates":[-73.1025,41.3404]},{"code":"US-1718","program":"pota","name":"Southford Falls State Park","coordinates":[-73.1647,41.4589]},{"code":"US-10952","program":"pota","name":"Paugussett State Forest State Forest","coordinates":[-73.1876,41.4024]}]}