{"lat":41.25,"lon":24.75,"programs":["gma","sota"],"count":67,"references":[{"code":"LZM/SR-066","program":"gma","name":"Malkoto chengene","coordinates":[24.79176,41.355216]},{"code":"LZM/SR-083","program":"gma","name":"Kisyovoto","coordinates":[24.755376,41.378192]},{"code":"LZM/SR-095","program":"gma","name":"Bukova chuka","coordinates":[24.785974,41.368977]},{"code":"LZM/SR-114","program":"gma","name":"Kulata","coordinates":[24.804136,41.345871]},{"code":"LZM/SR-133","program":"gma","name":"Sadilisteto","coordinates":[24.813652,41.350245]},{"code":"LZM/SR-156","program":"gma","name":"Kasha","coordinates":[24.75551,41.395365]},{"code":"LZM/SR-203","program":"gma","name":"Shipka","coordinates":[24.795762,41.380727]},{"code":"LZM/SR-269","program":"gma","name":"Spasov bair","coordinates":[24.835346,41.409758]},{"code":"LZM/SR-326","program":"gma","name":"Margazyan","coordinates":[24.916839,41.408532]},{"code":"LZM/SR-331","program":"gma","name":"Valchi kamak","coordinates":[24.898815,41.437681]},{"code":"LZM/SR-341","program":"gma","name":"Chukata","coordinates":[24.773942,41.410442]},{"code":"LZM/SR-347","program":"gma","name":"Paprativitsa","coordinates":[24.794984,41.396335]},{"code":"LZM/SR-349","program":"gma","name":"Petrovitsa","coordinates":[24.956949,41.437895]},{"code":"LZM/SR-354","program":"gma","name":"Kedika","coordinates":[24.754772,41.450401]},{"code":"LZM/SR-359","program":"gma","name":"Beloto kamene","coordinates":[24.772794,41.457473]},{"code":"LZM/SR-375","program":"gma","name":"Tsvetkovo","coordinates":[24.903857,41.408105]},{"code":"LZM/SR-388","program":"gma","name":"Kozeska mogila","coordinates":[24.881566,41.446039]},{"code":"LZM/SR-389","program":"gma","name":"Chuchkata","coordinates":[24.765367,41.404368]},{"code":"LZM/SR-398","program":"gma","name":"Golyamata chuka","coordinates":[24.910941,41.446123]},{"code":"LZM/SR-402","program":"gma","name":"Malenovo","coordinates":[24.790228,41.427046]},{"code":"LZM/SR-406","program":"gma","name":"Baira","coordinates":[24.753592,41.463995]},{"code":"LZM/SR-426","program":"gma","name":"Kartala","coordinates":[24.941218,41.386431]},{"code":"LZM/SR-428","program":"gma","name":"Zhaliva chuka","coordinates":[24.760217,41.493602]},{"code":"LZM/SR-435","program":"gma","name":"Gushova chuka","coordinates":[24.823871,41.414976]},{"code":"LZM/SR-436","program":"gma","name":"Kechi kaya","coordinates":[24.878358,41.477565]},{"code":"LZM/SR-444","program":"gma","name":"Kuriyata","coordinates":[24.82231,41.439341]},{"code":"LZM/SR-450","program":"gma","name":"Ostrata chuka","coordinates":[24.906658,41.459897]},{"code":"LZM/SR-455","program":"gma","name":"Amburska chuka","coordinates":[24.96428,41.383049]},{"code":"LZM/SR-474","program":"gma","name":"Golyamoto bardtse","coordinates":[24.772606,41.464261]},{"code":"LZM/SR-491","program":"gma","name":"Sveta Bogoroditsa","coordinates":[24.79861,41.480152]},{"code":"LZM/SR-495","program":"gma","name":"Koskata mogila(starata bacha)","coordinates":[24.870469,41.454158]},{"code":"LZM/SR-500","program":"gma","name":"Derivaciyata","coordinates":[24.877379,41.414547]},{"code":"LZM/SR-505","program":"gma","name":"Sveti kil","coordinates":[24.82683,41.427315]},{"code":"LZM/SR-506","program":"gma","name":"Belevitsa","coordinates":[24.930988,41.412614]},{"code":"LZM/SR-509","program":"gma","name":"Karelska chuka","coordinates":[24.98673,41.405276]},{"code":"LZM/SR-515","program":"gma","name":"Ostrata chuka","coordinates":[24.758484,41.417233]},{"code":"LZM/SR-522","program":"gma","name":"Sveti Todor","coordinates":[24.796553,41.468699]},{"code":"LZM/SR-531","program":"gma","name":"Halilova chuka","coordinates":[24.780272,41.469826]},{"code":"LZM/SR-535","program":"gma","name":"Ostra chuka","coordinates":[24.807901,41.404473]},{"code":"LZM/SR-539","program":"gma","name":"Imaneto","coordinates":[24.85742,41.417162]},{"code":"LZM/SR-543","program":"gma","name":"Duranova chuka","coordinates":[24.840866,41.423427]},{"code":"LZM/SR-555","program":"gma","name":"Yanova chuka","coordinates":[24.861167,41.428107]},{"code":"LZM/SR-566","program":"gma","name":"Glavna chuka","coordinates":[24.9892,41.377033]},{"code":"LZM/SR-568","program":"gma","name":"Indele","coordinates":[24.977868,41.375606]},{"code":"LZM/SR-580","program":"gma","name":"Selisteto(Magareshkoto)","coordinates":[24.784861,41.490475]},{"code":"LZM/SR-581","program":"gma","name":"Cherkvata","coordinates":[24.897034,41.427647]},{"code":"LZM/SR-588","program":"gma","name":"Lyulkata","coordinates":[24.84762,41.445426]},{"code":"LZM/SR-597","program":"gma","name":"Cherkva","coordinates":[24.793798,41.417078]},{"code":"LZM/SR-605","program":"gma","name":"Gorno Mahalchevo","coordinates":[24.921362,41.452058]},{"code":"LZM/SR-609","program":"gma","name":"Mogilata","coordinates":[24.787782,41.449797]},{"code":"LZM/SR-625","program":"gma","name":"Gyurkova mogila","coordinates":[24.824223,41.497261]},{"code":"LZM/SR-630","program":"gma","name":"Dobreva chuka","coordinates":[24.860357,41.45079]},{"code":"LZM/SR-631","program":"gma","name":"Elezyova chuka","coordinates":[24.791596,41.459093]},{"code":"LZM/SR-632","program":"gma","name":"Sreden vrah","coordinates":[24.911239,41.49561]},{"code":"LZM/SR-633","program":"gma","name":"Durutovo","coordinates":[24.866543,41.472668]},{"code":"LZM/SR-634","program":"gma","name":"Dyadovata mogila","coordinates":[24.809991,41.486346]},{"code":"LZM/SR-646","program":"gma","name":"Kulata","coordinates":[24.863431,41.480932]},{"code":"LZM/SR-659","program":"gma","name":"Golata chuka","coordinates":[24.867382,41.491246]},{"code":"LZM/SR-682","program":"gma","name":"Madankovoto","coordinates":[24.944458,41.487435]},{"code":"XLZ/RO-077","program":"gma","name":"Babina chuka","coordinates":[24.8175,41.4046]},{"code":"LZ/RO-028","program":"sota","name":"Tsigansko gradishte (Chengenehisar)","coordinates":[24.7848,41.36]},{"code":"LZ/RO-073","program":"sota","name":"Dobri vrah","coordinates":[24.8883,41.3998]},{"code":"LZ/RO-078","program":"sota","name":"Buchovitsa","coordinates":[24.9396,41.433]},{"code":"LZ/RO-104","program":"sota","name":"Ilinden","coordinates":[24.8923,41.4857]},{"code":"LZ/RO-105","program":"sota","name":"Karabugar","coordinates":[24.9967,41.4894]},{"code":"LZ/RO-109","program":"sota","name":"Pobit kamak","coordinates":[24.8348,41.4594]},{"code":"LZ/RO-184","program":"sota","name":"Margazyan","coordinates":[24.917,41.4085]}]}