{"lat":41.25,"lon":21.5,"programs":["pota","sota","wwbota"],"count":17,"references":[{"code":"MK-0021","program":"pota","name":"Markovi kuli Natural Monument","coordinates":[21.538,41.3616]},{"code":"MK-0098","program":"pota","name":"Mogila na nepobedenite, Prilep National Memorial","coordinates":[21.5544,41.3347]},{"code":"Z3/WM-031","program":"sota","name":"Duova Voda","coordinates":[21.69,41.394]},{"code":"Z3/WM-055","program":"sota","name":"Lipa","coordinates":[21.558,41.4096]},{"code":"Z3/WM-114","program":"sota","name":"Studenica","coordinates":[21.6499,41.3285]},{"code":"Z3/WM-128","program":"sota","name":"Viorino","coordinates":[21.6718,41.4308]},{"code":"Z3/WM-129","program":"sota","name":"Markovi Kuli","coordinates":[21.7288,41.3243]},{"code":"Z3/WM-131","program":"sota","name":"Luta","coordinates":[21.5393,41.4852]},{"code":"Z3/WM-135","program":"sota","name":"Kjaveno","coordinates":[21.6072,41.452]},{"code":"Z3/WM-137","program":"sota","name":"Borula","coordinates":[21.6355,41.4245]},{"code":"Z3/WM-146","program":"sota","name":"Jalovarski Steni","coordinates":[21.7132,41.3077]},{"code":"Z3/WM-151","program":"sota","name":"Krnorot","coordinates":[21.6719,41.459]},{"code":"Z3/WM-158","program":"sota","name":"Crvenica","coordinates":[21.5895,41.4225]},{"code":"Z3/WM-173","program":"sota","name":"Jasenova Glava","coordinates":[21.7328,41.4855]},{"code":"Z3/WM-182","program":"sota","name":"Negrea","coordinates":[21.5019,41.4129]},{"code":"B/Z3-0005","program":"wwbota","name":"Civil shelter Rid Prilep","coordinates":[21.5675,41.3384]},{"code":"B/Z3-0022","program":"wwbota","name":"Bunker Dunje Mariovo","coordinates":[21.6924,41.2512]}]}