{"lat":41.25,"lon":14,"programs":["gma","pota","sota"],"count":18,"references":[{"code":"XI/MO-023","program":"gma","name":"Monte Alto","coordinates":[14.2414,41.497]},{"code":"IT-0928","program":"pota","name":"Monte Corno - Monte Sammucro Natura 2000","coordinates":[14.0136,41.4847]},{"code":"I/CA-067","program":"sota","name":"Monte Favaracchi","coordinates":[14.2272,41.4495]},{"code":"I/CA-097","program":"sota","name":"Monte Caselle Ianniti","coordinates":[14.1835,41.474]},{"code":"I/CA-099","program":"sota","name":"Monte Cinnamiello","coordinates":[14.2046,41.4727]},{"code":"I/CA-126","program":"sota","name":"Colle Traverso","coordinates":[14.0616,41.3949]},{"code":"I/CA-139","program":"sota","name":"Colle la Croce","coordinates":[14.1447,41.4394]},{"code":"I/CA-173","program":"sota","name":"Monte Caievola","coordinates":[14.1464,41.3242]},{"code":"I/CA-180","program":"sota","name":"Monte San Nicola","coordinates":[14.1816,41.3469]},{"code":"I/CA-191","program":"sota","name":"Monte della Costa","coordinates":[14.2395,41.2866]},{"code":"I/CA-194","program":"sota","name":"Monte Sant Angelo","coordinates":[14.1256,41.3257]},{"code":"I/CA-199","program":"sota","name":"Santa Maria degli Angeli","coordinates":[14.2202,41.3092]},{"code":"I/CA-208","program":"sota","name":"Il Monticello","coordinates":[14.1592,41.2735]},{"code":"I/CA-220","program":"sota","name":"Monte Alto","coordinates":[14.2414,41.497]},{"code":"I/MO-025","program":"sota","name":"Monte Cèsima","coordinates":[14.0294,41.4086]},{"code":"I/MO-029","program":"sota","name":"Monte Corno","coordinates":[14.012,41.4854]},{"code":"I/MO-032","program":"sota","name":"Monte San Croce","coordinates":[14.0294,41.4961]},{"code":"I/MO-048","program":"sota","name":"Monte Calvello","coordinates":[14.0556,41.4132]}]}