{"lat":41.25,"lon":20.5,"programs":["pota","sota"],"count":11,"references":[{"code":"MK-0057","program":"pota","name":"Mlechnik cave Protected Area","coordinates":[20.6477,41.2776]},{"code":"MK-0058","program":"pota","name":"Drenachka river Protected Area","coordinates":[20.5768,41.3951]},{"code":"Z3/WM-018","program":"sota","name":"Bijak Dorok","coordinates":[20.646,41.4546]},{"code":"Z3/WM-020","program":"sota","name":"Babin Srt","coordinates":[20.6816,41.4305]},{"code":"Z3/WM-021","program":"sota","name":"Strizhek","coordinates":[20.5294,41.2844]},{"code":"Z3/WM-028","program":"sota","name":"Orlov Vrv","coordinates":[20.732,41.337]},{"code":"Z3/WM-036","program":"sota","name":"Lokovski Rid","coordinates":[20.62,41.375]},{"code":"Z3/WM-042","program":"sota","name":"Udha Male","coordinates":[20.65,41.285]},{"code":"Z3/WM-076","program":"sota","name":"Stogovo","coordinates":[20.6201,41.493]},{"code":"Z3/WM-091","program":"sota","name":"Radukj","coordinates":[20.5266,41.3439]},{"code":"Z3/WM-197","program":"sota","name":"Strmnica, Lukovski Kamen","coordinates":[20.5546,41.343]}]}