{"lat":41.25,"lon":15,"programs":["gma","pota","sota"],"count":8,"references":[{"code":"IT/PU-1000","program":"gma","name":"Cornacchia","coordinates":[15.14690018,41.33919907]},{"code":"IT/PU-1001","program":"gma","name":"S. Vito","coordinates":[15.17720032,41.31890106]},{"code":"IT/PU-1006","program":"gma","name":"Pagliarone","coordinates":[15.11530018,41.40330124]},{"code":"IT-1162","program":"pota","name":"Bosco di Castelfranco in Miscano Natura 2000","coordinates":[15.1067,41.3144]},{"code":"IT-1644","program":"pota","name":"Monte Cornacchia - Bosco Faeto Natura 2000","coordinates":[15.1572,41.3658]},{"code":"I/PU-001","program":"sota","name":"Monte Cornacchia","coordinates":[15.1564,41.3622]},{"code":"I/PU-004","program":"sota","name":"Difesa","coordinates":[15.1461,41.3229]},{"code":"I/PU-006","program":"sota","name":"Monte San Vito","coordinates":[15.1728,41.3065]}]}