{"lat":41.25,"lon":-119.25,"programs":["pota","sota"],"count":10,"references":[{"code":"US-9246","program":"pota","name":"East Fork High Rock Canyon Wilderness Area","coordinates":[-119.193,41.4201]},{"code":"US-9255","program":"pota","name":"High Rock Lake Wilderness Area","coordinates":[-119.242,41.2998]},{"code":"US-9272","program":"pota","name":"North Black Rock Range Wilderness Area","coordinates":[-119.065,41.4306]},{"code":"US-9275","program":"pota","name":"Pahute Peak BLM Wilderness Area","coordinates":[-119.058,41.284]},{"code":"W7N/HU-019","program":"sota","name":"Big Mountain","coordinates":[-119.0599,41.2799]},{"code":"W7N/HU-045","program":"sota","name":"7819","coordinates":[-119.1016,41.3309]},{"code":"W7N/HU-050","program":"sota","name":"7717","coordinates":[-119.0212,41.4238]},{"code":"W7N/HU-055","program":"sota","name":"7590","coordinates":[-119.1064,41.3482]},{"code":"W7N/HU-087","program":"sota","name":"6787","coordinates":[-119.25,41.4269]},{"code":"W7N/HU-088","program":"sota","name":"6780","coordinates":[-119.0173,41.3317]}]}