{"lat":41.25,"lon":-71.5,"programs":["pota","wwbota"],"count":10,"references":[{"code":"US-0514","program":"pota","name":"John H. Chafee National Wildlife Refuge","coordinates":[-71.4707,41.443]},{"code":"US-2868","program":"pota","name":"Beavertail State Park","coordinates":[-71.3993,41.446]},{"code":"US-2870","program":"pota","name":"Brenton Point State Park","coordinates":[-71.3542,41.452]},{"code":"US-2873","program":"pota","name":"Fishermen's Memorial State Park","coordinates":[-71.4897,41.3805]},{"code":"US-2874","program":"pota","name":"Fort Adams State Park","coordinates":[-71.3355,41.4778]},{"code":"US-2875","program":"pota","name":"Fort Wetherill State Park","coordinates":[-71.3585,41.4778]},{"code":"US-7722","program":"pota","name":"Scarborough North State Beach","coordinates":[-71.4731,41.3897]},{"code":"US-10542","program":"pota","name":"Camp Cronin State Recreation Area","coordinates":[-71.4873,41.3625]},{"code":"B/US-0099","program":"wwbota","name":"Fort Adams Battery Bunker (RI)","coordinates":[-71.33807,41.47866]},{"code":"B/US-0101","program":"wwbota","name":"Fort Wetherill Battery Varnum (RI)","coordinates":[-71.35846,41.47778]}]}