{"lat":41.25,"lon":13.75,"programs":["gma","pota","sota"],"count":20,"references":[{"code":"IT/AB-1005","program":"gma","name":"Monte Vallenova","coordinates":[13.93529987,41.40169907]},{"code":"XI/MO-024","program":"gma","name":"Monte Sammucro","coordinates":[13.9786,41.4639]},{"code":"IT-0634","program":"pota","name":"Vulcano di Roccamonfina Natura 2000","coordinates":[13.9564,41.2931]},{"code":"IT-1898","program":"pota","name":"Monti di Mignano Montelungo Natura 2000","coordinates":[13.9344,41.3864]},{"code":"IT-1899","program":"pota","name":"Fiume Garigliano Natura 2000","coordinates":[13.8292,41.2806]},{"code":"IT-0183","program":"pota","name":"Monte Sammucro - Terra di Confine Natural Monument","coordinates":[13.9563,41.4687]},{"code":"IT-1481","program":"pota","name":"Laghetto - Parco dei Mulini Natural Monument","coordinates":[13.7638,41.408]},{"code":"I/CA-106","program":"sota","name":"Monte Santa Croce","coordinates":[13.9709,41.2966]},{"code":"I/CA-111","program":"sota","name":"Monte Camino","coordinates":[13.9468,41.3766]},{"code":"I/CA-112","program":"sota","name":"Monte la Defensa","coordinates":[13.9508,41.3906]},{"code":"I/CA-121","program":"sota","name":"Monte la Frascara","coordinates":[13.945,41.3039]},{"code":"I/CA-205","program":"sota","name":"Monte Rotondo","coordinates":[13.978,41.4277]},{"code":"I/CA-206","program":"sota","name":"Monte Lungo","coordinates":[13.9402,41.4343]},{"code":"I/LZ-105","program":"sota","name":"Monte Maio","coordinates":[13.8058,41.3497]},{"code":"I/LZ-175","program":"sota","name":"Colle Arso","coordinates":[13.8116,41.3777]},{"code":"I/LZ-181","program":"sota","name":"Monte Trocchio","coordinates":[13.8659,41.4654]},{"code":"I/LZ-186","program":"sota","name":"Monte Cianelli","coordinates":[13.8079,41.2957]},{"code":"I/LZ-193","program":"sota","name":"Monte Porchio","coordinates":[13.8981,41.4451]},{"code":"I/LZ-195","program":"sota","name":"Monte Bracchi","coordinates":[13.7542,41.2997]},{"code":"I/LZ-201","program":"sota","name":"Monte Sammucro","coordinates":[13.9786,41.4639]}]}