{"lat":41.25,"lon":2,"programs":["pota","sota","wwbota"],"count":13,"references":[{"code":"ES-0135","program":"pota","name":"Collserola Nature Park","coordinates":[2.0738,41.4139]},{"code":"ES-0308","program":"pota","name":"Serra de Collserola Natura 2000","coordinates":[2.0476,41.4141]},{"code":"ES-0319","program":"pota","name":"Serralada de Marina Natura 2000","coordinates":[2.22724,41.4823]},{"code":"ES-0322","program":"pota","name":"Agrari del Baix Llobregat Nature Park","coordinates":[2.0787,41.3421]},{"code":"ES-1821","program":"pota","name":"Camino Natural de l’Anell Verd National Recreation Trail","coordinates":[2.03551,41.3579]},{"code":"ES-2158","program":"pota","name":"Works of Antoni Gaudí World Heritage Site","coordinates":[2.16483,41.3923]},{"code":"ES-2165","program":"pota","name":"Palau de la Música Catalana and Hospital de Sant Pau World Heritage Site","coordinates":[2.17431,41.4146]},{"code":"EA3/BC-079","program":"sota","name":"El Tibidabo","coordinates":[2.1191,41.4222]},{"code":"EA3/BC-080","program":"sota","name":"Turó de Can Pascual","coordinates":[2.0824,41.4153]},{"code":"EA3/BC-081","program":"sota","name":"La Coscollada","coordinates":[2.23,41.4925]},{"code":"EA3/BC-085","program":"sota","name":"Turó de Montcada","coordinates":[2.1766,41.4772]},{"code":"EA3/BC-086","program":"sota","name":"Castell de Montjuïc","coordinates":[2.1653,41.3626]},{"code":"B/EA-0142","program":"wwbota","name":"Bunkers del Carmel","coordinates":[2.161642,41.419284]}]}