{"lat":41.25,"lon":-121,"programs":["pota","sota"],"count":6,"references":[{"code":"US-4461","program":"pota","name":"Modoc National Forest","coordinates":[-120.98,41.4996]},{"code":"W6/NE-076","program":"sota","name":"Manzanita Mountain","coordinates":[-120.8004,41.2774]},{"code":"W6/NE-088","program":"sota","name":"Grouse Mountain","coordinates":[-120.8497,41.3277]},{"code":"W6/NE-118","program":"sota","name":"Schaffer Mountain","coordinates":[-120.915,41.3636]},{"code":"W6/NE-123","program":"sota","name":"Hermit Butte","coordinates":[-120.7816,41.3313]},{"code":"W6/NE-150","program":"sota","name":"6140","coordinates":[-120.9867,41.3125]}]}