{"lat":41.25,"lon":9,"programs":["pota","sota","wwbota"],"count":48,"references":[{"code":"FR-3077","program":"pota","name":"BOUCHES DE BONIFACIO ILES DES MOINES FR9402015 Natura 2000","coordinates":[9.025,41.375]},{"code":"FR-3078","program":"pota","name":"ILES LAVEZZI BOUCHES DE BONIFACIO FR9410021 Natura 2000","coordinates":[9.125,41.3583]},{"code":"FR-3112","program":"pota","name":"ILES ET POINTE BRUZZI ETANGS DE CHEVANU ET D ARBITRU  FR9400609 Natura 2000","coordinates":[9.0275,41.4697]},{"code":"FR-3113","program":"pota","name":"VENTILEGNE LA TRINITE DE BONIFACIO FAZZIO  FR9400592 Natura 2000","coordinates":[9.12306,41.4044]},{"code":"FR-3114","program":"pota","name":"MARES TEMPORAIRES DU TERRAIN MILITAIRE DE FRASSELLI BONIFACIO  FR9400608 Natura 2000","coordinates":[9.15,41.45]},{"code":"FR-3115","program":"pota","name":"MARE TEMPORAIRE DE MUSELLA BONIFACIO  FR9402009 Natura 2000","coordinates":[9.19083,41.4019]},{"code":"FR-3116","program":"pota","name":"PLATEAU DE PERTUSATO BONIFACIO ET ILES LAVEZZI  FR9400591 Natura 2000","coordinates":[9.24639,41.3678]},{"code":"FR-3117","program":"pota","name":"TRE PADULE DE SUARTONE RONDINARA  FR9400590 Natura 2000","coordinates":[9.23972,41.4658]},{"code":"TK/TK-154","program":"sota","name":"Monte Biancu","coordinates":[9.130229,41.46997]},{"code":"B/F-6423","program":"wwbota","name":"CORPU di VERGA Nord-Ouest","coordinates":[9.168248,41.4392]},{"code":"B/F-6424","program":"wwbota","name":"CORPU di VERGA 1","coordinates":[9.173653,41.437976]},{"code":"B/F-6425","program":"wwbota","name":"CORPU di VERGA 2","coordinates":[9.173746,41.437898]},{"code":"B/F-6426","program":"wwbota","name":"CORPU di VERGA Nord-Est","coordinates":[9.176185,41.437357]},{"code":"B/F-6427","program":"wwbota","name":"CAPO BIANCO Nord","coordinates":[9.22282,41.435572]},{"code":"B/F-6428","program":"wwbota","name":"MARMARINO 3","coordinates":[9.162248,41.435319]},{"code":"B/F-6429","program":"wwbota","name":"VENTILEGNE","coordinates":[9.117366,41.433256]},{"code":"B/F-6430","program":"wwbota","name":"CAPO BIANCO Sud","coordinates":[9.224266,41.432838]},{"code":"B/F-6431","program":"wwbota","name":"MARMARINO 2","coordinates":[9.160019,41.432724]},{"code":"B/F-6432","program":"wwbota","name":"CURUGNOLA 1","coordinates":[9.155462,41.429134]},{"code":"B/F-6433","program":"wwbota","name":"SPINELLA Ouest","coordinates":[9.181279,41.4281]},{"code":"B/F-6434","program":"wwbota","name":"CATARELLO","coordinates":[9.121288,41.427929]},{"code":"B/F-6435","program":"wwbota","name":"CURUGNOLA 2","coordinates":[9.154361,41.427904]},{"code":"B/F-6436","program":"wwbota","name":"CANA d'ALTA 2","coordinates":[9.12964,41.427888]},{"code":"B/F-6437","program":"wwbota","name":"CURUGNOLA 3","coordinates":[9.152888,41.427357]},{"code":"B/F-6438","program":"wwbota","name":"CANA d'ALTA 1","coordinates":[9.127408,41.427341]},{"code":"B/F-6439","program":"wwbota","name":"ERBAIOLU 2","coordinates":[9.118489,41.426806]},{"code":"B/F-6440","program":"wwbota","name":"ERBAIOLU 1","coordinates":[9.116381,41.426797]},{"code":"B/F-6441","program":"wwbota","name":"SPINELLA Est","coordinates":[9.183629,41.426357]},{"code":"B/F-6442","program":"wwbota","name":"SPINELLA 2","coordinates":[9.187004,41.42634]},{"code":"B/F-6443","program":"wwbota","name":"MONTE CORBU 5","coordinates":[9.144218,41.426282]},{"code":"B/F-6444","program":"wwbota","name":"SPINELLA","coordinates":[9.186946,41.426267]},{"code":"B/F-6445","program":"wwbota","name":"CATARELLO","coordinates":[9.123049,41.426025]},{"code":"B/F-6446","program":"wwbota","name":"MONTE CORBU 4","coordinates":[9.13969,41.425482]},{"code":"B/F-6447","program":"wwbota","name":"MONTE CORBU 1","coordinates":[9.134195,41.424745]},{"code":"B/F-6448","program":"wwbota","name":"MONTE CORBU 2","coordinates":[9.134145,41.424613]},{"code":"B/F-6449","program":"wwbota","name":"MONTE CORBU 3","coordinates":[9.136881,41.424316]},{"code":"B/F-6450","program":"wwbota","name":"SANT' AMANZA","coordinates":[9.239381,41.416751]},{"code":"B/F-6451","program":"wwbota","name":"MAORA Nord","coordinates":[9.215856,41.409502]},{"code":"B/F-6452","program":"wwbota","name":"MAORA Sud","coordinates":[9.221997,41.404993]},{"code":"B/F-6453","program":"wwbota","name":"PERTUSATO 6","coordinates":[9.202623,41.379834]},{"code":"B/F-6454","program":"wwbota","name":"PERTUSATO 5","coordinates":[9.20151,41.375091]},{"code":"B/F-6455","program":"wwbota","name":"PERTUSATO P4-A","coordinates":[9.198891,41.373925]},{"code":"B/F-6456","program":"wwbota","name":"PERTUSATO 3","coordinates":[9.196327,41.373005]},{"code":"B/F-6457","program":"wwbota","name":"PERTUSATO P3-B","coordinates":[9.196541,41.372323]},{"code":"B/F-6458","program":"wwbota","name":"PERTUSATO 2","coordinates":[9.193089,41.372206]},{"code":"B/F-6459","program":"wwbota","name":"PERTUSATO 1","coordinates":[9.184205,41.371962]},{"code":"B/F-6460","program":"wwbota","name":"PERTUSATO P3-C","coordinates":[9.196761,41.371027]},{"code":"B/F-6461","program":"wwbota","name":"CALA SCIUMARA","coordinates":[9.197316,41.36752]}]}