{"lat":41.25,"lon":-1.75,"programs":["pota","sota"],"count":9,"references":[{"code":"ES-0810","program":"pota","name":"Hoces del Jalon Natura 2000","coordinates":[-1.6061,41.4147]},{"code":"ES-0811","program":"pota","name":"Muelas del Jiloca: El Campo y La Torreta Natura 2000","coordinates":[-1.5469,41.2756]},{"code":"ES-1982","program":"pota","name":"Desfiladeros del Río Jalon Natura 2000","coordinates":[-1.51542,41.4691]},{"code":"EA2/ZG-029","program":"sota","name":"San Cristóbal","coordinates":[-1.64464,41.45617]},{"code":"EA2/ZG-036","program":"sota","name":"Corrales de Cabezudo de Gil","coordinates":[-1.69752,41.49591]},{"code":"EA2/ZG-040","program":"sota","name":"Morés","coordinates":[-1.61231,41.4611]},{"code":"EA2/ZG-047","program":"sota","name":"La Cocha","coordinates":[-1.56743,41.40557]},{"code":"EA2/ZG-054","program":"sota","name":"Armantes","coordinates":[-1.73011,41.38564]},{"code":"EA2/ZG-057","program":"sota","name":"Sierra de Morata","coordinates":[-1.50702,41.45399]}]}