{"lat":41.5,"lon":-121.75,"programs":["pota","sota"],"count":10,"references":[{"code":"US-0946","program":"pota","name":"Lava Beds National Monument","coordinates":[-121.51,41.7142]},{"code":"US-12115","program":"pota","name":"Sáttítla Highlands Natural Monument","coordinates":[-121.615,41.585]},{"code":"W6/NE-029","program":"sota","name":"Mount Hoffman","coordinates":[-121.5536,41.611]},{"code":"W6/NE-030","program":"sota","name":"Lyons Peak","coordinates":[-121.5072,41.5793]},{"code":"W6/NE-045","program":"sota","name":"Glass Mountain","coordinates":[-121.505,41.6015]},{"code":"W6/NE-049","program":"sota","name":"Medicine Mountain","coordinates":[-121.6112,41.5643]},{"code":"W6/NE-071","program":"sota","name":"Red Cap Mountain","coordinates":[-121.7459,41.5452]},{"code":"W6/NE-149","program":"sota","name":"Doe Peak","coordinates":[-121.7407,41.5059]},{"code":"W6/NE-194","program":"sota","name":"Schonchin Butte","coordinates":[-121.5289,41.738]},{"code":"W6/NE-297","program":"sota","name":"Pumice Stone Mountain","coordinates":[-121.7137,41.5617]}]}