{"lat":41.5,"lon":1.25,"programs":["pota","sota"],"count":5,"references":[{"code":"ES-0303","program":"pota","name":"Carbassí Natura 2000","coordinates":[1.4336,41.6181]},{"code":"ES-0305","program":"pota","name":"Riera de la Goda Natura 2000","coordinates":[1.4588,41.5627]},{"code":"ES-0307","program":"pota","name":"Riera de Clariana Natura 2000","coordinates":[1.49,41.6056]},{"code":"EA3/BC-060","program":"sota","name":"Grony de Miralles - L'Agulla Grossa","coordinates":[1.492,41.5167]},{"code":"EA3/TA-030","program":"sota","name":"Pla de Maria","coordinates":[1.2635,41.5126]}]}