{"lat":41.5,"lon":13.75,"programs":["gma","pota","sota"],"count":27,"references":[{"code":"IT/MO-1003","program":"gma","name":"Monte Mare","coordinates":[13.99779987,41.63529968]},{"code":"XI/MO-001","program":"gma","name":"Monte Meta","coordinates":[13.9383,41.6892]},{"code":"IT-0066","program":"pota","name":"Val Canneto Natura 2000","coordinates":[13.9097,41.6886]},{"code":"IT-0499","program":"pota","name":"Cime del Massiccio della Meta Natura 2000","coordinates":[13.9619,41.6517]},{"code":"IT-1479","program":"pota","name":"Montecassino Natural Monument","coordinates":[13.811,41.505]},{"code":"I/AB-010","program":"sota","name":"Monte Petroso","coordinates":[13.9186,41.7272]},{"code":"I/AB-019","program":"sota","name":"Monte Jamiccio","coordinates":[13.9334,41.7331]},{"code":"I/LZ-002","program":"sota","name":"Monte a Mare – Quota 2161","coordinates":[13.9615,41.6745]},{"code":"I/LZ-005","program":"sota","name":"Monte Bellaveduta","coordinates":[13.8775,41.7053]},{"code":"I/LZ-006","program":"sota","name":"Monte Cavallo","coordinates":[13.9678,41.6486]},{"code":"I/LZ-007","program":"sota","name":"Monte Forcellone","coordinates":[13.9472,41.6428]},{"code":"I/LZ-015","program":"sota","name":"Serra Traversa","coordinates":[13.7944,41.7394]},{"code":"I/LZ-023","program":"sota","name":"Monte Cairo","coordinates":[13.7603,41.5416]},{"code":"I/LZ-040","program":"sota","name":"Monte Monna Casale","coordinates":[13.9744,41.5703]},{"code":"I/LZ-043","program":"sota","name":"Pizzo del Prato Caselle","coordinates":[13.7667,41.5969]},{"code":"I/LZ-045","program":"sota","name":"Monte Passero","coordinates":[13.9565,41.572]},{"code":"I/LZ-048","program":"sota","name":"Monte Monna Acquafondata","coordinates":[13.9586,41.5603]},{"code":"I/LZ-056","program":"sota","name":"Colle Aquilone","coordinates":[13.9331,41.5127]},{"code":"I/LZ-066","program":"sota","name":"Monte San Croce","coordinates":[13.9332,41.6049]},{"code":"I/LZ-068","program":"sota","name":"Monte Bianco","coordinates":[13.8737,41.6009]},{"code":"I/LZ-076","program":"sota","name":"Monte Rotolo","coordinates":[13.8941,41.5992]},{"code":"I/LZ-083","program":"sota","name":"Monte Aia Franchi","coordinates":[13.86,41.5957]},{"code":"I/LZ-090","program":"sota","name":"Monte Morrone","coordinates":[13.8269,41.594]},{"code":"I/LZ-102","program":"sota","name":"Monte Cifalco","coordinates":[13.8446,41.5741]},{"code":"I/LZ-112","program":"sota","name":"Colle Abate","coordinates":[13.803,41.5568]},{"code":"I/LZ-198","program":"sota","name":"Monte la Meta","coordinates":[13.9383,41.6892]},{"code":"I/MO-002","program":"sota","name":"Monte Mare","coordinates":[13.9936,41.6408]}]}