{"lat":41.5,"lon":26,"programs":["gma","sota"],"count":6,"references":[{"code":"LZM/ER-036","program":"gma","name":"Kara tepe","coordinates":[26.041042,41.71174]},{"code":"LZM/ER-055","program":"gma","name":"Kaleto","coordinates":[26.062918,41.502616]},{"code":"LZM/ER-058","program":"gma","name":"Golemiya golish","coordinates":[26.077037,41.528202]},{"code":"LZM/ER-061","program":"gma","name":"Srebarnitsa","coordinates":[26.041346,41.61758]},{"code":"LZ/RO-157","program":"sota","name":"Sheynovets (Kurt kale)","coordinates":[26.0286,41.7161]},{"code":"LZ/RO-195","program":"sota","name":"Yayladzhik","coordinates":[26.0856,41.6428]}]}