{"lat":41.5,"lon":25.5,"programs":["gma","pota","sota"],"count":14,"references":[{"code":"LZM/ER-027","program":"gma","name":"Kurtkaya","coordinates":[25.600322,41.569473]},{"code":"LZM/ER-031","program":"gma","name":"Pandakkaya","coordinates":[25.573425,41.61604]},{"code":"LZM/ER-041","program":"gma","name":"Tepeto","coordinates":[25.618095,41.591876]},{"code":"LZM/ER-047","program":"gma","name":"Kodzhadora","coordinates":[25.735645,41.523568]},{"code":"LZM/ER-051","program":"gma","name":"Kyuchukhisar tepe","coordinates":[25.72578,41.55752]},{"code":"LZM/ER-059","program":"gma","name":"Kalkanach","coordinates":[25.548787,41.626938]},{"code":"LZM/ER-060","program":"gma","name":"Tyurbe","coordinates":[25.582631,41.517109]},{"code":"LZM/ER-063","program":"gma","name":"Kuzbashi","coordinates":[25.512373,41.611035]},{"code":"LZM/ER-064","program":"gma","name":"Esbirlik","coordinates":[25.615547,41.634674]},{"code":"LZM/ER-069","program":"gma","name":"Gyunekaya","coordinates":[25.632927,41.615519]},{"code":"BG-0040","program":"pota","name":"Valchi Dol Nature Reserve","coordinates":[25.683,41.6]},{"code":"LZ/RO-137","program":"sota","name":"Sv. Iliya","coordinates":[25.5772,41.5991]},{"code":"LZ/RO-163","program":"sota","name":"Yumrukkaya","coordinates":[25.5269,41.649]},{"code":"LZ/RO-170","program":"sota","name":"Cholderen","coordinates":[25.6534,41.6301]}]}