{"lat":41.5,"lon":-107.5,"programs":["pota","sota"],"count":5,"references":[{"code":"US-10800","program":"pota","name":"Red Rim - Daley State Wildlife Habitat Management Area","coordinates":[-107.49,41.746]},{"code":"US-10885","program":"pota","name":"Rim Lake BLM Recreation Management Area","coordinates":[-107.269,41.7047]},{"code":"US-10891","program":"pota","name":"Teton Reservoir BLM Recreation Management Area","coordinates":[-107.26,41.6064]},{"code":"W7Y/SW-123","program":"sota","name":"Atlantic Rim West","coordinates":[-107.3884,41.6194]},{"code":"W7Y/SW-128","program":"sota","name":"Miller Hill","coordinates":[-107.3532,41.5434]}]}