{"lat":41.5,"lon":25.25,"programs":["gma","sota"],"count":20,"references":[{"code":"LZM/ER-015","program":"gma","name":"Syuventaale","coordinates":[25.47561,41.555357]},{"code":"LZM/ER-043","program":"gma","name":"Isaklartepe","coordinates":[25.40445,41.672279]},{"code":"LZM/ER-050","program":"gma","name":"Kayabashi","coordinates":[25.460789,41.682961]},{"code":"LZM/SR-712","program":"gma","name":"Kayadzhik","coordinates":[25.29832,41.718461]},{"code":"LZM/SR-725","program":"gma","name":"Karatepe","coordinates":[25.27876,41.741545]},{"code":"LZM/SR-735","program":"gma","name":"Yushekkaya","coordinates":[25.260138,41.702507]},{"code":"LZM/SR-737","program":"gma","name":"Yortlentepe","coordinates":[25.254651,41.729887]},{"code":"LZM/SR-749","program":"gma","name":"Demirhan","coordinates":[25.271355,41.686243]},{"code":"LZM/SR-787","program":"gma","name":"Kemik daa","coordinates":[25.286153,41.695673]},{"code":"LZM/SR-799","program":"gma","name":"Gazlartepe","coordinates":[25.317908,41.693738]},{"code":"LZM/SR-802","program":"gma","name":"Yuktepe","coordinates":[25.28645,41.735614]},{"code":"LZM/SR-818","program":"gma","name":"Tepedzhika","coordinates":[25.268359,41.720729]},{"code":"LZM/SR-829","program":"gma","name":"Sakardzhik","coordinates":[25.326079,41.729829]},{"code":"LZ/RO-136","program":"sota","name":"Dambalak","coordinates":[25.4586,41.5551]},{"code":"LZ/RO-138","program":"sota","name":"Kirsetepe","coordinates":[25.4903,41.5936]},{"code":"LZ/RO-140","program":"sota","name":"Mastatepe","coordinates":[25.3205,41.718]},{"code":"LZ/RO-154","program":"sota","name":"Skalna glava","coordinates":[25.3131,41.681]},{"code":"LZ/RO-164","program":"sota","name":"Hisar (Shesta krepost)","coordinates":[25.4626,41.6228]},{"code":"LZ/RO-165","program":"sota","name":"Chobanbashi","coordinates":[25.4985,41.6574]},{"code":"LZ/RO-168","program":"sota","name":"Kodzhabeg Demir","coordinates":[25.3599,41.5159]}]}