{"lat":41.5,"lon":-71.5,"programs":["pota"],"count":7,"references":[{"code":"US-2872","program":"pota","name":"Colt State Park","coordinates":[-71.2985,41.6769]},{"code":"US-2876","program":"pota","name":"Goddard Memorial State Park","coordinates":[-71.4377,41.657]},{"code":"US-2879","program":"pota","name":"Rocky Point State Park","coordinates":[-71.3634,41.6915]},{"code":"US-6987","program":"pota","name":"Cocumcussoc State Park","coordinates":[-71.4599,41.5823]},{"code":"US-7723","program":"pota","name":"John H. Chaffee Rome Point State Nature Preserve","coordinates":[-71.4374,41.5372]},{"code":"US-10543","program":"pota","name":"Patriots Park State Historic Site","coordinates":[-71.2583,41.6018]},{"code":"US-10547","program":"pota","name":"Silver Spring State Recreation Area","coordinates":[-71.4705,41.5388]}]}