{"lat":41.5,"lon":-73.25,"programs":["pota"],"count":6,"references":[{"code":"US-1649","program":"pota","name":"Black Rock State Park","coordinates":[-73.0988,41.6542]},{"code":"US-1654","program":"pota","name":"Camp Columbia State Park","coordinates":[-73.2242,41.6801]},{"code":"US-7533","program":"pota","name":"Larkin State Trail","coordinates":[-73.0655,41.5125]},{"code":"US-9894","program":"pota","name":"Topsmead State Forest State Forest","coordinates":[-73.1529,41.7479]},{"code":"US-10073","program":"pota","name":"Whittemore Glen State Park Scenic Reserve","coordinates":[-73.0665,41.5125]},{"code":"US-10961","program":"pota","name":"Mattatuck State Forest State Forest","coordinates":[-73.0735,41.6096]}]}