{"lat":41.5,"lon":-72.5,"programs":["pota"],"count":9,"references":[{"code":"US-1660","program":"pota","name":"Day Pond State Park","coordinates":[-72.4172,41.5565]},{"code":"US-1669","program":"pota","name":"Gay City State Park","coordinates":[-72.4367,41.7199]},{"code":"US-1693","program":"pota","name":"Machimoodus State Park","coordinates":[-72.4791,41.5011]},{"code":"US-1723","program":"pota","name":"Sunrise State Park","coordinates":[-72.4816,41.5068]},{"code":"US-6864","program":"pota","name":"Mono Pond State Park Preserve","coordinates":[-72.3106,41.679]},{"code":"US-7528","program":"pota","name":"Air Line State Trail","coordinates":[-72.4925,41.5783]},{"code":"US-7541","program":"pota","name":"Salmon River State Forest","coordinates":[-72.4495,41.5531]},{"code":"US-10962","program":"pota","name":"Babcock Pond WMA Wildlife Management Area","coordinates":[-72.3952,41.5487]},{"code":"US-11013","program":"pota","name":"Bishop Swamp WMA Wildlife Management Area","coordinates":[-72.4021,41.7239]}]}