{"lat":41.5,"lon":-1.75,"programs":["pota","sota"],"count":15,"references":[{"code":"ES-0802","program":"pota","name":"Barranco de Valdeplata Natura 2000","coordinates":[-1.6859,41.6863]},{"code":"ES-0803","program":"pota","name":"Sierra de Nava Alta - Puerto de La Chabola Natura 2000","coordinates":[-1.505,41.6347]},{"code":"ES-0809","program":"pota","name":"Cueva Honda Natura 2000","coordinates":[-1.7147,41.6419]},{"code":"ES-2190","program":"pota","name":"Sierra del Moncayo- Los Fayos- Sierra de Armas Natura 2000","coordinates":[-1.73909,41.7211]},{"code":"EA2/ZG-016","program":"sota","name":"Tonda","coordinates":[-1.68496,41.70463]},{"code":"EA2/ZG-018","program":"sota","name":"Cabrera / Estecillo","coordinates":[-1.67682,41.51268]},{"code":"EA2/ZG-020","program":"sota","name":"Virgen de la Sierra","coordinates":[-1.74293,41.53935]},{"code":"EA2/ZG-021","program":"sota","name":"Alto de los Tres Mojones","coordinates":[-1.72264,41.52659]},{"code":"EA2/ZG-041","program":"sota","name":"Peña de las Armas","coordinates":[-1.57718,41.69124]},{"code":"EA2/ZG-042","program":"sota","name":"Altos del Cogorro","coordinates":[-1.69238,41.64225]},{"code":"EA2/ZG-046","program":"sota","name":"Cabezo del Galiano","coordinates":[-1.54065,41.65855]},{"code":"EA2/ZG-048","program":"sota","name":"Bollón","coordinates":[-1.55554,41.72056]},{"code":"EA2/ZG-051","program":"sota","name":"Buitrera","coordinates":[-1.5035,41.62175]},{"code":"EA2/ZG-052","program":"sota","name":"Loma Galiana","coordinates":[-1.51439,41.70307]},{"code":"EA2/ZG-055","program":"sota","name":"La Lezna","coordinates":[-1.59685,41.54522]}]}