{"lat":41.5,"lon":22,"programs":["pota","sota","wwbota"],"count":5,"references":[{"code":"MK-0038","program":"pota","name":"Orlovo brdo Protected Area","coordinates":[22.1334,41.559]},{"code":"MK-0082","program":"pota","name":"Klisura na Bregalnica Protected Area","coordinates":[22.0298,41.7375]},{"code":"Z3/EM-074","program":"sota","name":"Kur Tepe","coordinates":[22.0272,41.6437]},{"code":"Z3/EM-077","program":"sota","name":"Tisa","coordinates":[22.0591,41.7343]},{"code":"B/Z3-0038","program":"wwbota","name":"Civil shelters Shtip","coordinates":[22.196,41.7386]}]}