{"lat":41.5,"lon":-8,"programs":["sota"],"count":5,"references":[{"code":"CT/MN-014","program":"sota","name":"Cerdeira","coordinates":[-7.9478,41.7398]},{"code":"CT/MN-016","program":"sota","name":"Torrinheiras","coordinates":[-7.9817,41.5989]},{"code":"CT/TM-004","program":"sota","name":"Armada","coordinates":[-7.8484,41.694]},{"code":"CT/TM-017","program":"sota","name":"Seixa","coordinates":[-7.8956,41.6042]},{"code":"CT/TM-043","program":"sota","name":"Bezerral","coordinates":[-7.8038,41.5587]}]}