{"lat":41.5,"lon":25.75,"programs":["gma","sota"],"count":17,"references":[{"code":"LZM/ER-014","program":"gma","name":"Cherkovna mogila","coordinates":[25.831684,41.535583]},{"code":"LZM/ER-023","program":"gma","name":"Tepeto","coordinates":[25.841429,41.571551]},{"code":"LZM/ER-024","program":"gma","name":"Chatalkaya","coordinates":[25.883494,41.594103]},{"code":"LZM/ER-038","program":"gma","name":"Karatepe","coordinates":[25.968906,41.50802]},{"code":"LZM/ER-042","program":"gma","name":"Topalkaya","coordinates":[25.906481,41.629109]},{"code":"LZM/ER-048","program":"gma","name":"Kazaltepe","coordinates":[25.768628,41.55122]},{"code":"LZM/ER-053","program":"gma","name":"Tatarliev vrah","coordinates":[25.960645,41.734061]},{"code":"LZM/ER-068","program":"gma","name":"Slivkite","coordinates":[25.946306,41.583222]},{"code":"LZM/ER-072","program":"gma","name":"Kazkaya","coordinates":[25.833023,41.638726]},{"code":"LZM/ER-073","program":"gma","name":"Shishtepe","coordinates":[25.869705,41.617367]},{"code":"LZM/ER-074","program":"gma","name":"Koankaya","coordinates":[25.878658,41.653756]},{"code":"LZM/ER-075","program":"gma","name":"Yumurchal","coordinates":[25.850205,41.652746]},{"code":"XLZ/RO-153","program":"gma","name":"Menekenski kamani","coordinates":[25.8249,41.6228]},{"code":"LZ/RO-141","program":"sota","name":"Sveti Yani","coordinates":[25.8314,41.5554]},{"code":"LZ/RO-156","program":"sota","name":"Sv. Marina","coordinates":[25.9466,41.7292]},{"code":"LZ/RO-166","program":"sota","name":"Petrovo kale","coordinates":[25.8089,41.6635]},{"code":"LZ/RO-192","program":"sota","name":"Menekenski kamani","coordinates":[25.8305,41.6206]}]}