{"lat":41.5,"lon":-71,"programs":["pota","wwbota"],"count":13,"references":[{"code":"US-0748","program":"pota","name":"New Bedford Whaling National Historical Park","coordinates":[-70.9257,41.6323]},{"code":"US-2429","program":"pota","name":"Demarest Lloyd State Park","coordinates":[-70.9904,41.5257]},{"code":"US-8409","program":"pota","name":"Fort Phoenix State Reserve","coordinates":[-70.906,41.6231]},{"code":"US-8420","program":"pota","name":"Nasketucket Bay State Reserve","coordinates":[-70.8457,41.63]},{"code":"US-11631","program":"pota","name":"Hartley Reservoir Wildlife Management Area","coordinates":[-70.8069,41.749]},{"code":"US-11632","program":"pota","name":"Haskell Swamp Wildlife Management Area","coordinates":[-70.8092,41.7194]},{"code":"US-11676","program":"pota","name":"Mattapoisett River Wildlife Management Area","coordinates":[-70.8488,41.7097]},{"code":"US-11694","program":"pota","name":"South Shore Marshes Wildlife Management Area","coordinates":[-70.8554,41.6295]},{"code":"B/US-0176","program":"wwbota","name":"Fort Taber Battery Barton (MA)","coordinates":[-70.90605,41.59329]},{"code":"B/US-0177","program":"wwbota","name":"Fort Taber Battery Craig (MA)","coordinates":[-70.90499,41.59318]},{"code":"B/US-0178","program":"wwbota","name":"Fort Taber Battery Cross (MA)","coordinates":[-70.90379,41.5931]},{"code":"B/US-0179","program":"wwbota","name":"Fort Taber Battery Gaston (MA)","coordinates":[-70.901,41.59354]},{"code":"B/US-0180","program":"wwbota","name":"Fort Taber Battery Walcott  (MA)","coordinates":[-70.90082,41.59398]}]}