{"lat":41.5,"lon":-8.25,"programs":["sota"],"count":9,"references":[{"code":"CT/MN-003","program":"sota","name":"Cabreira","coordinates":[-8.0436,41.6391]},{"code":"CT/MN-018","program":"sota","name":"Piorneiro","coordinates":[-8.2359,41.7193]},{"code":"CT/MN-019","program":"sota","name":"Alto do Morgair","coordinates":[-8.1163,41.5419]},{"code":"CT/MN-020","program":"sota","name":"Lapela","coordinates":[-8.0609,41.5459]},{"code":"CT/MN-024","program":"sota","name":"Penouta","coordinates":[-8.0481,41.5004]},{"code":"CT/MN-029","program":"sota","name":"Alto da Senhora da Lapa","coordinates":[-8.1775,41.6149]},{"code":"CT/MN-030","program":"sota","name":"Alto de São Mamede de Penafiel","coordinates":[-8.2464,41.628]},{"code":"CT/MN-034","program":"sota","name":"Santa Marinha","coordinates":[-8.2247,41.5032]},{"code":"CT/MN-058","program":"sota","name":"Lajedas","coordinates":[-8.2426,41.5176]}]}