{"lat":41.5,"lon":-72.25,"programs":["pota"],"count":9,"references":[{"code":"US-1646","program":"pota","name":"Beaver Brook State Park","coordinates":[-72.1262,41.7303]},{"code":"US-1668","program":"pota","name":"Gardner Lake State Park","coordinates":[-72.2266,41.5001]},{"code":"US-1680","program":"pota","name":"Hopemead State Park","coordinates":[-72.2146,41.5179]},{"code":"US-1698","program":"pota","name":"Minnie Island State Park","coordinates":[-72.2218,41.5058]},{"code":"US-1700","program":"pota","name":"Mooween State Park","coordinates":[-72.2258,41.5564]},{"code":"US-6872","program":"pota","name":"Salt Rock State Forest","coordinates":[-72.0893,41.6438]},{"code":"US-7534","program":"pota","name":"Mohegan State Forest","coordinates":[-72.0864,41.6651]},{"code":"US-7540","program":"pota","name":"Pomeroy State Reserve","coordinates":[-72.2241,41.6935]},{"code":"US-7652","program":"pota","name":"Franklin Wildlife Management Area","coordinates":[-72.137,41.6073]}]}