{"lat":41.5,"lon":-7,"programs":["pota","sota"],"count":5,"references":[{"code":"PT-0025","program":"pota","name":"Morais Natura 2000","coordinates":[-6.81806,41.505]},{"code":"PT-0026","program":"pota","name":"Paisagem Protegida da Albufeira do Azibo Protected Landscape","coordinates":[-6.90556,41.5658]},{"code":"CT/TM-002","program":"sota","name":"Serra da Nogueira","coordinates":[-6.8554,41.7173]},{"code":"CT/TM-014","program":"sota","name":"Pena Mourisca","coordinates":[-6.9126,41.6569]},{"code":"CT/TM-039","program":"sota","name":"Paixão","coordinates":[-6.7756,41.5099]}]}