{"lat":41.5,"lon":-106.75,"programs":["sota"],"count":5,"references":[{"code":"W7Y/SW-002","program":"sota","name":"Elk Mountain","coordinates":[-106.5261,41.6331]},{"code":"W7Y/SW-046","program":"sota","name":"Pennock Mountain","coordinates":[-106.5858,41.5219]},{"code":"W7Y/SW-075","program":"sota","name":"Coad Mountain","coordinates":[-106.5839,41.567]},{"code":"W7Y/SW-109","program":"sota","name":"Sheephead Mountain","coordinates":[-106.6264,41.6701]},{"code":"W7Y/SW-155","program":"sota","name":"Halleck Ridge","coordinates":[-106.5938,41.7033]}]}