{"lat":41.75,"lon":-116.5,"programs":["pota","sota"],"count":5,"references":[{"code":"US-13039","program":"pota","name":"Owyhee River Wilderness Area","coordinates":[-116.466,41.7923]},{"code":"US-13224","program":"pota","name":"South Fork Owyhee River - Nevada BLM Recreation Management Area","coordinates":[-116.471,41.8048]},{"code":"W7N/EN-200","program":"sota","name":"Dry Lake Benchmark","coordinates":[-116.2988,41.9834]},{"code":"W7N/EN-202","program":"sota","name":"Red Benchmark","coordinates":[-116.3018,41.7917]},{"code":"W7N/EN-203","program":"sota","name":"Hat Peak","coordinates":[-116.3919,41.9057]}]}