{"lat":41.75,"lon":-71.25,"programs":["pota"],"count":11,"references":[{"code":"US-0891","program":"pota","name":"Taunton National Wild and Scenic River","coordinates":[-71.118,41.783]},{"code":"US-2430","program":"pota","name":"Dighton Rock State Park","coordinates":[-71.1058,41.8119]},{"code":"US-2460","program":"pota","name":"Watson Pond State Park","coordinates":[-71.114,41.9501]},{"code":"US-4698","program":"pota","name":"Freetown-Fall River State Forest","coordinates":[-71.043,41.7795]},{"code":"US-4699","program":"pota","name":"Berkley State Forest","coordinates":[-71.0722,41.8247]},{"code":"US-8382","program":"pota","name":"Rehoboth State Forest","coordinates":[-71.2118,41.8885]},{"code":"US-11616","program":"pota","name":"Canoe River Wildlife Management Area","coordinates":[-71.1672,41.9857]},{"code":"US-11625","program":"pota","name":"Erwin S. Wilder Wildlife Management Area","coordinates":[-71.1203,41.9719]},{"code":"US-11633","program":"pota","name":"Hockomock Swamp Wildlife Management Area","coordinates":[-71.0467,41.9683]},{"code":"US-11678","program":"pota","name":"Mill Brook Bogs Wildlife Management Area","coordinates":[-71.0317,41.7903]},{"code":"US-13233","program":"pota","name":"Puddingstone Wildlife Management Area","coordinates":[-71.1539,41.8991]}]}