{"lat":41.75,"lon":-105.5,"programs":["pota","sota"],"count":7,"references":[{"code":"US-6118","program":"pota","name":"Tom Thorne/Beth Williams Wildlife Management Area","coordinates":[-105.373,41.7846]},{"code":"US-10790","program":"pota","name":"Laramie Peak State Wildlife Habitat Management Area","coordinates":[-105.406,41.963]},{"code":"W7Y/EW-049","program":"sota","name":"Douhitt Mountain","coordinates":[-105.4905,41.9918]},{"code":"W7Y/EW-051","program":"sota","name":"Sugar Loaf","coordinates":[-105.3947,41.9674]},{"code":"W7Y/EW-057","program":"sota","name":"Bull Camp Peak","coordinates":[-105.4993,41.9152]},{"code":"W7Y/EW-061","program":"sota","name":"Government Peak","coordinates":[-105.3097,41.9463]},{"code":"W7Y/EW-063","program":"sota","name":"Poe Mountain","coordinates":[-105.3362,41.8166]}]}