{"lat":41.75,"lon":123.5,"programs":["pota"],"count":5,"references":[{"code":"CN-0049","program":"pota","name":"棋盘山风景区 Mountain Park","coordinates":[123.678,41.9551]},{"code":"CN-0052","program":"pota","name":"沈阳世博园 Park","coordinates":[123.644,41.8599]},{"code":"CN-0053","program":"pota","name":"沈阳鸟岛 Park","coordinates":[123.601,41.8242]},{"code":"CN-0054","program":"pota","name":"东陵公园 Park","coordinates":[123.589,41.8354]},{"code":"CN-1017","program":"pota","name":"辽宁沈阳浑河森林公园 Regional Park","coordinates":[123.574,41.812]}]}