{"lat":41.75,"lon":13,"programs":["pota","sota"],"count":12,"references":[{"code":"IT-0548","program":"pota","name":"Lago di Canterno Nature Reserve","coordinates":[13.2412,41.757]},{"code":"IT-1827","program":"pota","name":"Castagneti di Fiuggi Natura 2000","coordinates":[13.2108,41.7825]},{"code":"IT-1828","program":"pota","name":"Versante meridionale del Monte Scalambra Natura 2000","coordinates":[13.1042,41.8433]},{"code":"IT-2031","program":"pota","name":"Grotta dell'Arco - Bellegra Natura 2000","coordinates":[13.0492,41.8892]},{"code":"I/LZ-039","program":"sota","name":"Monte Scalambra","coordinates":[13.1219,41.8474]},{"code":"I/LZ-046","program":"sota","name":"Monte delle Pianezze","coordinates":[13.1328,41.8879]},{"code":"I/LZ-054","program":"sota","name":"Monte Altuino","coordinates":[13.1557,41.867]},{"code":"I/LZ-069","program":"sota","name":"Monte Retàfani","coordinates":[13.1903,41.8324]},{"code":"I/LZ-077","program":"sota","name":"Monte Pila Rocca","coordinates":[13.1614,41.8169]},{"code":"I/LZ-103","program":"sota","name":"La Monna","coordinates":[13.2189,41.7625]},{"code":"I/LZ-132","program":"sota","name":"Morra Vallea","coordinates":[13.0263,41.8886]},{"code":"I/LZ-301","program":"sota","name":"Monte Autore","coordinates":[13.2036,41.9584]}]}