{"lat":41.75,"lon":21.25,"programs":["pota","sota","wwbota"],"count":18,"references":[{"code":"MK-0109","program":"pota","name":"Rajski park, Novo Lisice Recreation Park","coordinates":[21.4866,41.986]},{"code":"MK-0010","program":"pota","name":"Vodno Park","coordinates":[21.391,41.9771]},{"code":"MK-0106","program":"pota","name":"Memorijalen centar na holokaustot na Evreite Skopje National Memorial","coordinates":[21.4334,41.9985]},{"code":"MK-0110","program":"pota","name":"Josip Broz Tito, spomenik National Monument","coordinates":[21.4261,41.995]},{"code":"MK-0114","program":"pota","name":"Kamen most, Skopje National Monument","coordinates":[21.4329,41.9969]},{"code":"MK-0099","program":"pota","name":"Rasadnik, Skopje Management Area","coordinates":[21.4482,41.9748]},{"code":"MK-0016","program":"pota","name":"Matka canyon Protected Area","coordinates":[21.3004,41.9505]},{"code":"Z3/WM-035","program":"sota","name":"Kitka","coordinates":[21.498,41.841]},{"code":"Z3/WM-046","program":"sota","name":"Krstovar, Vodno","coordinates":[21.395,41.966]},{"code":"Z3/WM-106","program":"sota","name":"Sipachan","coordinates":[21.4714,41.7617]},{"code":"Z3/WM-125","program":"sota","name":"Bajrak","coordinates":[21.4192,41.8201]},{"code":"B/Z3-0003","program":"wwbota","name":"Bunkers Vodno","coordinates":[21.3616,41.9628]},{"code":"B/Z3-0007","program":"wwbota","name":"Bunkers Gorno Lisiche Skopje","coordinates":[21.4752,41.9678]},{"code":"B/Z3-0010","program":"wwbota","name":"Bunker Jasen","coordinates":[21.2821,41.8689]},{"code":"B/Z3-0029","program":"wwbota","name":"Civil shelters Gazi Baba Skopje","coordinates":[21.4496,41.9996]},{"code":"B/Z3-0030","program":"wwbota","name":"Civil shelters Centar Skopje","coordinates":[21.4306,41.9921]},{"code":"B/Z3-0033","program":"wwbota","name":"Civil shelters Kisela Voda Skopje","coordinates":[21.443,41.9791]},{"code":"B/Z3-0034","program":"wwbota","name":"Civil shelters Aerodrom Skopje","coordinates":[21.4664,41.9823]}]}