{"lat":41.75,"lon":-6.5,"programs":["pota","sota"],"count":5,"references":[{"code":"ES-0442","program":"pota","name":"Sierra de la Culebra Natura 2000","coordinates":[-6.359,41.9196]},{"code":"ES-2236","program":"pota","name":"Campo de Aliste Natura 2000","coordinates":[-6.3168,41.8112]},{"code":"EA1/ZA-008","program":"sota","name":"Peña Mira","coordinates":[-6.46597,41.92267]},{"code":"EA1/ZA-011","program":"sota","name":"Peña del Castro","coordinates":[-6.3013,41.93862]},{"code":"EA1/ZA-016","program":"sota","name":"Miño Cuevo","coordinates":[-6.25078,41.89595]}]}