{"lat":41.75,"lon":9,"programs":["pota","sota"],"count":11,"references":[{"code":"FR-1474","program":"pota","name":"Aiguilles de Bavella Natura 2000","coordinates":[9.23333,41.8333]},{"code":"FR-4458","program":"pota","name":"Plateau du Coscione et massif de l'Incudine Natura 2000","coordinates":[9.19333,41.8511]},{"code":"TK/TK-022","program":"sota","name":"Monte Alcudina","coordinates":[9.207181,41.849457]},{"code":"TK/TK-024","program":"sota","name":"Punta della Cappella","coordinates":[9.216655,41.996117]},{"code":"TK/TK-028","program":"sota","name":"Monte Furmicula","coordinates":[9.219155,41.944904]},{"code":"TK/TK-034","program":"sota","name":"Punta di u Furnellu","coordinates":[9.231353,41.835964]},{"code":"TK/TK-036","program":"sota","name":"Punta Alta","coordinates":[9.217433,41.815147]},{"code":"TK/TK-039","program":"sota","name":"Punta Sistaja","coordinates":[9.118722,41.85691]},{"code":"TK/TK-041","program":"sota","name":"Punta Mantellucciu","coordinates":[9.035702,41.944042]},{"code":"TK/TK-054","program":"sota","name":"Punta Velaco","coordinates":[9.231498,41.773937]},{"code":"TK/TK-057","program":"sota","name":"Punta di i Cavalletti","coordinates":[9.059601,41.80138]}]}