{"lat":41.75,"lon":24.5,"programs":["gma","sota"],"count":115,"references":[{"code":"LZM/SR-007","program":"gma","name":"Aydarski kamak","coordinates":[24.554366,41.791138]},{"code":"LZM/SR-010","program":"gma","name":"Chengene kyoshk","coordinates":[24.557399,41.759435]},{"code":"LZM/SR-012","program":"gma","name":"Golitsa","coordinates":[24.52216,41.891782]},{"code":"LZM/SR-013","program":"gma","name":"Balgarskiya post","coordinates":[24.555889,41.771299]},{"code":"LZM/SR-017","program":"gma","name":"Irushki sovat","coordinates":[24.579307,41.753705]},{"code":"LZM/SR-018","program":"gma","name":"Sveti Georgi","coordinates":[24.548253,41.879997]},{"code":"LZM/SR-020","program":"gma","name":"Zhigosgitsa","coordinates":[24.545876,41.889482]},{"code":"LZM/SR-025","program":"gma","name":"Gurgutevitsa","coordinates":[24.596173,41.831845]},{"code":"LZM/SR-029","program":"gma","name":"Turskiya post","coordinates":[24.552185,41.77955]},{"code":"LZM/SR-036","program":"gma","name":"Kuminite","coordinates":[24.584377,41.836011]},{"code":"LZM/SR-039","program":"gma","name":"Selskata chuka","coordinates":[24.567243,41.803449]},{"code":"LZM/SR-042","program":"gma","name":"Dimchovo","coordinates":[24.540826,41.762708]},{"code":"LZM/SR-050","program":"gma","name":"Kamaka","coordinates":[24.594687,41.802122]},{"code":"LZM/SR-051","program":"gma","name":"Pilaf tepe","coordinates":[24.551976,41.861051]},{"code":"LZM/SR-060","program":"gma","name":"Tserikova tsarkva","coordinates":[24.6171,41.823989]},{"code":"LZM/SR-061","program":"gma","name":"Beliya kamak","coordinates":[24.553078,41.897201]},{"code":"LZM/SR-067","program":"gma","name":"Kodzhomanitsa","coordinates":[24.620037,41.752792]},{"code":"LZM/SR-068","program":"gma","name":"Perelijtsa","coordinates":[24.513958,41.813141]},{"code":"LZM/SR-072","program":"gma","name":"Markova chuka","coordinates":[24.520149,41.907392]},{"code":"LZM/SR-075","program":"gma","name":"Sveti Iliya","coordinates":[24.582875,41.890098]},{"code":"LZM/SR-082","program":"gma","name":"Dolni gidik","coordinates":[24.592375,41.842502]},{"code":"LZM/SR-087","program":"gma","name":"Kum gidik","coordinates":[24.522555,41.750769]},{"code":"LZM/SR-088","program":"gma","name":"Kamaka","coordinates":[24.622531,41.760468]},{"code":"LZM/SR-092","program":"gma","name":"Kadieva varnitsa","coordinates":[24.521479,41.931994]},{"code":"LZM/SR-093","program":"gma","name":"Hadjieva chuka(Kartola)","coordinates":[24.732907,41.784494]},{"code":"LZM/SR-096","program":"gma","name":"Byala cherkva","coordinates":[24.677543,41.930536]},{"code":"LZM/SR-101","program":"gma","name":"Gluhi vrah","coordinates":[24.737933,41.830845]},{"code":"LZM/SR-104","program":"gma","name":"Ushite","coordinates":[24.637399,41.964186]},{"code":"LZM/SR-107","program":"gma","name":"Varhovrah","coordinates":[24.550227,41.973531]},{"code":"LZM/SR-108","program":"gma","name":"Komarov kamak","coordinates":[24.513068,41.943058]},{"code":"LZM/SR-109","program":"gma","name":"Kedika","coordinates":[24.525484,41.782204]},{"code":"LZM/SR-115","program":"gma","name":"Vasilitsa","coordinates":[24.631045,41.920707]},{"code":"LZM/SR-120","program":"gma","name":"Chukata","coordinates":[24.647248,41.947626]},{"code":"LZM/SR-121","program":"gma","name":"Isarat","coordinates":[24.628129,41.976504]},{"code":"LZM/SR-122","program":"gma","name":"Mogilata","coordinates":[24.50847,41.764684]},{"code":"LZM/SR-126","program":"gma","name":"Lakanya","coordinates":[24.641291,41.763165]},{"code":"LZM/SR-128","program":"gma","name":"Malinov vrah","coordinates":[24.672584,41.943898]},{"code":"LZM/SR-131","program":"gma","name":"Cherni vrah","coordinates":[24.636581,41.824036]},{"code":"LZM/SR-132","program":"gma","name":"Lezova chuka","coordinates":[24.636578,41.824036]},{"code":"LZM/SR-134","program":"gma","name":"Pangarliitsa","coordinates":[24.574158,41.932476]},{"code":"LZM/SR-135","program":"gma","name":"Valchi vrah","coordinates":[24.562316,41.913274]},{"code":"LZM/SR-136","program":"gma","name":"Radivata chuka","coordinates":[24.678487,41.765125]},{"code":"LZM/SR-138","program":"gma","name":"Prespa","coordinates":[24.665152,41.922699]},{"code":"LZM/SR-139","program":"gma","name":"Sveti Atanas","coordinates":[24.591015,41.895094]},{"code":"LZM/SR-144","program":"gma","name":"Chiren","coordinates":[24.515428,41.952536]},{"code":"LZM/SR-145","program":"gma","name":"Mogilata","coordinates":[24.619916,41.777964]},{"code":"LZM/SR-147","program":"gma","name":"Pitevsko","coordinates":[24.659197,41.765945]},{"code":"LZM/SR-150","program":"gma","name":"Tuzlata","coordinates":[24.637267,41.955144]},{"code":"LZM/SR-152","program":"gma","name":"Beliyat kamak","coordinates":[24.514162,41.876395]},{"code":"LZM/SR-155","program":"gma","name":"Cherven kamak","coordinates":[24.588169,41.966636]},{"code":"LZM/SR-157","program":"gma","name":"Eremlijtsa","coordinates":[24.6284,41.902456]},{"code":"LZM/SR-161","program":"gma","name":"Kremenya","coordinates":[24.538275,41.865269]},{"code":"LZM/SR-167","program":"gma","name":"Chiflika","coordinates":[24.619718,41.964939]},{"code":"LZM/SR-169","program":"gma","name":"Cherni vah","coordinates":[24.725759,41.927104]},{"code":"LZM/SR-173","program":"gma","name":"Kara burun","coordinates":[24.583425,41.784835]},{"code":"LZM/SR-174","program":"gma","name":"Kulata","coordinates":[24.545209,41.939378]},{"code":"LZM/SR-175","program":"gma","name":"Ushite","coordinates":[24.6312,41.788651]},{"code":"LZM/SR-184","program":"gma","name":"Kriviya burun","coordinates":[24.679708,41.784044]},{"code":"LZM/SR-185","program":"gma","name":"Bognyovitsa(Bogdanovitsa)","coordinates":[24.678273,41.964984]},{"code":"LZM/SR-186","program":"gma","name":"Begzatyov kamak","coordinates":[24.603648,41.892642]},{"code":"LZM/SR-191","program":"gma","name":"Sredni livadi","coordinates":[24.647932,41.89992]},{"code":"LZM/SR-192","program":"gma","name":"Tagar mogila","coordinates":[24.504375,41.971673]},{"code":"LZM/SR-195","program":"gma","name":"Pendjarova chuka","coordinates":[24.730589,41.764425]},{"code":"LZM/SR-208","program":"gma","name":"Stoeva chuka","coordinates":[24.701925,41.93305]},{"code":"LZM/SR-214","program":"gma","name":"Bardo","coordinates":[24.603512,41.926507]},{"code":"LZM/SR-215","program":"gma","name":"Hwojnaka","coordinates":[24.589755,41.916905]},{"code":"LZM/SR-217","program":"gma","name":"Kabata","coordinates":[24.641036,41.835942]},{"code":"LZM/SR-219","program":"gma","name":"Katralnitsa","coordinates":[24.656432,41.776794]},{"code":"LZM/SR-230","program":"gma","name":"Chukata","coordinates":[24.604469,41.885787]},{"code":"LZM/SR-246","program":"gma","name":"Shabanova barchina","coordinates":[24.556699,41.991527]},{"code":"LZM/SR-247","program":"gma","name":"Petlova mogila","coordinates":[24.746919,41.846413]},{"code":"LZM/SR-248","program":"gma","name":"Studenets","coordinates":[24.680046,41.976261]},{"code":"LZM/SR-252","program":"gma","name":"El Dermen","coordinates":[24.572894,41.833434]},{"code":"LZM/SR-255","program":"gma","name":"Srednya","coordinates":[24.585278,41.979396]},{"code":"LZM/SR-259","program":"gma","name":"Chukata","coordinates":[24.614997,41.795398]},{"code":"LZM/SR-281","program":"gma","name":"Dragijtsa","coordinates":[24.72269,41.814417]},{"code":"LZM/SR-287","program":"gma","name":"Sabotinche","coordinates":[24.739349,41.93795]},{"code":"LZM/SR-293","program":"gma","name":"Borovoto","coordinates":[24.624304,41.890904]},{"code":"LZM/SR-297","program":"gma","name":"Echemeniste","coordinates":[24.705656,41.8351]},{"code":"LZM/SR-306","program":"gma","name":"Tuzlata","coordinates":[24.682951,41.80698]},{"code":"LZM/SR-309","program":"gma","name":"Tip","coordinates":[24.629843,41.806698]},{"code":"LZM/SR-315","program":"gma","name":"Maltepe","coordinates":[24.522809,41.978584]},{"code":"LZM/SR-325","program":"gma","name":"Chukata","coordinates":[24.658046,41.895958]},{"code":"LZM/SR-329","program":"gma","name":"Valkov tor","coordinates":[24.736898,41.958436]},{"code":"LZM/SR-335","program":"gma","name":"Sredni vrah","coordinates":[24.500322,41.882776]},{"code":"LZM/SR-346","program":"gma","name":"Alese","coordinates":[24.746039,41.861274]},{"code":"LZM/SR-353","program":"gma","name":"Gabrovski chucul","coordinates":[24.715776,41.82118]},{"code":"LZM/SR-360","program":"gma","name":"Varha","coordinates":[24.734991,41.885063]},{"code":"LZM/SR-371","program":"gma","name":"Sveti Arahangel","coordinates":[24.615812,41.994805]},{"code":"LZM/SR-373","program":"gma","name":"Lesenitsa(Danilovets)","coordinates":[24.672318,41.890704]},{"code":"LZM/SR-382","program":"gma","name":"Lestista","coordinates":[24.655895,41.841509]},{"code":"LZM/SR-387","program":"gma","name":"Chukalya","coordinates":[24.510426,41.855292]},{"code":"LZM/SR-392","program":"gma","name":"Rudanska barchina","coordinates":[24.686494,41.90433]},{"code":"LZM/SR-405","program":"gma","name":"Sinevitsa","coordinates":[24.687725,41.812167]},{"code":"LZM/SR-446","program":"gma","name":"Mogila","coordinates":[24.641701,41.887823]},{"code":"LZM/SR-461","program":"gma","name":"Petrova tsarkva","coordinates":[24.630377,41.860663]},{"code":"LZM/SR-465","program":"gma","name":"Sveta Petka","coordinates":[24.740471,41.992413]},{"code":"LZM/SR-483","program":"gma","name":"Gradiste","coordinates":[24.729576,41.910439]},{"code":"LZM/SR-489","program":"gma","name":"Sveti Iliya Bukovski","coordinates":[24.741039,41.916526]},{"code":"LZM/SR-519","program":"gma","name":"Kalugeritsa","coordinates":[24.681982,41.884984]},{"code":"LZM/SR-567","program":"gma","name":"Golubitsa","coordinates":[24.690635,41.840376]},{"code":"LZM/SR-569","program":"gma","name":"Nakovalnya","coordinates":[24.666927,41.821246]},{"code":"LZM/SR-574","program":"gma","name":"Misheva koliba","coordinates":[24.659605,41.802524]},{"code":"LZM/SR-584","program":"gma","name":"Chukal","coordinates":[24.642385,41.858569]},{"code":"LZM/SR-586","program":"gma","name":"Koloto","coordinates":[24.614316,41.874577]},{"code":"LZM/SR-593","program":"gma","name":"Kapanya","coordinates":[24.652856,41.855549]},{"code":"LZM/SR-613","program":"gma","name":"Kalutin trap","coordinates":[24.708965,41.881468]},{"code":"LZM/SR-711","program":"gma","name":"Bozhe ime","coordinates":[24.678796,41.860297]},{"code":"LZM/SR-729","program":"gma","name":"Lukanets","coordinates":[24.674424,41.871899]},{"code":"XLZ/RO-045","program":"gma","name":"Behtepe","coordinates":[24.6468,41.9377]},{"code":"LZ/RO-004","program":"sota","name":"Golyam Persenk","coordinates":[24.5425,41.815]},{"code":"LZ/RO-006","program":"sota","name":"Persenk","coordinates":[24.5561,41.8303]},{"code":"LZ/RO-009","program":"sota","name":"Modar","coordinates":[24.5383,41.8857]},{"code":"LZ/RO-086","program":"sota","name":"Mandrata (Koprivkite)","coordinates":[24.7194,41.9969]},{"code":"LZ/RO-181","program":"sota","name":"Barchinata","coordinates":[24.6368,41.9336]}]}