{"lat":41.75,"lon":23.5,"programs":["gma","sota"],"count":56,"references":[{"code":"LZM/PR-036","program":"gma","name":"Gradishka tumba","coordinates":[23.514347,41.787009]},{"code":"LZM/PR-056","program":"gma","name":"Sveti Iliya","coordinates":[23.620648,41.789301]},{"code":"LZM/PR-057","program":"gma","name":"Mogilata","coordinates":[23.548079,41.785313]},{"code":"LZM/PR-063","program":"gma","name":"Sveti Dimitar","coordinates":[23.507416,41.811487]},{"code":"LZM/PR-077","program":"gma","name":"Vranikal","coordinates":[23.593247,41.818784]},{"code":"LZM/PR-094","program":"gma","name":"Sv. Nikola","coordinates":[23.530328,41.817584]},{"code":"LZM/RI-151","program":"gma","name":"Bukata","coordinates":[23.509369,41.981027]},{"code":"LZM/RI-152","program":"gma","name":"Markovitsa","coordinates":[23.576102,41.972764]},{"code":"LZM/RI-156","program":"gma","name":"Chuchenets","coordinates":[23.565545,41.983356]},{"code":"LZM/RI-160","program":"gma","name":"Ispryansko tepe","coordinates":[23.540289,41.976689]},{"code":"LZM/RI-164","program":"gma","name":"Lisitsinata","coordinates":[23.513961,41.96667]},{"code":"LZM/RI-171","program":"gma","name":"Anatema","coordinates":[23.527308,41.943117]},{"code":"LZM/RI-175","program":"gma","name":"Gaydaritsa","coordinates":[23.585029,41.94101]},{"code":"LZM/RI-182","program":"gma","name":"Salpagova chuka","coordinates":[23.573613,41.935455]},{"code":"LZM/WR-049","program":"gma","name":"Kavun tepe","coordinates":[23.729326,41.972319]},{"code":"LZM/WR-057","program":"gma","name":"Belyova planina","coordinates":[23.67024,41.980255]},{"code":"LZM/WR-068","program":"gma","name":"Babyashka chuka","coordinates":[23.673008,41.963137]},{"code":"LZM/WR-076","program":"gma","name":"Pilyovitsa","coordinates":[23.734849,41.821515]},{"code":"LZM/WR-090","program":"gma","name":"Kamen vrah","coordinates":[23.727395,41.809798]},{"code":"LZM/WR-101","program":"gma","name":"Murata","coordinates":[23.73924,41.889199]},{"code":"LZM/WR-118","program":"gma","name":"Golashka chukara","coordinates":[23.685555,41.858016]},{"code":"LZM/WR-120","program":"gma","name":"Drabachevitsa","coordinates":[23.742329,41.766672]},{"code":"LZM/WR-131","program":"gma","name":"Kundilov rid","coordinates":[23.685174,41.99262]},{"code":"LZM/WR-133","program":"gma","name":"Beliya kamak","coordinates":[23.739481,41.845816]},{"code":"LZM/WR-135","program":"gma","name":"Yurukova mogila","coordinates":[23.658025,41.994713]},{"code":"LZM/WR-141","program":"gma","name":"Dolna bardo","coordinates":[23.714569,41.808437]},{"code":"LZM/WR-150","program":"gma","name":"Dabo","coordinates":[23.742206,41.797786]},{"code":"LZM/WR-151","program":"gma","name":"Gudzhevite nivi","coordinates":[23.679453,41.872153]},{"code":"LZM/WR-168","program":"gma","name":"Kelyova mogila","coordinates":[23.743113,41.935785]},{"code":"LZM/WR-178","program":"gma","name":"Belakite","coordinates":[23.662856,41.882239]},{"code":"LZM/WR-181","program":"gma","name":"Pikyov rid","coordinates":[23.708408,41.877669]},{"code":"LZM/WR-185","program":"gma","name":"Kavaldzhiyska mogila","coordinates":[23.69619,41.900572]},{"code":"LZM/WR-188","program":"gma","name":"Babata","coordinates":[23.711479,41.900207]},{"code":"LZM/WR-191","program":"gma","name":"Valkovitsa","coordinates":[23.725019,41.788723]},{"code":"LZM/WR-198","program":"gma","name":"Kachovets","coordinates":[23.684439,41.83986]},{"code":"LZM/WR-209","program":"gma","name":"Krushova mogila","coordinates":[23.635283,41.91431]},{"code":"LZM/WR-225","program":"gma","name":"Mitrovitsa","coordinates":[23.714901,41.753445]},{"code":"LZM/WR-226","program":"gma","name":"Tachevi mogili","coordinates":[23.651118,41.940368]},{"code":"LZM/WR-242","program":"gma","name":"Livadite","coordinates":[23.668966,41.852811]},{"code":"LZM/WR-271","program":"gma","name":"Karchovets","coordinates":[23.635878,41.961004]},{"code":"LZM/WR-311","program":"gma","name":"Kukuvitsa","coordinates":[23.711581,41.774317]},{"code":"LZM/WR-321","program":"gma","name":"Prespa","coordinates":[23.673193,41.822132]},{"code":"LZM/WR-327","program":"gma","name":"Mogile","coordinates":[23.699393,41.770558]},{"code":"LZM/WR-332","program":"gma","name":"Lipata","coordinates":[23.671366,41.80656]},{"code":"LZM/WR-337","program":"gma","name":"Palev rid","coordinates":[23.604657,41.912195]},{"code":"LZM/WR-344","program":"gma","name":"Kozar tepe","coordinates":[23.615727,41.881315]},{"code":"LZM/WR-347","program":"gma","name":"Grozeo","coordinates":[23.638088,41.83721]},{"code":"LZM/WR-349","program":"gma","name":"Spaseva cherkva","coordinates":[23.589615,41.883636]},{"code":"LZM/WR-355","program":"gma","name":"Mogilata","coordinates":[23.622633,41.976906]},{"code":"LZM/WR-364","program":"gma","name":"Goroguts","coordinates":[23.616588,41.839928]},{"code":"LZ/PS-023","program":"sota","name":"Sv.Troitsa","coordinates":[23.6069,41.7865]},{"code":"LZ/RO-050","program":"sota","name":"Mogilata","coordinates":[23.7045,41.8615]},{"code":"LZ/RO-059","program":"sota","name":"Yavorska mogila","coordinates":[23.7198,41.9429]},{"code":"LZ/RO-097","program":"sota","name":"Stapkata","coordinates":[23.6176,41.9402]},{"code":"LZ/RO-114","program":"sota","name":"Babina glava","coordinates":[23.5579,41.8751]},{"code":"LZ/RO-183","program":"sota","name":"Mitrovitsa","coordinates":[23.7149,41.7534]}]}