{"lat":41.75,"lon":-70.75,"programs":["pota"],"count":13,"references":[{"code":"US-2432","program":"pota","name":"Ellisville Harbor State Park","coordinates":[-70.5392,41.8444]},{"code":"US-2453","program":"pota","name":"Pilgrim Memorial State Park","coordinates":[-70.6623,41.959]},{"code":"US-4697","program":"pota","name":"Shawme-Crowell State Forest","coordinates":[-70.5131,41.7534]},{"code":"US-4700","program":"pota","name":"Myles Standish State Forest","coordinates":[-70.6912,41.8395]},{"code":"US-8430","program":"pota","name":"Scusset Beach State Reserve","coordinates":[-70.5123,41.7787]},{"code":"US-11615","program":"pota","name":"Camp Cachalot Wildlife Management Area","coordinates":[-70.6543,41.8138]},{"code":"US-11620","program":"pota","name":"Cooks Pond Wildlife Management Area","coordinates":[-70.667,41.9237]},{"code":"US-11630","program":"pota","name":"Halfway Pond Wildlife Management Area","coordinates":[-70.6166,41.8451]},{"code":"US-11637","program":"pota","name":"Maple Springs Wildlife Management Area","coordinates":[-70.6734,41.7809]},{"code":"US-11684","program":"pota","name":"Plymouth Grassy Pond Wildlife Management Area","coordinates":[-70.5794,41.84]},{"code":"US-11688","program":"pota","name":"Red Brook Wildlife Management Area","coordinates":[-70.6228,41.8013]},{"code":"US-11691","program":"pota","name":"SE Pine Barrens Wildlife Management Area","coordinates":[-70.6869,41.8155]},{"code":"US-11693","program":"pota","name":"Sly Pond Wildlife Management Area","coordinates":[-70.7053,41.9058]}]}