{"lat":41.75,"lon":-114,"programs":["sota"],"count":7,"references":[{"code":"W7U/BO-005","program":"sota","name":"Goose Creek Mountains HP","coordinates":[-113.8062,41.9263]},{"code":"W7U/BO-006","program":"sota","name":"Twin Peaks","coordinates":[-113.8632,41.9272]},{"code":"W7U/BO-007","program":"sota","name":"Pine Benchmark","coordinates":[-113.7517,41.7888]},{"code":"W7U/BO-014","program":"sota","name":"8180","coordinates":[-113.8592,41.8811]},{"code":"W7U/BO-018","program":"sota","name":"7940","coordinates":[-113.9996,41.8052]},{"code":"W7U/BO-020","program":"sota","name":"Dry Canyon Mountain","coordinates":[-113.9405,41.8069]},{"code":"W7U/BO-024","program":"sota","name":"Meadow Creek Butte","coordinates":[-113.9778,41.8606]}]}