{"lat":41.75,"lon":-118.5,"programs":["sota"],"count":6,"references":[{"code":"W7N/HU-024","program":"sota","name":"Engeler Peak","coordinates":[-118.4101,41.8867]},{"code":"W7N/HU-026","program":"sota","name":"Trident Peak","coordinates":[-118.418,41.9026]},{"code":"W7N/HU-039","program":"sota","name":"Black Diamond Peak","coordinates":[-118.3975,41.9128]},{"code":"W7N/HU-052","program":"sota","name":"Granite Mountain","coordinates":[-118.412,41.9787]},{"code":"W7N/HU-054","program":"sota","name":"Holloway Mountain","coordinates":[-118.3448,41.9716]},{"code":"W7N/HU-060","program":"sota","name":"Split Peak","coordinates":[-118.4347,41.8228]}]}