{"lat":41.75,"lon":23.25,"programs":["gma","pota","sota"],"count":39,"references":[{"code":"LZM/PR-001","program":"gma","name":"Banski Suhodol","coordinates":[23.390917,41.784265]},{"code":"LZM/PR-006","program":"gma","name":"Razlozhki suhodol","coordinates":[23.3691,41.797552]},{"code":"LZM/PR-015","program":"gma","name":"Ovinati vrah","coordinates":[23.400235,41.756171]},{"code":"LZM/PR-022","program":"gma","name":"Duninoto kuche","coordinates":[23.407316,41.801799]},{"code":"LZM/PR-025","program":"gma","name":"Konarevo(Selskiya vrah)","coordinates":[23.492793,41.773192]},{"code":"LZM/PR-027","program":"gma","name":"Vlahinska chuka","coordinates":[23.37984,41.764774]},{"code":"LZM/PR-029","program":"gma","name":"Albutin","coordinates":[23.351886,41.796984]},{"code":"LZM/PR-040","program":"gma","name":"Krasta","coordinates":[23.485983,41.797228]},{"code":"LZM/PR-041","program":"gma","name":"Pleshki vrah","coordinates":[23.310456,41.842511]},{"code":"LZM/PR-060","program":"gma","name":"Kamenishki vrah","coordinates":[23.333416,41.822158]},{"code":"LZM/PR-062","program":"gma","name":"Obesnik","coordinates":[23.273549,41.905782]},{"code":"LZM/PR-065","program":"gma","name":"Despotets","coordinates":[23.30992,41.897733]},{"code":"LZM/PR-066","program":"gma","name":"Panicharitsa","coordinates":[23.450425,41.825864]},{"code":"LZM/PR-069","program":"gma","name":"Smilkovets","coordinates":[23.307318,41.784629]},{"code":"LZM/PR-070","program":"gma","name":"Chervenata skala","coordinates":[23.340969,41.766683]},{"code":"LZM/PR-073","program":"gma","name":"Vardishteto","coordinates":[23.26075,41.826196]},{"code":"LZM/RI-055","program":"gma","name":"Vade","coordinates":[23.391775,41.993417]},{"code":"LZM/RI-059","program":"gma","name":"Radonov grob","coordinates":[23.407898,41.986071]},{"code":"LZM/RI-066","program":"gma","name":"Kapatnik","coordinates":[23.357856,41.944955]},{"code":"LZM/RI-106","program":"gma","name":"Gudzhila","coordinates":[23.471282,41.995063]},{"code":"LZM/RI-126","program":"gma","name":"Ormaneto","coordinates":[23.366418,41.907419]},{"code":"LZM/RI-127","program":"gma","name":"Obrashte","coordinates":[23.412101,41.92626]},{"code":"LZM/RI-138","program":"gma","name":"Smradlivets","coordinates":[23.296852,41.936541]},{"code":"LZM/RI-139","program":"gma","name":"Tupilata","coordinates":[23.386019,41.904888]},{"code":"LZM/RI-141","program":"gma","name":"Tserovete","coordinates":[23.325391,41.911715]},{"code":"LZM/RI-147","program":"gma","name":"Moravitsa","coordinates":[23.280244,41.971967]},{"code":"LZM/RI-159","program":"gma","name":"Presechen kamak","coordinates":[23.385644,41.889276]},{"code":"LZM/RI-161","program":"gma","name":"Toparnitsa","coordinates":[23.269558,41.961979]},{"code":"LZM/RI-165","program":"gma","name":"Katsunovota blato","coordinates":[23.40663,41.884451]},{"code":"LZM/RI-166","program":"gma","name":"Sveti Iliya","coordinates":[23.481817,41.955724]},{"code":"LZM/RI-167","program":"gma","name":"Grigorov chukar","coordinates":[23.429589,41.891608]},{"code":"BG-0020","program":"pota","name":"Bayuvi Dupki-Dzhindzhiritsa Nature Reserve","coordinates":[23.3673,41.8267]},{"code":"BG-0075","program":"pota","name":"Yulen Nature Reserve","coordinates":[23.4713,41.7536]},{"code":"LZ/PS-001","program":"sota","name":"Vihren","coordinates":[23.3989,41.7673]},{"code":"LZ/PS-002","program":"sota","name":"Kutelo","coordinates":[23.3953,41.78]},{"code":"LZ/PS-006","program":"sota","name":"Todorin vrah","coordinates":[23.4318,41.7527]},{"code":"LZ/PS-011","program":"sota","name":"Dautov vrah","coordinates":[23.3331,41.8342]},{"code":"LZ/PS-012","program":"sota","name":"Pirin","coordinates":[23.2927,41.8471]},{"code":"LZ/PS-030","program":"sota","name":"2596","coordinates":[23.3177,41.8383]}]}