{"lat":41.75,"lon":13.25,"programs":["gma","pota","sota"],"count":17,"references":[{"code":"IT/AB-1007","program":"gma","name":"Monte Ceria","coordinates":[13.29249954,41.99750137]},{"code":"IT/LZ-1000","program":"gma","name":"Monte Cotento","coordinates":[13.33390045,41.91690063]},{"code":"IT-0455","program":"pota","name":"Monte Salviano Natura 2000","coordinates":[13.4347,41.9789]},{"code":"IT-0689","program":"pota","name":"Monti Simbruini Natura 2000","coordinates":[13.3569,41.9356]},{"code":"IT-0454","program":"pota","name":"Monti Simbruini ed Ernici Natura 2000","coordinates":[13.26,41.8992]},{"code":"I/AB-051","program":"sota","name":"Monte Alto","coordinates":[13.481,41.9067]},{"code":"I/AB-056","program":"sota","name":"Monte Camiciola","coordinates":[13.2848,41.9843]},{"code":"I/AB-096","program":"sota","name":"Madonna del Monte – Quota 1321","coordinates":[13.3717,41.9776]},{"code":"I/LZ-004","program":"sota","name":"Monte del Passeggio","coordinates":[13.4842,41.8028]},{"code":"I/LZ-008","program":"sota","name":"Monte Cotento","coordinates":[13.3305,41.912]},{"code":"I/LZ-009","program":"sota","name":"Monte Ginepro","coordinates":[13.4631,41.81]},{"code":"I/LZ-010","program":"sota","name":"Monte Crepacuore","coordinates":[13.3644,41.8536]},{"code":"I/LZ-020","program":"sota","name":"Monte Pedicinetto","coordinates":[13.493,41.7539]},{"code":"I/LZ-078","program":"sota","name":"Monte Civitella","coordinates":[13.2724,41.8042]},{"code":"I/LZ-135","program":"sota","name":"Trivigliano","coordinates":[13.274,41.7758]},{"code":"I/LZ-303","program":"sota","name":"Monte Viglio","coordinates":[13.3736,41.8844]},{"code":"I/LZ-324","program":"sota","name":"Monte Tarino","coordinates":[13.2934,41.9326]}]}