{"lat":41.75,"lon":140.25,"programs":["sota"],"count":10,"references":[{"code":"JA8/HY-011","program":"sota","name":"Shimogaro","coordinates":[140.4131,41.9871]},{"code":"JA8/HY-015","program":"sota","name":"JA8/HY-015","coordinates":[140.381,41.9972]},{"code":"JA8/HY-020","program":"sota","name":"Uriyadake","coordinates":[140.3582,41.7871]},{"code":"JA8/HY-024","program":"sota","name":"Yakijiridake","coordinates":[140.4214,41.9218]},{"code":"JA8/OM-029","program":"sota","name":"Katsuradake","coordinates":[140.4644,41.7892]},{"code":"JA8/OM-033","program":"sota","name":"Raidenyama","coordinates":[140.4855,41.9014]},{"code":"JA8/OM-034","program":"sota","name":"Sekkeiyama","coordinates":[140.4833,41.9287]},{"code":"JA8/OM-046","program":"sota","name":"Hakamagoshiyama","coordinates":[140.49,41.8372]},{"code":"JA8/OM-050","program":"sota","name":"JA8/OM-050","coordinates":[140.4857,41.8822]},{"code":"JA8/OM-059","program":"sota","name":"Fujiyama","coordinates":[140.4776,41.8154]}]}