{"lat":41.75,"lon":13.75,"programs":["pota","sota"],"count":19,"references":[{"code":"IT-0084","program":"pota","name":"Lago di Scanno ed Emissari Natura 2000","coordinates":[13.8647,41.9219]},{"code":"IT-0456","program":"pota","name":"Monte Genzana Natura 2000","coordinates":[13.9147,41.9564]},{"code":"IT-0458","program":"pota","name":"Riserva Naturale Guidata Gole del Sagittario Provincial Park","coordinates":[13.8052,41.9818]},{"code":"I/AB-006","program":"sota","name":"Monte Greco","coordinates":[13.9943,41.7983]},{"code":"I/AB-008","program":"sota","name":"Serra Rocca Chiarano","coordinates":[13.9613,41.817]},{"code":"I/AB-009","program":"sota","name":"Monte Marsicano Est","coordinates":[13.8705,41.8021]},{"code":"I/AB-012","program":"sota","name":"Cima della Terratta","coordinates":[13.8288,41.8912]},{"code":"I/AB-015","program":"sota","name":"Monte Genzana","coordinates":[13.8878,41.9478]},{"code":"I/AB-022","program":"sota","name":"Monte Palombo","coordinates":[13.8108,41.8439]},{"code":"I/AB-023","program":"sota","name":"Monte Godi","coordinates":[13.9071,41.8395]},{"code":"I/AB-026","program":"sota","name":"Monte di Valle Caprara","coordinates":[13.7543,41.8393]},{"code":"I/AB-027","program":"sota","name":"Serra Sparvera","coordinates":[13.9362,41.8919]},{"code":"I/AB-029","program":"sota","name":"Monte Pietra Gentile","coordinates":[13.7896,41.8831]},{"code":"I/AB-041","program":"sota","name":"Monte Amaro","coordinates":[13.8819,41.7662]},{"code":"I/AB-042","program":"sota","name":"Monte Tranquillo","coordinates":[13.7597,41.7581]},{"code":"I/AB-043","program":"sota","name":"La Camosciara","coordinates":[13.8974,41.7541]},{"code":"I/AB-050","program":"sota","name":"Monte Mezzana","coordinates":[13.7682,41.9868]},{"code":"I/AB-052","program":"sota","name":"Montagna di Preccia","coordinates":[13.9087,41.8769]},{"code":"I/AB-067","program":"sota","name":"Morrone del Diavolo","coordinates":[13.7531,41.8758]}]}