{"lat":41.75,"lon":-123.25,"programs":["sota"],"count":11,"references":[{"code":"W6/NW-079","program":"sota","name":"Scraggy Mountain","coordinates":[-123.0025,41.9607]},{"code":"W6/NW-096","program":"sota","name":"Red Butte","coordinates":[-123.1841,41.9299]},{"code":"W6/NW-103","program":"sota","name":"Kangaroo Mountain","coordinates":[-123.1994,41.9203]},{"code":"W6/NW-116","program":"sota","name":"White Mountain","coordinates":[-123.0568,41.9542]},{"code":"W6/NW-127","program":"sota","name":"Rattlesnake Mountain","coordinates":[-123.2392,41.9243]},{"code":"W6/NW-231","program":"sota","name":"Grider Ridge","coordinates":[-123.2472,41.7544]},{"code":"W6/NW-278","program":"sota","name":"Abney Butte","coordinates":[-123.1585,41.9762]},{"code":"W6/NW-292","program":"sota","name":"Johnny O'Neil Ridge","coordinates":[-123.1051,41.8346]},{"code":"W6/NW-297","program":"sota","name":"White Cloud Mountain","coordinates":[-123.0599,41.8705]},{"code":"W6/NW-328","program":"sota","name":"3855","coordinates":[-123.0651,41.7982]},{"code":"W6/NW-362","program":"sota","name":"3159","coordinates":[-123.1581,41.8439]}]}