{"lat":42,"lon":-84.25,"programs":["pota"],"count":8,"references":[{"code":"US-0350","program":"pota","name":"Michigan Wetland Management District","coordinates":[-84.238,42.238]},{"code":"US-1504","program":"pota","name":"Hayes State Park","coordinates":[-84.1287,42.0671]},{"code":"US-3307","program":"pota","name":"Cambridge Junction State Historical Park","coordinates":[-84.2229,42.062]},{"code":"US-3332","program":"pota","name":"Watkins Lake State Park","coordinates":[-84.138,42.1251]},{"code":"US-6693","program":"pota","name":"Grass Lake State Game Land","coordinates":[-84.2294,42.2467]},{"code":"US-6751","program":"pota","name":"Onsted State Game Land","coordinates":[-84.2453,42.0447]},{"code":"US-6779","program":"pota","name":"Schlee Waterfowl National Wildlife Management Area","coordinates":[-84.2375,42.2331]},{"code":"US-6781","program":"pota","name":"Sharonville State Game Land","coordinates":[-84.1622,42.1819]}]}