{"lat":42,"lon":-1.5,"programs":["gma","pota","sota"],"count":10,"references":[{"code":"EC/AR-032","program":"gma","name":"Punta la Negra","coordinates":[-1.30869997,42.07540131]},{"code":"EC/NA-019","program":"gma","name":"Ralla","coordinates":[-1.42320001,42.21609879]},{"code":"ES-0793","program":"pota","name":"Loma Negra Natura 2000","coordinates":[-1.3111,42.0806]},{"code":"ES-2363","program":"pota","name":"Loma la Negra - Bardenas National Park","coordinates":[-1.31905,42.0863]},{"code":"ES-0248","program":"pota","name":"Bardenas Reales Nature Park","coordinates":[-1.48206,42.1881]},{"code":"ES-0284","program":"pota","name":"Caidas de la Negra Nature Reserve","coordinates":[-1.34329,42.0457]},{"code":"ES-2043","program":"pota","name":"Las Bárdenas Reales de Navarra Biosphere Reserve","coordinates":[-1.48396,42.2079]},{"code":"ES-2276","program":"pota","name":"Rincón del Bu-La Nasa-Tripazul Natura 2000","coordinates":[-1.4393,42.1392]},{"code":"EA2/NV-159","program":"sota","name":"Nasa Alta","coordinates":[-1.3996,42.138]},{"code":"EA2/NV-185","program":"sota","name":"Loma Negra","coordinates":[-1.3763,42.0698]}]}