{"lat":42,"lon":-9,"programs":["iota","pota","sota","wwbota"],"count":11,"references":[{"code":"EU-080","program":"iota","name":"PONTEVEDRA PROVINCE group","coordinates":[-8.88500023,42.22500038]},{"code":"ES-0047","program":"pota","name":"Illas Cíes Natura 2000","coordinates":[-8.91251,42.2484]},{"code":"ES-1182","program":"pota","name":"A Ramallosa Natura 2000","coordinates":[-8.8191,42.1177]},{"code":"ES-1189","program":"pota","name":"Illas Estelas Natura 2000","coordinates":[-8.8597,42.15]},{"code":"ES-2302","program":"pota","name":"Fortaleza de Monreal Historic Site","coordinates":[-8.8502,42.1229]},{"code":"EA1/PO-015","program":"sota","name":"Gabiñeira","coordinates":[-8.83337,42.07145]},{"code":"EA1/PO-026","program":"sota","name":"Pedrada","coordinates":[-8.78425,42.00743]},{"code":"EA1/PO-029","program":"sota","name":"Outeiro Grande","coordinates":[-8.77426,42.16672]},{"code":"EA1/PO-037","program":"sota","name":"Alto das Cíes","coordinates":[-8.91251,42.24624]},{"code":"EA1/PO-044","program":"sota","name":"Pico do Castelo","coordinates":[-8.75777,42.13562]},{"code":"B/EA-0156","program":"wwbota","name":"Búnker Batería Costera J-4 Cabo Silleiro","coordinates":[-8.89352,42.10872]}]}