{"lat":42,"lon":8.5,"programs":["sota","wwbota"],"count":12,"references":[{"code":"TK/TK-063","program":"sota","name":"Capu di u Vitullu","coordinates":[8.693796,42.227604]},{"code":"TK/TK-074","program":"sota","name":"Capu d'Orto","coordinates":[8.702513,42.24199]},{"code":"TK/TK-089","program":"sota","name":"Capu di Calazzu","coordinates":[8.702658,42.185493]},{"code":"TK/TK-125","program":"sota","name":"Monte Ravu","coordinates":[8.611806,42.211872]},{"code":"TK/TK-128","program":"sota","name":"Capu di Bagliu","coordinates":[8.657618,42.156387]},{"code":"TK/TK-152","program":"sota","name":"Crête de Rizali","coordinates":[8.676721,42.12296]},{"code":"TK/TK-155","program":"sota","name":"Tour de Turghiu","coordinates":[8.552229,42.236534]},{"code":"TK/TK-158","program":"sota","name":"Erbaghiolu","coordinates":[8.571144,42.172558]},{"code":"TK/TK-160","program":"sota","name":"Capu a e Macenule","coordinates":[8.736663,42.219116]},{"code":"B/F-6413","program":"wwbota","name":"RINICCIU 1","coordinates":[8.721484,42.068157]},{"code":"B/F-6414","program":"wwbota","name":"RINICCIU 3","coordinates":[8.721574,42.067919]},{"code":"B/F-6415","program":"wwbota","name":"CARDICCIA","coordinates":[8.743634,42.041797]}]}