{"lat":42,"lon":-78,"programs":["pota","sota"],"count":5,"references":[{"code":"US-5257","program":"pota","name":"Plumbottom State Forest","coordinates":[-77.9595,42.2264]},{"code":"US-5356","program":"pota","name":"Vandermark State Forest","coordinates":[-77.8882,42.2164]},{"code":"US-9045","program":"pota","name":"Genesee River Wildlife Management Area","coordinates":[-77.9317,42.0498]},{"code":"US-12382","program":"pota","name":"WAG State Trail","coordinates":[-77.9272,42.0757]},{"code":"W2/WE-015","program":"sota","name":"Jericho Hill","coordinates":[-77.8118,42.2318]}]}