{"lat":42,"lon":-122,"programs":["pota","sota"],"count":10,"references":[{"code":"US-10008","program":"pota","name":"Klamath Hills BLM Recreation Management Area","coordinates":[-121.754,42.0609]},{"code":"US-12949","program":"pota","name":"Klamath State Fish and Wildlife Area","coordinates":[-121.81,42.1554]},{"code":"W7O/CE-051","program":"sota","name":"Hamaker Mountain","coordinates":[-121.9721,42.0687]},{"code":"W7O/CE-073","program":"sota","name":"Chase Mountain","coordinates":[-121.9941,42.0947]},{"code":"W7O/CE-145","program":"sota","name":"Pearson Butte","coordinates":[-121.9008,42.0622]},{"code":"W7O/CE-152","program":"sota","name":"Indian Spring Ridge","coordinates":[-121.9284,42.1766]},{"code":"W7O/CE-172","program":"sota","name":"Klamath Hills HP","coordinates":[-121.7691,42.0801]},{"code":"W7O/CE-189","program":"sota","name":"Link 2 Benchmark","coordinates":[-121.8187,42.2234]},{"code":"W7O/CE-204","program":"sota","name":"Miller Hill","coordinates":[-121.7719,42.1452]},{"code":"W7O/CE-289","program":"sota","name":"4999","coordinates":[-121.8867,42.2298]}]}