{"lat":42,"lon":23,"programs":["gma","pota"],"count":42,"references":[{"code":"LZM/RI-023","program":"gma","name":"Golyam Polich","coordinates":[23.245976,42.181469]},{"code":"LZM/RI-035","program":"gma","name":"Ashiklarski vrah","coordinates":[23.245214,42.206253]},{"code":"LZM/RI-054","program":"gma","name":"Cherni vrah","coordinates":[23.218832,42.209861]},{"code":"LZM/RI-057","program":"gma","name":"Mali Polich","coordinates":[23.196731,42.182216]},{"code":"LZM/RI-078","program":"gma","name":"Karaula","coordinates":[23.195186,42.167459]},{"code":"LZM/RI-080","program":"gma","name":"Golyama Sivriya","coordinates":[23.231149,42.241418]},{"code":"LZM/RI-084","program":"gma","name":"Derizmiitsa","coordinates":[23.237629,42.093318]},{"code":"LZM/RI-086","program":"gma","name":"Shamatsite","coordinates":[23.210067,42.221502]},{"code":"LZM/RI-088","program":"gma","name":"Bogdaya","coordinates":[23.162506,42.198926]},{"code":"LZM/RI-089","program":"gma","name":"Konarnika","coordinates":[23.194113,42.216361]},{"code":"LZM/RI-090","program":"gma","name":"Malka Sivriya","coordinates":[23.228402,42.247152]},{"code":"LZM/RI-098","program":"gma","name":"Fakiro","coordinates":[23.199306,42.098636]},{"code":"LZM/RI-101","program":"gma","name":"Slivarnika","coordinates":[23.161658,42.212913]},{"code":"LZM/RI-121","program":"gma","name":"Kalaydzhiyski kamak","coordinates":[23.162012,42.161304]},{"code":"LZM/RI-129","program":"gma","name":"Malko preslo","coordinates":[23.164061,42.224426]},{"code":"LZM/RI-130","program":"gma","name":"Goren Samovilyak","coordinates":[23.206344,42.24631]},{"code":"LZM/RI-134","program":"gma","name":"Prashka","coordinates":[23.180938,42.092092]},{"code":"LZM/RI-144","program":"gma","name":"Golyamata mogila","coordinates":[23.19113,42.237391]},{"code":"LZM/RI-150","program":"gma","name":"Kyorova chuka","coordinates":[23.231535,42.025642]},{"code":"LZM/RI-157","program":"gma","name":"Gospodina","coordinates":[23.156819,42.109112]},{"code":"LZM/RI-163","program":"gma","name":"Vardishte","coordinates":[23.217309,42.004495]},{"code":"LZM/RI-169","program":"gma","name":"Carkvishteto","coordinates":[23.214669,42.018724]},{"code":"LZM/RI-178","program":"gma","name":"Katsarski rid","coordinates":[23.121516,42.192658]},{"code":"LZM/RI-179","program":"gma","name":"Tuzluka","coordinates":[23.151777,42.229395]},{"code":"LZM/RI-180","program":"gma","name":"Stobska chuka","coordinates":[23.149695,42.076342]},{"code":"LZM/RI-181","program":"gma","name":"Dzhirovnik","coordinates":[23.146305,42.143248]},{"code":"LZM/RI-189","program":"gma","name":"Sredniya chukar","coordinates":[23.156272,42.03468]},{"code":"LZM/RI-190","program":"gma","name":"Orlovski chukar","coordinates":[23.128989,42.025164]},{"code":"LZM/RI-191","program":"gma","name":"Mominski rid","coordinates":[23.127004,42.098147]},{"code":"LZM/RI-195","program":"gma","name":"Melo","coordinates":[23.084807,42.160413]},{"code":"LZM/RI-196","program":"gma","name":"Stefanitsa","coordinates":[23.09912,42.188322]},{"code":"LZM/RI-201","program":"gma","name":"Borovets","coordinates":[23.074722,42.176349]},{"code":"LZM/RI-202","program":"gma","name":"Bara","coordinates":[23.059267,42.138319]},{"code":"LZM/RI-204","program":"gma","name":"Gradishteto","coordinates":[23.088069,42.048687]},{"code":"LZM/RI-205","program":"gma","name":"Goryaloto","coordinates":[23.1003,42.031779]},{"code":"LZM/RI-207","program":"gma","name":"Bozburun","coordinates":[23.081846,42.069016]},{"code":"LZM/RI-208","program":"gma","name":"Elenov vrah","coordinates":[23.046902,42.108465]},{"code":"LZM/RI-209","program":"gma","name":"Gradishte","coordinates":[23.051457,42.101604]},{"code":"LZM/VL-041","program":"gma","name":"Virishte","coordinates":[23.003418,42.112598]},{"code":"LZM/VL-044","program":"gma","name":"Stubel","coordinates":[23.011701,42.119665]},{"code":"LZM/VL-045","program":"gma","name":"Padarnitsa","coordinates":[23.012216,42.102136]},{"code":"BG-0113","program":"pota","name":"Bachinovo Recreation Park","coordinates":[23.1254,42.0338]}]}