{"lat":42,"lon":-73.75,"programs":["pota","sota"],"count":7,"references":[{"code":"US-2094","program":"pota","name":"Lake Taghkanic State Park","coordinates":[-73.7134,42.0954]},{"code":"US-2148","program":"pota","name":"Taconic State Park","coordinates":[-73.5196,42.1209]},{"code":"US-5277","program":"pota","name":"Roeliff Jansen Kill Multiple Use Area","coordinates":[-73.7363,42.0072]},{"code":"US-9126","program":"pota","name":"Doodletown Wildlife Management Area","coordinates":[-73.6467,42.0769]},{"code":"US-12313","program":"pota","name":"New Forge State Forest","coordinates":[-73.6728,42.1058]},{"code":"W2/EH-009","program":"sota","name":"Scutt Hill","coordinates":[-73.5422,42.1666]},{"code":"W2/EH-010","program":"sota","name":"1145","coordinates":[-73.6448,42.0873]}]}