{"lat":42,"lon":-3.5,"programs":["pota","sota"],"count":8,"references":[{"code":"ES-0419","program":"pota","name":"Riberas del rio Arlanza y afluentes Natura 2000","coordinates":[-3.3551,42.0543]},{"code":"EA1/BU-007","program":"sota","name":"Mencilla","coordinates":[-3.31229,42.18591]},{"code":"EA1/BU-013","program":"sota","name":"La Cerca","coordinates":[-3.37856,42.24551]},{"code":"EA1/BU-021","program":"sota","name":"Casarejo","coordinates":[-3.43006,42.18199]},{"code":"EA1/BU-033","program":"sota","name":"Peña Mayor","coordinates":[-3.30614,42.13829]},{"code":"EA1/BU-039","program":"sota","name":"Gayubar","coordinates":[-3.37996,42.0308]},{"code":"EA1/BU-040","program":"sota","name":"Peñalara","coordinates":[-3.47364,42.13158]},{"code":"EA1/BU-089","program":"sota","name":"Alto de Pedernales","coordinates":[-3.43479,42.00641]}]}