{"lat":42,"lon":0,"programs":["pota","sota"],"count":6,"references":[{"code":"ES-1816","program":"pota","name":"Camino Natural del Somontano de Barbastro National Recreation Trail","coordinates":[0.136206,42.0394]},{"code":"EA2/HU-250","program":"sota","name":"Peñarrueba","coordinates":[0.12369,42.24623]},{"code":"EA2/HU-265","program":"sota","name":"Tozal de Alquézar","coordinates":[0.02883,42.20253]},{"code":"EA2/HU-267","program":"sota","name":"Platiello","coordinates":[0.11939,42.1824]},{"code":"EA2/HU-280","program":"sota","name":"Pisa","coordinates":[0.15358,42.16631]},{"code":"EA2/HU-282","program":"sota","name":"Tozal de Bolturina","coordinates":[0.24979,42.16315]}]}