{"lat":42,"lon":-74.5,"programs":["pota","sota"],"count":15,"references":[{"code":"US-8070","program":"pota","name":"Catskill State Park","coordinates":[-74.2697,42.0277]},{"code":"US-9133","program":"pota","name":"Vinegar Hill Wildlife Management Area","coordinates":[-74.4077,42.2449]},{"code":"W2/GC-004","program":"sota","name":"West Kill Mountain","coordinates":[-74.29,42.1678]},{"code":"W2/GC-009","program":"sota","name":"North Dome","coordinates":[-74.3494,42.1736]},{"code":"W2/GC-057","program":"sota","name":"Rusk Mountain","coordinates":[-74.2774,42.2008]},{"code":"W2/GC-060","program":"sota","name":"Sherrill; Mount","coordinates":[-74.3733,42.1756]},{"code":"W2/GC-061","program":"sota","name":"Halcott Mountain","coordinates":[-74.4383,42.18]},{"code":"W2/GC-062","program":"sota","name":"Vly Mountain","coordinates":[-74.4488,42.2457]},{"code":"W2/GC-067","program":"sota","name":"3150","coordinates":[-74.3331,42.2202]},{"code":"W2/GC-069","program":"sota","name":"3110 B","coordinates":[-74.3593,42.2177]},{"code":"W2/GC-102","program":"sota","name":"Cornell Mountain","coordinates":[-74.3574,42.0016]},{"code":"W2/GC-105","program":"sota","name":"Panther Mountain","coordinates":[-74.3947,42.0563]},{"code":"W2/GC-106","program":"sota","name":"Big Indian Mountain","coordinates":[-74.497,42.035]},{"code":"W2/GC-107","program":"sota","name":"Balsam Mountain","coordinates":[-74.4885,42.0908]},{"code":"W2/GC-113","program":"sota","name":"Rose Mountain","coordinates":[-74.4383,42.1506]}]}