{"lat":42,"lon":22.5,"programs":["gma","pota","sota"],"count":39,"references":[{"code":"LZM/OS-001","program":"gma","name":"Ruen","coordinates":[22.516262,42.158019]},{"code":"LZM/OS-002","program":"gma","name":"Shapka","coordinates":[22.537116,42.16705]},{"code":"LZM/OS-003","program":"gma","name":"Gorna Sulumka","coordinates":[22.537787,42.158755]},{"code":"LZM/OS-004","program":"gma","name":"Tsarni kamak","coordinates":[22.556316,42.173646]},{"code":"LZM/OS-005","program":"gma","name":"Baltadzhiynitsa","coordinates":[22.52495,42.143555]},{"code":"LZM/OS-006","program":"gma","name":"Dolna Sulumka","coordinates":[22.556906,42.156616]},{"code":"LZM/OS-007","program":"gma","name":"Kyunek","coordinates":[22.608114,42.199466]},{"code":"LZM/OS-008","program":"gma","name":"Gorna chuka","coordinates":[22.588298,42.170069]},{"code":"LZM/OS-009","program":"gma","name":"Carnotrav","coordinates":[22.585412,42.226261]},{"code":"LZM/OS-010","program":"gma","name":"Kulitsite","coordinates":[22.578208,42.184283]},{"code":"LZM/OS-011","program":"gma","name":"Darilova chuka","coordinates":[22.572398,42.193982]},{"code":"LZM/OS-012","program":"gma","name":"Groba","coordinates":[22.568015,42.148845]},{"code":"LZM/OS-013","program":"gma","name":"Bazovinek","coordinates":[22.519156,42.210179]},{"code":"LZM/OS-014","program":"gma","name":"Dolna chuka","coordinates":[22.596238,42.165419]},{"code":"LZM/OS-015","program":"gma","name":"Koprivata","coordinates":[22.595283,42.105172]},{"code":"LZM/OS-016","program":"gma","name":"Gledetsa","coordinates":[22.583959,42.141146]},{"code":"LZM/OS-017","program":"gma","name":"Plavilo","coordinates":[22.631342,42.191971]},{"code":"LZM/OS-018","program":"gma","name":"Siva kobila","coordinates":[22.642833,42.086105]},{"code":"LZM/OS-019","program":"gma","name":"Trite buki","coordinates":[22.624028,42.176599]},{"code":"LZM/OS-020","program":"gma","name":"Chukata","coordinates":[22.623843,42.134664]},{"code":"LZM/OS-021","program":"gma","name":"Dobrostitsa","coordinates":[22.54596,42.233886]},{"code":"LZM/OS-022","program":"gma","name":"Echemika","coordinates":[22.609456,42.236096]},{"code":"LZM/OS-023","program":"gma","name":"Kostina chuka","coordinates":[22.689584,42.131573]},{"code":"LZM/OS-024","program":"gma","name":"Vikaloto","coordinates":[22.548805,42.226412]},{"code":"LZM/OS-025","program":"gma","name":"Dzidinya","coordinates":[22.624803,42.223584]},{"code":"LZM/OS-026","program":"gma","name":"Ormochi rid","coordinates":[22.66457,42.141256]},{"code":"LZM/OS-027","program":"gma","name":"Pamuka","coordinates":[22.644689,42.219146]},{"code":"LZM/OS-028","program":"gma","name":"Ortachki rid","coordinates":[22.66134,42.127336]},{"code":"LZM/OS-029","program":"gma","name":"Popov chukar","coordinates":[22.696316,42.113075]},{"code":"LZM/OS-030","program":"gma","name":"Groba","coordinates":[22.657188,42.241148]},{"code":"LZM/OS-031","program":"gma","name":"Gloka","coordinates":[22.701166,42.18519]},{"code":"LZM/OS-032","program":"gma","name":"Granichka chuka","coordinates":[22.706096,42.205693]},{"code":"LZM/OS-033","program":"gma","name":"Popova livada","coordinates":[22.643852,42.240667]},{"code":"LZM/OS-034","program":"gma","name":"Graovska chuka","coordinates":[22.671061,42.111088]},{"code":"BG-0073","program":"pota","name":"Tsarna Reka Nature Reserve","coordinates":[22.5725,42.158]},{"code":"LZ/OB-001","program":"sota","name":"Choveka","coordinates":[22.5861,42.2021]},{"code":"LZ/OB-005","program":"sota","name":"Cherni vrah","coordinates":[22.6457,42.1608]},{"code":"LZ/OB-008","program":"sota","name":"Beltok","coordinates":[22.7043,42.1543]},{"code":"Z3/EM-001","program":"sota","name":"Ruen","coordinates":[22.516,42.158]}]}