{"lat":42,"lon":-7,"programs":["gma","pota","sota"],"count":12,"references":[{"code":"XEA1/ZA-005","program":"gma","name":"Cumbre de la Laguna","coordinates":[-6.82210016,42.08110046]},{"code":"ES-0440","program":"pota","name":"Riberas del rio Tuela y afluentes National Park","coordinates":[-6.8998,42.0333]},{"code":"ES-0443","program":"pota","name":"Tejedelo Natura 2000","coordinates":[-6.7923,42.0204]},{"code":"ES-0448","program":"pota","name":"Lago de Sanabria y alrededores Natura 2000","coordinates":[-6.8197,42.1491]},{"code":"ES-0450","program":"pota","name":"Riberas del rio Tuela y afluentes Natura 2000","coordinates":[-6.8998,42.0333]},{"code":"ES-2094","program":"pota","name":"Peña Trevinca Natura 2000","coordinates":[-6.99598,42.1706]},{"code":"EA1/OU-001","program":"sota","name":"Peña Trevinca","coordinates":[-6.7961,42.24236]},{"code":"EA1/OU-045","program":"sota","name":"O Fial","coordinates":[-6.85464,42.23287]},{"code":"EA1/ZA-003","program":"sota","name":"Moncalvo","coordinates":[-6.8089,42.19819]},{"code":"EA1/ZA-004","program":"sota","name":"Gamoneda","coordinates":[-6.85471,42.01838]},{"code":"EA1/ZA-006","program":"sota","name":"Alto de Marabón","coordinates":[-6.95747,42.02517]},{"code":"EA1/ZA-014","program":"sota","name":"Cumbre de la Laguna","coordinates":[-6.8309,42.08341]}]}