{"lat":42,"lon":23.75,"programs":["gma","pota","sota"],"count":59,"references":[{"code":"LZM/RI-049","program":"gma","name":"Cherveni vrah","coordinates":[23.762028,42.192345]},{"code":"LZM/RI-056","program":"gma","name":"Sungurlichal","coordinates":[23.793729,42.180588]},{"code":"LZM/RI-062","program":"gma","name":"Plevnyata","coordinates":[23.799758,42.197029]},{"code":"LZM/RI-063","program":"gma","name":"Ortachal","coordinates":[23.761472,42.157048]},{"code":"LZM/RI-068","program":"gma","name":"Ushite","coordinates":[23.826036,42.160972]},{"code":"LZM/RI-075","program":"gma","name":"Shpanyovitsa","coordinates":[23.823018,42.206169]},{"code":"LZM/RI-079","program":"gma","name":"Cherkezina","coordinates":[23.883808,42.134047]},{"code":"LZM/RI-091","program":"gma","name":"Karatepe","coordinates":[23.792202,42.079878]},{"code":"LZM/RI-092","program":"gma","name":"Chemerishka chuka","coordinates":[23.898477,42.150803]},{"code":"LZM/RI-096","program":"gma","name":"Goryalata skala","coordinates":[23.82591,42.215305]},{"code":"LZM/RI-102","program":"gma","name":"Temiyte","coordinates":[23.920538,42.164989]},{"code":"LZM/RI-109","program":"gma","name":"Vaklinski vrah","coordinates":[23.800206,42.047492]},{"code":"LZM/RI-111","program":"gma","name":"Baritsa","coordinates":[23.917644,42.177621]},{"code":"LZM/RI-122","program":"gma","name":"Krivaka","coordinates":[23.773427,42.056271]},{"code":"LZM/RI-136","program":"gma","name":"Pladnishte","coordinates":[23.850068,42.217161]},{"code":"LZM/RI-140","program":"gma","name":"Parnevo","coordinates":[23.954401,42.152714]},{"code":"LZM/RI-158","program":"gma","name":"Ostrata skala","coordinates":[23.835826,42.247597]},{"code":"LZM/RI-162","program":"gma","name":"Koritata","coordinates":[23.943458,42.182964]},{"code":"LZM/RI-172","program":"gma","name":"Yalovarnika","coordinates":[23.89153,42.217196]},{"code":"LZM/RI-173","program":"gma","name":"Varnitsite","coordinates":[23.96734,42.173479]},{"code":"LZM/RI-176","program":"gma","name":"Manchova mogila","coordinates":[23.863957,42.246354]},{"code":"LZM/RI-185","program":"gma","name":"Klinchova niva","coordinates":[23.944895,42.196541]},{"code":"LZM/RI-197","program":"gma","name":"Trifonov vrah","coordinates":[23.90739,42.244707]},{"code":"LZM/SD-055","program":"gma","name":"Genovo tepe","coordinates":[23.991045,42.240107]},{"code":"LZM/WR-015","program":"gma","name":"Belite skali","coordinates":[23.919039,42.068852]},{"code":"LZM/WR-018","program":"gma","name":"Sredniya chal","coordinates":[23.915906,42.072992]},{"code":"LZM/WR-033","program":"gma","name":"Dolniya chal","coordinates":[23.916284,42.080791]},{"code":"LZM/WR-079","program":"gma","name":"Mehmedova chuka","coordinates":[23.876123,42.055897]},{"code":"LZM/WR-102","program":"gma","name":"Glavitsa","coordinates":[23.917352,42.09556]},{"code":"LZM/WR-117","program":"gma","name":"Cheylyak tepe","coordinates":[23.943345,42.118095]},{"code":"LZM/WR-130","program":"gma","name":"Elin vrah","coordinates":[23.959326,42.067969]},{"code":"LZM/WR-152","program":"gma","name":"Garvanova chuka","coordinates":[23.961254,42.094334]},{"code":"LZM/WR-160","program":"gma","name":"Kurshum tepe","coordinates":[23.989549,42.128715]},{"code":"LZM/WR-177","program":"gma","name":"Suha mogila","coordinates":[23.972273,42.131737]},{"code":"LZM/WR-179","program":"gma","name":"Mangova mogila","coordinates":[23.792371,42.01917]},{"code":"LZM/WR-186","program":"gma","name":"Imaneto","coordinates":[23.784695,42.012231]},{"code":"LZM/WR-223","program":"gma","name":"Borovinska mogila","coordinates":[23.822753,42.031332]},{"code":"LZM/WR-251","program":"gma","name":"Pepelyanov vrah","coordinates":[23.866231,42.035189]},{"code":"LZM/WR-255","program":"gma","name":"Yumerov vrah","coordinates":[23.886863,42.032444]},{"code":"LZM/WR-259","program":"gma","name":"Amdzova chuka","coordinates":[23.987969,42.096982]},{"code":"LZM/WR-282","program":"gma","name":"Vudnikov vrah","coordinates":[23.907642,42.019845]},{"code":"LZM/WR-284","program":"gma","name":"Malak Ostrets","coordinates":[23.957,42.004964]},{"code":"LZM/WR-285","program":"gma","name":"Yuruchka mogila","coordinates":[23.84413,42.029209]},{"code":"LZM/WR-289","program":"gma","name":"Magerova mogila","coordinates":[23.854341,42.000018]},{"code":"LZM/WR-292","program":"gma","name":"Kuvikal","coordinates":[23.980703,42.155715]},{"code":"LZM/WR-307","program":"gma","name":"Chukata","coordinates":[23.985901,42.079022]},{"code":"LZM/WR-322","program":"gma","name":"Mangov len","coordinates":[23.963622,42.01494]},{"code":"LZM/WR-324","program":"gma","name":"Markova mogila","coordinates":[23.994881,42.165497]},{"code":"LZM/WR-338","program":"gma","name":"Golata chuka","coordinates":[23.992923,42.063414]},{"code":"LZM/WR-340","program":"gma","name":"Stoilovoto","coordinates":[23.956,42.040293]},{"code":"LZM/WR-367","program":"gma","name":"Sveti Spas","coordinates":[23.994355,42.180283]},{"code":"BG-0114","program":"pota","name":"Kleptuza Protected Area","coordinates":[23.983,42.0008]},{"code":"LZ/RL-020","program":"sota","name":"Belmeken","coordinates":[23.7715,42.1804]},{"code":"LZ/RL-029","program":"sota","name":"Slavov vrah","coordinates":[23.8161,42.138]},{"code":"LZ/RL-030","program":"sota","name":"Balabanitsa","coordinates":[23.859,42.1273]},{"code":"LZ/RO-027","program":"sota","name":"Arapchal (Chernyovets)","coordinates":[23.9103,42.0694]},{"code":"LZ/RO-053","program":"sota","name":"Soarev vrah","coordinates":[23.9609,42.1118]},{"code":"LZ/RO-057","program":"sota","name":"Cheylyaktepe","coordinates":[23.9431,42.1177]},{"code":"LZ/RO-083","program":"sota","name":"Ostrets","coordinates":[23.9372,42.0076]}]}