{"lat":42,"lon":13.5,"programs":["pota","sota"],"count":15,"references":[{"code":"IT-0629","program":"pota","name":"Parco Regionale Naturale del Sirente - Velino Regional Park","coordinates":[13.5905,42.1585]},{"code":"I/AB-005","program":"sota","name":"Monte Sirente","coordinates":[13.6109,42.1452]},{"code":"I/AB-035","program":"sota","name":"Serra di Celano","coordinates":[13.5529,42.1024]},{"code":"I/AB-046","program":"sota","name":"Monte Etra","coordinates":[13.5859,42.1101]},{"code":"I/AB-048","program":"sota","name":"Monte delle Canelle","coordinates":[13.5008,42.1693]},{"code":"I/AB-058","program":"sota","name":"Monte Faito","coordinates":[13.5344,42.1147]},{"code":"I/AB-070","program":"sota","name":"Pizzo d'Ovindoli","coordinates":[13.5196,42.1283]},{"code":"I/AB-072","program":"sota","name":"Capo di Via Traversa","coordinates":[13.561,42.1934]},{"code":"I/AB-076","program":"sota","name":"Monte della Cerreta","coordinates":[13.5684,42.2082]},{"code":"I/AB-077","program":"sota","name":"Monte Ventrino","coordinates":[13.6928,42.0742]},{"code":"I/AB-078","program":"sota","name":"Monte Secino","coordinates":[13.5811,42.0963]},{"code":"I/AB-082","program":"sota","name":"Monte Faito","coordinates":[13.7026,42.0006]},{"code":"I/AB-085","program":"sota","name":"Monte Castello","coordinates":[13.6425,42.1661]},{"code":"I/AB-100","program":"sota","name":"Monte Offermo","coordinates":[13.6807,42.2191]},{"code":"I/AB-111","program":"sota","name":"Colle Palombo","coordinates":[13.6722,42.1658]}]}