{"lat":42,"lon":-74.75,"programs":["pota","sota"],"count":12,"references":[{"code":"US-5694","program":"pota","name":"Balsam Lake Mountain Wild State Forest","coordinates":[-74.6009,42.0243]},{"code":"US-8076","program":"pota","name":"Big Indian Wilderness State Conservation Area","coordinates":[-74.6224,42.0117]},{"code":"W2/GC-005","program":"sota","name":"Doubletop Mountain","coordinates":[-74.5284,42.0273]},{"code":"W2/GC-012","program":"sota","name":"Pisgah; Mount","coordinates":[-74.7362,42.221]},{"code":"W2/GC-022","program":"sota","name":"Dry Brook Ridge","coordinates":[-74.6045,42.1129]},{"code":"W2/GC-028","program":"sota","name":"Red Kill Ridge","coordinates":[-74.5385,42.2289]},{"code":"W2/GC-030","program":"sota","name":"3010 B","coordinates":[-74.6489,42.2158]},{"code":"W2/GC-034","program":"sota","name":"Fleischmann Mountain","coordinates":[-74.5642,42.1433]},{"code":"W2/GC-042","program":"sota","name":"Hog Mountain","coordinates":[-74.5719,42.1822]},{"code":"W2/GC-103","program":"sota","name":"Graham Mountain","coordinates":[-74.5496,42.0394]},{"code":"W2/GC-108","program":"sota","name":"Eagle Mountain","coordinates":[-74.5096,42.0616]},{"code":"W2/GC-109","program":"sota","name":"Belle Ayr Mountain","coordinates":[-74.5195,42.1286]}]}