{"lat":42,"lon":-74,"programs":["pota"],"count":7,"references":[{"code":"US-5351","program":"pota","name":"Turkey Point State Forest","coordinates":[-73.9433,42.0134]},{"code":"US-8072","program":"pota","name":"Bristol Beach State Park","coordinates":[-73.9318,42.1091]},{"code":"US-8079","program":"pota","name":"Tivoli Bays Wildlife Management Area","coordinates":[-73.9067,42.0462]},{"code":"US-8080","program":"pota","name":"Great Vly Wildlife Management Area","coordinates":[-73.945,42.143]},{"code":"US-9131","program":"pota","name":"Rogers Island Wildlife Management Area","coordinates":[-73.8465,42.2229]},{"code":"US-10037","program":"pota","name":"Clermont State Historic Site","coordinates":[-73.9118,42.0851]},{"code":"US-10051","program":"pota","name":"Olana State Historic Site","coordinates":[-73.8352,42.2084]}]}