{"lat":42,"lon":140.25,"programs":["pota","sota"],"count":13,"references":[{"code":"JP-1023","program":"pota","name":"Volcano Bay Panorama Prefectural Park","coordinates":[140.314,42.2268]},{"code":"JA8/HY-006","program":"sota","name":"Otobedake","coordinates":[140.2746,42.0394]},{"code":"JA8/HY-013","program":"sota","name":"Kiyomizawa","coordinates":[140.3231,42.0389]},{"code":"JA8/HY-022","program":"sota","name":"Uchidodake","coordinates":[140.358,42.0118]},{"code":"JA8/OM-011","program":"sota","name":"Kushindake","coordinates":[140.4324,42.0588]},{"code":"JA8/OM-012","program":"sota","name":"Katsuragawamaeyama","coordinates":[140.4504,42.0547]},{"code":"JA8/OM-024","program":"sota","name":"Kamabetsu","coordinates":[140.4088,42.0329]},{"code":"JA8/OM-032","program":"sota","name":"Nodaoidake","coordinates":[140.3076,42.1134]},{"code":"JA8/OM-037","program":"sota","name":"Kenashiyama","coordinates":[140.4705,42.0877]},{"code":"JA8/OM-049","program":"sota","name":"JA8/OM-049","coordinates":[140.3816,42.0707]},{"code":"JA8/OM-061","program":"sota","name":"Saketaniyama","coordinates":[140.2989,42.186]},{"code":"JA8/OM-063","program":"sota","name":"Otoshibe","coordinates":[140.4009,42.1525]},{"code":"JA8/OM-072","program":"sota","name":"JA8/OM-072","coordinates":[140.2661,42.0679]}]}