{"lat":42,"lon":8.75,"programs":["pota","sota"],"count":14,"references":[{"code":"FR-3093","program":"pota","name":"LAC DE CRENO FR9402008 Natura 2000","coordinates":[8.94667,42.2039]},{"code":"TK/TK-023","program":"sota","name":"Cimatella","coordinates":[8.943703,42.235947]},{"code":"TK/TK-043","program":"sota","name":"Monte Cervellu","coordinates":[8.897247,42.14138]},{"code":"TK/TK-049","program":"sota","name":"Punta Tirulellu","coordinates":[8.985073,42.011353]},{"code":"TK/TK-052","program":"sota","name":"Monte Sant'Eliseo","coordinates":[8.942898,42.200523]},{"code":"TK/TK-053","program":"sota","name":"L'Incinosa ou Chieragella","coordinates":[8.848602,42.21992]},{"code":"TK/TK-056","program":"sota","name":"Bocca Larga","coordinates":[8.866798,42.156967]},{"code":"TK/TK-072","program":"sota","name":"Capu Sant'Anghiulu","coordinates":[8.819629,42.22186]},{"code":"TK/TK-073","program":"sota","name":"Punta Sant'Eliseo","coordinates":[8.876562,42.056576]},{"code":"TK/TK-093","program":"sota","name":"Capu a u Monte","coordinates":[8.755497,42.24133]},{"code":"TK/TK-101","program":"sota","name":"Punta di e Saltelle","coordinates":[8.758405,42.133373]},{"code":"TK/TK-109","program":"sota","name":"Punta di a Cuma","coordinates":[8.78807,42.153893]},{"code":"TK/TK-111","program":"sota","name":"Punta san Sisto","coordinates":[8.792018,42.022686]},{"code":"TK/TK-165","program":"sota","name":"Punta Alsivisu","coordinates":[8.8321,42.095]}]}