{"lat":42,"lon":-79.75,"programs":["pota"],"count":8,"references":[{"code":"US-5135","program":"pota","name":"Brokenstraw State Forest","coordinates":[-79.5276,42.0229]},{"code":"US-5169","program":"pota","name":"Chautauqua Gorge State Forest","coordinates":[-79.5872,42.24]},{"code":"US-5217","program":"pota","name":"North Harmony State Forest","coordinates":[-79.5125,42.0974]},{"code":"US-5235","program":"pota","name":"Panama State Forest","coordinates":[-79.5013,42.0474]},{"code":"US-5367","program":"pota","name":"Whalen Memorial State Forest","coordinates":[-79.5069,42.1262]},{"code":"US-5430","program":"pota","name":"Mount Pleasant State Forest","coordinates":[-79.5466,42.1991]},{"code":"US-9036","program":"pota","name":"Alder Bottom Wildlife Management Area","coordinates":[-79.5936,42.1032]},{"code":"US-9053","program":"pota","name":"Jacquins Pond Wildlife Management Area","coordinates":[-79.5921,42.013]}]}