{"lat":42,"lon":22,"programs":["pota","sota"],"count":12,"references":[{"code":"MK-0007","program":"pota","name":"Ploche litotelmi Nature Reserve","coordinates":[22.0295,42.1591]},{"code":"MK-0026","program":"pota","name":"Kuklica, Kratovo Natural Monument","coordinates":[22.0379,42.1203]},{"code":"MK-0049","program":"pota","name":"Karshi bavchi, Kratovo Protected Area","coordinates":[22.1786,42.0765]},{"code":"MK-0094","program":"pota","name":"Lesnovo monastery, crna dudinka Protected Area","coordinates":[22.2281,42.0131]},{"code":"Z3/EM-027","program":"sota","name":"Lisec, 2","coordinates":[22.2137,42.1263]},{"code":"Z3/EM-030","program":"sota","name":"Uvo","coordinates":[22.2308,42.057]},{"code":"Z3/EM-039","program":"sota","name":"Plavica","coordinates":[22.1796,42.0501]},{"code":"Z3/EM-044","program":"sota","name":"Golem Rid","coordinates":[22.2402,42.0869]},{"code":"Z3/EM-049","program":"sota","name":"Crni Vrv","coordinates":[22.1152,42.0323]},{"code":"Z3/EM-055","program":"sota","name":"Asanica","coordinates":[22.0008,42.0194]},{"code":"Z3/EM-060","program":"sota","name":"Visoki Rid","coordinates":[22.0481,42.1343]},{"code":"Z3/EM-064","program":"sota","name":"Dudarova Korija","coordinates":[22.1051,42.0849]}]}