{"lat":42,"lon":-8.75,"programs":["pota","sota"],"count":10,"references":[{"code":"PT-0109","program":"pota","name":"Rio Minho Natura 2000","coordinates":[-8.59641,42.0535]},{"code":"ES-0197","program":"pota","name":"Monte Aloia Nature Park","coordinates":[-8.6803,42.078]},{"code":"ES-1188","program":"pota","name":"Gandaras de Budino Natura 2000","coordinates":[-8.6291,42.0622]},{"code":"ES-1954","program":"pota","name":"Monte Aloia Natura 2000","coordinates":[-8.6883,42.0709]},{"code":"EA1/PO-011","program":"sota","name":"Galleiro","coordinates":[-8.56873,42.23519]},{"code":"EA1/PO-013","program":"sota","name":"Galiñeiro","coordinates":[-8.69868,42.12766]},{"code":"EA1/PO-019","program":"sota","name":"Monte Aloia","coordinates":[-8.68078,42.08177]},{"code":"EA1/PO-030","program":"sota","name":"Penedo Corucho","coordinates":[-8.58038,42.14884]},{"code":"EA1/PO-033","program":"sota","name":"Cepudo","coordinates":[-8.73433,42.17033]},{"code":"EA1/PO-041","program":"sota","name":"Pedra Fifa","coordinates":[-8.57336,42.21591]}]}