{"lat":42,"lon":-73,"programs":["pota"],"count":9,"references":[{"code":"US-6874","program":"pota","name":"Tunxis State Forest","coordinates":[-72.969,42.016]},{"code":"US-12460","program":"pota","name":"Suffield Wildlife Management Area","coordinates":[-72.7512,42.0358]},{"code":"US-4703","program":"pota","name":"Granville State Forest","coordinates":[-72.9722,42.0599]},{"code":"US-4714","program":"pota","name":"Chester-Blandford State Forest","coordinates":[-72.9508,42.24]},{"code":"US-11447","program":"pota","name":"Stage Brook Wildlife Management Area","coordinates":[-72.8877,42.1805]},{"code":"US-11449","program":"pota","name":"Tekoa Mountain Wildlife Management Area","coordinates":[-72.8336,42.1995]},{"code":"US-11469","program":"pota","name":"Honey Pot Wildlife Management Area","coordinates":[-72.8189,42.0953]},{"code":"US-11491","program":"pota","name":"Westfield Wildlife Management Area","coordinates":[-72.8211,42.114]},{"code":"US-13234","program":"pota","name":"Bungy Mountain Wildlife Management Area","coordinates":[-72.8056,42.2227]}]}