{"lat":42,"lon":21,"programs":["pota","sota"],"count":7,"references":[{"code":"MK-0051","program":"pota","name":"Jasika, Jegunovce Protected Area","coordinates":[21.0994,42.0341]},{"code":"MK-0090","program":"pota","name":"Dona Duka Cave, Rashce Protected Area","coordinates":[21.2384,42.0266]},{"code":"Z3/WM-010","program":"sota","name":"Ljuboten","coordinates":[21.1194,42.2066]},{"code":"Z3/WM-043","program":"sota","name":"Golem Zheden","coordinates":[21.217,42.057]},{"code":"Z3/WM-062","program":"sota","name":"Ezerski Vrv","coordinates":[21.0031,42.1466]},{"code":"Z3/WM-064","program":"sota","name":"Piribeg, Kukinogledski Vrv","coordinates":[21.0491,42.1655]},{"code":"Z3/WM-183","program":"sota","name":"Krushke","coordinates":[21.1757,42.0689]}]}