{"lat":42.25,"lon":2.5,"programs":["gma","pota","sota"],"count":27,"references":[{"code":"FA/PE-066","program":"gma","name":"Roc de France","coordinates":[2.7308,42.4225]},{"code":"FR-10210","program":"pota","name":"Le Vallespir Biological Reserve","coordinates":[2.5795,42.4305]},{"code":"FR-10212","program":"pota","name":"Bassin de Coustouges Biological Reserve","coordinates":[2.64531,42.3539]},{"code":"FR-10213","program":"pota","name":"Baga de Bordellat et vallée du ruisseau de Malrems Biological Reserve","coordinates":[2.51178,42.3464]},{"code":"FR-10216","program":"pota","name":"Falaises de la Tour de Cos Biological Reserve","coordinates":[2.55212,42.4201]},{"code":"ES-0327","program":"pota","name":"Alta Garrotxa - Massis de les Salines Natura 2000","coordinates":[2.5956,42.3065]},{"code":"EA3/GI-017","program":"sota","name":"Coma Negra","coordinates":[2.5278,42.3333]},{"code":"EA3/GI-021","program":"sota","name":"Roc de Fraussa","coordinates":[2.7274,42.4228]},{"code":"EA3/GI-022","program":"sota","name":"Bassagoda","coordinates":[2.6308,42.3128]},{"code":"EA3/GI-027","program":"sota","name":"Mare de Déu del Mont","coordinates":[2.7065,42.2588]},{"code":"EA3/GI-030","program":"sota","name":"Castell de Bach Grillera","coordinates":[2.6969,42.3607]},{"code":"EA3/GI-059","program":"sota","name":"Faig Pare-Pi Gros","coordinates":[2.6208,42.2937]},{"code":"EA3/GI-068","program":"sota","name":"Tossa d'Espinau","coordinates":[2.6928,42.2735]},{"code":"EA3/GI-069","program":"sota","name":"Puig de Bestracá","coordinates":[2.5156,42.2943]},{"code":"EA3/GI-070","program":"sota","name":"Martanyà","coordinates":[2.6069,42.3096]},{"code":"EA3/GI-071","program":"sota","name":"Puig de Mas d'en Coll","coordinates":[2.5929,42.3241]},{"code":"EA3/GI-072","program":"sota","name":"Puig de Malveí","coordinates":[2.6858,42.2624]},{"code":"EA3/GI-074","program":"sota","name":"El Ferrán","coordinates":[2.5724,42.295]},{"code":"EA3/GI-081","program":"sota","name":"Santa Bàbara de Pruneres","coordinates":[2.5587,42.2759]},{"code":"F/PE-157","program":"sota","name":"Mont Nègre","coordinates":[2.5606,42.3625]},{"code":"F/PE-171","program":"sota","name":"Tours de Cabrens","coordinates":[2.5433,42.3664]},{"code":"F/PE-179","program":"sota","name":"Serra del Cogull","coordinates":[2.585,42.3733]},{"code":"F/PE-181","program":"sota","name":"Roc de Sant Salvador","coordinates":[2.6961,42.4281]},{"code":"F/PE-188","program":"sota","name":"Mont Capel","coordinates":[2.6519,42.3897]},{"code":"F/PE-192","program":"sota","name":"Puig Cabres","coordinates":[2.5231,42.42]},{"code":"F/PE-201","program":"sota","name":"Tour de Cas","coordinates":[2.5533,42.4231]},{"code":"F/PE-355","program":"sota","name":"Puig de la Senyora","coordinates":[2.6483,42.4208]}]}