{"lat":42.25,"lon":-77.25,"programs":["pota","sota"],"count":14,"references":[{"code":"US-5043","program":"pota","name":"Goundry Hill State Forest","coordinates":[-77.0824,42.3096]},{"code":"US-5122","program":"pota","name":"Birdseye Hollow State Forest","coordinates":[-77.1483,42.3703]},{"code":"US-5173","program":"pota","name":"Cinnamon Lake State Forest","coordinates":[-77.0298,42.2783]},{"code":"US-5184","program":"pota","name":"Coon Hollow State Forest","coordinates":[-77.009,42.311]},{"code":"US-5207","program":"pota","name":"Dry Run State Forest","coordinates":[-77.0714,42.2643]},{"code":"US-5302","program":"pota","name":"South Bradford State Forest","coordinates":[-77.1197,42.2967]},{"code":"US-5322","program":"pota","name":"Sugar Hill State Forest","coordinates":[-77.0026,42.3868]},{"code":"US-5414","program":"pota","name":"Meads Creek State Forest","coordinates":[-77.1227,42.2552]},{"code":"US-5425","program":"pota","name":"Moss Hill State Forest","coordinates":[-77.2259,42.3209]},{"code":"US-5432","program":"pota","name":"Mount Washington State Forest","coordinates":[-77.2349,42.3751]},{"code":"US-9027","program":"pota","name":"Cold Brook Wildlife Management Area","coordinates":[-77.2468,42.3939]},{"code":"US-9033","program":"pota","name":"Waneta-Lamoka Wildlife Management Area","coordinates":[-77.0889,42.4215]},{"code":"W2/WE-006","program":"sota","name":"Sugar Hill Lookout","coordinates":[-77.0027,42.3869]},{"code":"W2/WE-085","program":"sota","name":"Washington; Mount","coordinates":[-77.1875,42.3815]}]}