{"lat":42.25,"lon":-109.25,"programs":["pota","sota"],"count":6,"references":[{"code":"US-6165","program":"pota","name":"Triangle BLM Herd Management Area","coordinates":[-109.24,42.38]},{"code":"US-6194","program":"pota","name":"False Parting of the Ways BLM Interpretive Site","coordinates":[-109.059,42.2845]},{"code":"US-6197","program":"pota","name":"Popo Agie Wilderness Area","coordinates":[-109.13,42.46]},{"code":"W7Y/SL-096","program":"sota","name":"Prospect Mountains HP","coordinates":[-109.1887,42.4913]},{"code":"W7Y/SL-099","program":"sota","name":"8681","coordinates":[-109.1285,42.4625]},{"code":"W7Y/SL-112","program":"sota","name":"Lost Benchmark","coordinates":[-109.1765,42.3828]}]}