{"lat":42.25,"lon":-74.25,"programs":["pota","sota"],"count":10,"references":[{"code":"US-5149","program":"pota","name":"Cairo Lockwood State Forest","coordinates":[-74.0022,42.3285]},{"code":"US-5272","program":"pota","name":"Rensselaerville State Forest","coordinates":[-74.2149,42.4981]},{"code":"US-5426","program":"pota","name":"Mount Hayden State Forest","coordinates":[-74.2119,42.3646]},{"code":"US-5429","program":"pota","name":"Mount Pisgah State Forest","coordinates":[-74.2499,42.3687]},{"code":"W2/GC-003","program":"sota","name":"Black Dome","coordinates":[-74.1235,42.2701]},{"code":"W2/GC-014","program":"sota","name":"Cave Mountain","coordinates":[-74.2471,42.286]},{"code":"W2/GC-056","program":"sota","name":"Blackhead","coordinates":[-74.1053,42.2676]},{"code":"W2/GC-063","program":"sota","name":"Windham High Peak","coordinates":[-74.1434,42.3147]},{"code":"W2/GC-072","program":"sota","name":"Hayden; Mount","coordinates":[-74.219,42.3587]},{"code":"W2/GC-073","program":"sota","name":"Round Hill","coordinates":[-74.2142,42.2708]}]}