{"lat":42.25,"lon":0.25,"programs":["pota","sota"],"count":15,"references":[{"code":"ES-0683","program":"pota","name":"Congosto de Ventamillo Natura 2000","coordinates":[0.46,42.49]},{"code":"ES-0714","program":"pota","name":"Sierra Ferrera Natura 2000","coordinates":[0.2669,42.4808]},{"code":"ES-0724","program":"pota","name":"Sierra de Esdolomada y Morrones de Güel Natura 2000","coordinates":[0.4694,42.3086]},{"code":"EA2/HU-093","program":"sota","name":"Cervín","coordinates":[0.43,42.4349]},{"code":"EA2/HU-100","program":"sota","name":"Chordal","coordinates":[0.4978,42.3489]},{"code":"EA2/HU-113","program":"sota","name":"San Salvador","coordinates":[0.2503,42.3892]},{"code":"EA2/HU-115","program":"sota","name":"Baciero","coordinates":[0.4613,42.4581]},{"code":"EA2/HU-165","program":"sota","name":"La Forquiella","coordinates":[0.26884,42.47347]},{"code":"EA2/HU-181","program":"sota","name":"Tozal de San Chuan","coordinates":[0.47127,42.47263]},{"code":"EA2/HU-195","program":"sota","name":"Campanúe Norte","coordinates":[0.35181,42.37596]},{"code":"EA2/HU-210","program":"sota","name":"La Llédrera","coordinates":[0.47801,42.30902]},{"code":"EA2/HU-213","program":"sota","name":"Galirón","coordinates":[0.41782,42.33891]},{"code":"EA2/HU-220","program":"sota","name":"Santa Cruz","coordinates":[0.43121,42.38001]},{"code":"EA2/HU-222","program":"sota","name":"San Cristóbal de Bisaurri","coordinates":[0.49306,42.49812]},{"code":"EA2/HU-251","program":"sota","name":"Tozal de Salinas","coordinates":[0.26962,42.30902]}]}