{"lat":42.25,"lon":1.5,"programs":["gma","pota","sota"],"count":22,"references":[{"code":"FA/PE-064","program":"gma","name":"Pic de Camp Colomer","coordinates":[1.7317,42.4925]},{"code":"XC3/AD-004","program":"gma","name":"Tossal Bovinar","coordinates":[1.63168,42.46275]},{"code":"AD-0002","program":"pota","name":"Madriu-Perafita-Claror Nature Park","coordinates":[1.5939,42.4921]},{"code":"ES-0144","program":"pota","name":"Sierras de Cadi-Moixero Nature Park","coordinates":[1.7376,42.2926]},{"code":"ES-0286","program":"pota","name":"Prepirineu Central Catala Natura 2000","coordinates":[1.6883,42.255]},{"code":"ES-0349","program":"pota","name":"Tossa Plana de Lles-Puigpedros Natura 2000","coordinates":[1.6695,42.4497]},{"code":"ES-0356","program":"pota","name":"Riu Verneda Natura 2000","coordinates":[1.6711,42.3908]},{"code":"ES-0365","program":"pota","name":"Riu de la Llosa National Park","coordinates":[1.6992,42.45]},{"code":"ES-0377","program":"pota","name":"Beneïdor Natura 2000","coordinates":[1.5653,42.3719]},{"code":"C3/AD-006","program":"sota","name":"Monturull","coordinates":[1.58123,42.4501]},{"code":"C3/AD-007","program":"sota","name":"Tossal de la Truita","coordinates":[1.58548,42.45919]},{"code":"EA3/BC-019","program":"sota","name":"Comabona","coordinates":[1.7263,42.2837]},{"code":"EA3/GI-039","program":"sota","name":"Pic Calm Colomer","coordinates":[1.73,42.4924]},{"code":"EA3/LL-016","program":"sota","name":"Tossa Plana de Lles","coordinates":[1.6565,42.4682]},{"code":"EA3/LL-031","program":"sota","name":"Puig de la Canal Baridana","coordinates":[1.6362,42.2858]},{"code":"EA3/LL-047","program":"sota","name":"Cadinell","coordinates":[1.5979,42.2644]},{"code":"EA3/LL-070","program":"sota","name":"Tossal Bovinar","coordinates":[1.6317,42.4628]},{"code":"EA3/LL-119","program":"sota","name":"Roca Gran - El Puig","coordinates":[1.7118,42.3164]},{"code":"EA3/LL-128","program":"sota","name":"Tossal del Quer","coordinates":[1.625,42.3238]},{"code":"EA3/LL-132","program":"sota","name":"Tossal del Castell de Termes","coordinates":[1.6529,42.255]},{"code":"EA3/LL-138","program":"sota","name":"Roc Beneïdor","coordinates":[1.5605,42.3712]},{"code":"EA3/LL-142","program":"sota","name":"Tossal de Lletó","coordinates":[1.543,42.3118]}]}