{"lat":42.25,"lon":-76.25,"programs":["pota","sota"],"count":11,"references":[{"code":"US-5042","program":"pota","name":"Griggs Gulf State Forest","coordinates":[-76.1726,42.417]},{"code":"US-5071","program":"pota","name":"James Kennedy State Forest","coordinates":[-76.1596,42.4733]},{"code":"US-5072","program":"pota","name":"Jenksville State Forest","coordinates":[-76.222,42.2755]},{"code":"US-5088","program":"pota","name":"Andersen Hill State Forest","coordinates":[-76.2211,42.3447]},{"code":"US-5112","program":"pota","name":"Beaver Dam State Forest","coordinates":[-76.1468,42.3851]},{"code":"US-5211","program":"pota","name":"Nanticoke Lake Multiple Use Area","coordinates":[-76.0912,42.3274]},{"code":"US-5350","program":"pota","name":"Turkey Hill State Forest","coordinates":[-76.1522,42.3396]},{"code":"US-5416","program":"pota","name":"Michigan Hill State Forest","coordinates":[-76.1872,42.3948]},{"code":"W2/WE-042","program":"sota","name":"Virgil Mountain","coordinates":[-76.1403,42.4927]},{"code":"W2/WE-045","program":"sota","name":"2035","coordinates":[-76.2042,42.4692]},{"code":"W2/WE-051","program":"sota","name":"1895","coordinates":[-76.1439,42.4234]}]}