{"lat":42.25,"lon":-78.5,"programs":["pota","sota"],"count":7,"references":[{"code":"US-5014","program":"pota","name":"Farmersville State Forest","coordinates":[-78.3303,42.4112]},{"code":"US-5105","program":"pota","name":"Bear Creek State Forest","coordinates":[-78.4985,42.3535]},{"code":"US-5147","program":"pota","name":"Bush Hill State Forest","coordinates":[-78.358,42.3776]},{"code":"US-5190","program":"pota","name":"Crab Hollow State Forest","coordinates":[-78.2506,42.3053]},{"code":"US-9052","program":"pota","name":"Harwood Lake Multiple Use Area","coordinates":[-78.3867,42.3814]},{"code":"W2/WE-018","program":"sota","name":"2145","coordinates":[-78.2516,42.3559]},{"code":"W2/WE-027","program":"sota","name":"Shipman Benchmark","coordinates":[-78.3906,42.3453]}]}