{"lat":42.25,"lon":-6.5,"programs":["pota","sota"],"count":9,"references":[{"code":"ES-0491","program":"pota","name":"Montes Aquilanos y sierra de Teleno Natura 2000","coordinates":[-6.4667,42.3695]},{"code":"ES-2259","program":"pota","name":"Montes Aquilanos Natura 2000","coordinates":[-6.4011,42.3423]},{"code":"EA1/LE-018","program":"sota","name":"Teleno","coordinates":[-6.39379,42.34593]},{"code":"EA1/LE-080","program":"sota","name":"Becerril","coordinates":[-6.44019,42.44119]},{"code":"EA1/LE-108","program":"sota","name":"Llano de las Ovejas","coordinates":[-6.4622,42.36985]},{"code":"EA1/LE-138","program":"sota","name":"Las Chanas","coordinates":[-6.41127,42.28932]},{"code":"EA1/LE-170","program":"sota","name":"Cerro del Pico","coordinates":[-6.3649,42.47797]},{"code":"EA1/LE-174","program":"sota","name":"Cerro Picueto","coordinates":[-6.49316,42.45849]},{"code":"EA1/LE-267","program":"sota","name":"Las Colinas","coordinates":[-6.47524,42.29402]}]}