{"lat":42.25,"lon":9,"programs":["pota","sota"],"count":16,"references":[{"code":"FR-3018","program":"pota","name":"CHENAIES ET PINEDES DE CORSE FR9412008 Natura 2000","coordinates":[9.1035,42.463]},{"code":"FR-3023","program":"pota","name":"MARAIS ET TOURBIERES DU VALDO ET DE BAGLIETTO FR9400618 Natura 2000","coordinates":[9.17472,42.4767]},{"code":"FR-3024","program":"pota","name":"HAUTE VALLEE D ASCO FORET DE TARTAGINE ET AIGUILLES DE POPOLASCA FR9410107 Natura 2000","coordinates":[9,42.4167]},{"code":"FR-3085","program":"pota","name":"VALLEE DE LA RESTONICA  FR9410084 Natura 2000","coordinates":[9.06667,42.25]},{"code":"FR-3087","program":"pota","name":"HAUTE VALLEE DE LA SCALA DI SANTA REGINA  FR9412002 Natura 2000","coordinates":[9.08333,42.3667]},{"code":"FR-4443","program":"pota","name":"Caporalino Monte Sant Angelo di Lano-Pianu Maggiore Natura 2000","coordinates":[9.20944,42.3783]},{"code":"TK/TK-017","program":"sota","name":"Cima a i Mori","coordinates":[9.080426,42.420883]},{"code":"TK/TK-030","program":"sota","name":"Pinerole","coordinates":[9.098273,42.335716]},{"code":"TK/TK-032","program":"sota","name":"Turone","coordinates":[9.098386,42.428333]},{"code":"TK/TK-078","program":"sota","name":"Cima di Modico","coordinates":[9.09382,42.492455]},{"code":"TK/TK-083","program":"sota","name":"Capo d'Alici","coordinates":[9.112135,42.387615]},{"code":"TK/TK-094","program":"sota","name":"Monte Tomboni","coordinates":[9.199103,42.328323]},{"code":"TK/TK-114","program":"sota","name":"Prato Soprano","coordinates":[9.155468,42.42204]},{"code":"TK/TK-117","program":"sota","name":"Punta di Ciuffello","coordinates":[9.145716,42.447044]},{"code":"TK/TK-132","program":"sota","name":"Monte a Supietra","coordinates":[9.179125,42.382088]},{"code":"TK/TK-142","program":"sota","name":"L'Orienda","coordinates":[9.174448,42.456245]}]}