{"lat":42.25,"lon":11.75,"programs":["pota","sota"],"count":5,"references":[{"code":"IT-0508","program":"pota","name":"Sughereta di Tuscania Natura 2000","coordinates":[11.9058,42.4242]},{"code":"IT-1698","program":"pota","name":"Fiume Marta (alto corso) Natura 2000","coordinates":[11.9061,42.4464]},{"code":"IT-1699","program":"pota","name":"Monte Romano Natura 2000","coordinates":[11.9015,42.3308]},{"code":"IT-1772","program":"pota","name":"Acropoli di Tarquinia Natura 2000","coordinates":[11.7881,42.2556]},{"code":"I/LZ-189","program":"sota","name":"Poggio della Rotonda","coordinates":[11.9067,42.2605]}]}