{"lat":42.25,"lon":42.5,"programs":["pota"],"count":5,"references":[{"code":"GE-0020","program":"pota","name":"Okatse (Kinchkha) Waterfall Natural Monument","coordinates":[42.5505,42.4956]},{"code":"GE-0021","program":"pota","name":"Okatse Canyon Natural Monument","coordinates":[42.5501,42.4513]},{"code":"GE-0022","program":"pota","name":"Prometheus Cave Natural Monument","coordinates":[42.6006,42.3767]},{"code":"GE-0024","program":"pota","name":"Sataplia Nature Reserve","coordinates":[42.6718,42.3096]},{"code":"GE-0025","program":"pota","name":"Tetra Cave National Park","coordinates":[42.6172,42.3294]}]}