{"lat":42.25,"lon":18.5,"programs":["pota","sota"],"count":8,"references":[{"code":"ME-0007","program":"pota","name":"Tivatska solila Ramsar Site","coordinates":[18.7148,42.3938]},{"code":"4O/JC-057","program":"sota","name":"Ilijino brdo","coordinates":[18.7093,42.4984]},{"code":"4O/JC-062","program":"sota","name":"Devesilje","coordinates":[18.6182,42.4649]},{"code":"4O/JC-063","program":"sota","name":"Sveti Ilija","coordinates":[18.7313,42.4486]},{"code":"4O/JC-065","program":"sota","name":"Velji vrh","coordinates":[18.7133,42.4591]},{"code":"4O/JC-074","program":"sota","name":"Obosnik","coordinates":[18.6108,42.4092]},{"code":"4O/JC-084","program":"sota","name":"Gradišta","coordinates":[18.7466,42.3157]},{"code":"4O/JC-086","program":"sota","name":"Prčja glava","coordinates":[18.7362,42.3455]}]}