{"lat":42.25,"lon":-107.75,"programs":["pota","sota"],"count":5,"references":[{"code":"US-6157","program":"pota","name":"Split Rock BLM Interpretive Site","coordinates":[-107.546,42.453]},{"code":"US-10896","program":"pota","name":"Wild Horse Point BLM Recreation Management Area","coordinates":[-107.669,42.3401]},{"code":"W7Y/FT-144","program":"sota","name":"Whiskey Peak","coordinates":[-107.574,42.3104]},{"code":"W7Y/FT-145","program":"sota","name":"Green Mountain","coordinates":[-107.7325,42.3445]},{"code":"W7Y/NW-103","program":"sota","name":"Split Rock","coordinates":[-107.5294,42.4811]}]}