{"lat":42.25,"lon":3,"programs":["pota","sota","wwbota"],"count":28,"references":[{"code":"FR-3496","program":"pota","name":"MASSIF DES ALBERES  FR9112023 Natura 2000","coordinates":[3.02528,42.4767]},{"code":"FR-3497","program":"pota","name":"FORET DE LA MASSANE  FR3600006 Natura 2000","coordinates":[3.02395,42.4782]},{"code":"FR-3499","program":"pota","name":"CERBERE  BANYULS  FR3600009 Natura 2000","coordinates":[3.16494,42.4717]},{"code":"FR-3500","program":"pota","name":"COTE ROCHEUSE DES ALBERES  FR9101481 National Park","coordinates":[3.13,42.4966]},{"code":"FR-4158","program":"pota","name":"Massif des Alberes Natura 2000","coordinates":[3.02528,42.4767]},{"code":"FR-10138","program":"pota","name":"Cap Cerbere Biological Reserve","coordinates":[3.17207,42.4381]},{"code":"FR-10139","program":"pota","name":"Versants littoraux et cote rocheuse des Alberes Biological Reserve","coordinates":[3.10097,42.4761]},{"code":"FR-10140","program":"pota","name":"Vallons de Cerbere Biological Reserve","coordinates":[3.15194,42.443]},{"code":"FR-10141","program":"pota","name":"Versants littoraux et cote rocheuse des Alberes Biological Reserve","coordinates":[3.10097,42.4761]},{"code":"FR-10142","program":"pota","name":"Falaises de Banyuls a Cerbere Biological Reserve","coordinates":[3.1553,42.466]},{"code":"FR-10143","program":"pota","name":"Cretes des Alberes au col de Gran Bau Biological Reserve","coordinates":[3.14631,42.4656]},{"code":"FR-10144","program":"pota","name":"Coteau de Can Rede Biological Reserve","coordinates":[3.1154,42.4721]},{"code":"FR-10145","program":"pota","name":"Vallon, bois et grotte de la Pouade Biological Reserve","coordinates":[3.081,42.447]},{"code":"FR-10146","program":"pota","name":"Oueds de la Baillaury et de ses affluents Biological Reserve","coordinates":[3.09981,42.4614]},{"code":"FR-10147","program":"pota","name":"Cap d'Oullestrell Biological Reserve","coordinates":[3.1309,42.4951]},{"code":"FR-10150","program":"pota","name":"Crete de Madeloc Biological Reserve","coordinates":[3.07235,42.4931]},{"code":"FR-10155","program":"pota","name":"Ravin de la Massane Biological Reserve","coordinates":[3.00356,42.4998]},{"code":"ES-0331","program":"pota","name":"Cap de Creus Natura 2000","coordinates":[3.2296,42.3036]},{"code":"ES-0338","program":"pota","name":"L'Albera Natura 2000","coordinates":[3.0329,42.4159]},{"code":"EA3/GI-034","program":"sota","name":"Puig D´ En Jordá","coordinates":[3.0821,42.4278]},{"code":"EA3/GI-035","program":"sota","name":"Castell Saverdera","coordinates":[3.168,42.3199]},{"code":"EA3/GI-036","program":"sota","name":"El Pení","coordinates":[3.244,42.2815]},{"code":"EA3/GI-038","program":"sota","name":"Puig dels Bufadors","coordinates":[3.2488,42.3011]},{"code":"EA3/GI-104","program":"sota","name":"Montperdut","coordinates":[3.1094,42.3449]},{"code":"F/PE-283","program":"sota","name":"Torre Madaloc","coordinates":[3.0742,42.4911]},{"code":"B/EA-0152","program":"wwbota","name":"Búnkeres Llançà","coordinates":[3.11645,42.34847]},{"code":"B/EA-0153","program":"wwbota","name":"Búnker Vilajuïga","coordinates":[3.0953,42.34652]},{"code":"B/EA-0155","program":"wwbota","name":"Búnker de torreta de tanque (Panzer), Portbou","coordinates":[3.16047,42.43532]}]}