{"lat":42.25,"lon":1.25,"programs":["pota","sota"],"count":14,"references":[{"code":"ES-0380","program":"pota","name":"Serra de Prada-Castellas Natura 2000","coordinates":[1.3044,42.2711]},{"code":"EA3/LL-106","program":"sota","name":"Bony de Trescul","coordinates":[1.3994,42.4981]},{"code":"EA3/LL-112","program":"sota","name":"els Bonys","coordinates":[1.2836,42.4637]},{"code":"EA3/LL-115","program":"sota","name":"Cap de la Devesa","coordinates":[1.3733,42.4525]},{"code":"EA3/LL-116","program":"sota","name":"El Delmador","coordinates":[1.3144,42.4612]},{"code":"EA3/LL-117","program":"sota","name":"Mongetes","coordinates":[1.3526,42.4408]},{"code":"EA3/LL-124","program":"sota","name":"Tossal del Castilló","coordinates":[1.2798,42.3854]},{"code":"EA3/LL-126","program":"sota","name":"Cap de Pla Redon","coordinates":[1.267,42.2755]},{"code":"EA3/LL-131","program":"sota","name":"Montcau","coordinates":[1.2602,42.3014]},{"code":"EA3/LL-137","program":"sota","name":"Puig de Serreïnes","coordinates":[1.4371,42.2631]},{"code":"EA3/LL-144","program":"sota","name":"Roc de l'Àliga","coordinates":[1.4758,42.2737]},{"code":"EA3/LL-148","program":"sota","name":"Sant Quiri","coordinates":[1.3014,42.3053]},{"code":"EA3/LL-155","program":"sota","name":"Pui de la Bastida","coordinates":[1.4725,42.3101]},{"code":"EA3/LL-160","program":"sota","name":"Serra de Tost","coordinates":[1.3934,42.2864]}]}