{"lat":42.25,"lon":-78.25,"programs":["pota"],"count":5,"references":[{"code":"US-5085","program":"pota","name":"Allen Lake State Forest","coordinates":[-78.0704,42.3825]},{"code":"US-5188","program":"pota","name":"Coyle Hill State Forest","coordinates":[-78.1061,42.2586]},{"code":"US-5282","program":"pota","name":"Rush Creek State Forest","coordinates":[-78.1991,42.3537]},{"code":"US-5327","program":"pota","name":"Swift Hill State Forest","coordinates":[-78.2219,42.4434]},{"code":"US-9049","program":"pota","name":"Hanging Bog Wildlife Management Area","coordinates":[-78.2498,42.3084]}]}