{"lat":42.25,"lon":-3,"programs":["gma","pota","sota"],"count":6,"references":[{"code":"XEA1/LR-032","program":"gma","name":"Cuesta Narros","coordinates":[-2.95720005,42.32709885]},{"code":"ES-0229","program":"pota","name":"Laguna de Hervias Natural Area","coordinates":[-2.86741,42.4492]},{"code":"ES-2176","program":"pota","name":"San Millán Yuso and Suso Monasteries World Heritage Site","coordinates":[-2.87269,42.3295]},{"code":"EA1/LR-024","program":"sota","name":"Pico la Rioja","coordinates":[-2.85485,42.25526]},{"code":"EA1/LR-036","program":"sota","name":"La Fonfría","coordinates":[-2.91347,42.3413]},{"code":"EA1/LR-040","program":"sota","name":"Peñalba","coordinates":[-2.8164,42.28427]}]}