{"lat":42.25,"lon":11,"programs":["pota","sota"],"count":5,"references":[{"code":"IT-0240","program":"pota","name":"Monte Argentario, Isolotto di Porto Ercole e Argentarola Natura 2000","coordinates":[11.1472,42.4039]},{"code":"IT-0404","program":"pota","name":"Laguna di Orbetello Natura 2000","coordinates":[11.2225,42.4597]},{"code":"IT-0504","program":"pota","name":"Duna di Feniglia Natura 2000","coordinates":[11.2458,42.4229]},{"code":"IT-1144","program":"pota","name":"Isola di Giannutri - area terrestre e marina Natura 2000","coordinates":[11.0994,42.2503]},{"code":"I/TO-140","program":"sota","name":"Il Telegrafo","coordinates":[11.1694,42.387]}]}