{"lat":42.25,"lon":-122.25,"programs":["pota","sota"],"count":8,"references":[{"code":"US-10022","program":"pota","name":"Surveyor BLM Recreation Management Area","coordinates":[-122.228,42.2537]},{"code":"W7O/CS-006","program":"sota","name":"Aspen Butte","coordinates":[-122.0877,42.3155]},{"code":"W7O/CS-013","program":"sota","name":"Mount Harriman","coordinates":[-122.0929,42.3732]},{"code":"W7O/CS-014","program":"sota","name":"Carmine, Mount","coordinates":[-122.083,42.3334]},{"code":"W7O/CS-015","program":"sota","name":"Crater Mountain","coordinates":[-122.148,42.3288]},{"code":"W7O/CS-029","program":"sota","name":"Little Aspen Butte","coordinates":[-122.0672,42.2833]},{"code":"W7O/CS-053","program":"sota","name":"Rye Spur","coordinates":[-122.2207,42.4204]},{"code":"W7O/CS-074","program":"sota","name":"Burton Butte","coordinates":[-122.2488,42.2832]}]}