{"lat":42.25,"lon":25.5,"programs":["gma","pota","sota"],"count":5,"references":[{"code":"LZM/SD-066","program":"gma","name":"Pilivanka","coordinates":[25.518016,42.423175]},{"code":"BG-0163","program":"pota","name":"Ayazmoto Recreation Park","coordinates":[25.6221,42.432]},{"code":"LZ/SG-031","program":"sota","name":"Orlukaya","coordinates":[25.5259,42.485]},{"code":"LZ/SG-034","program":"sota","name":"Momini gardi","coordinates":[25.5047,42.4382]},{"code":"LZ/SG-035","program":"sota","name":"Cherni vrah","coordinates":[25.5739,42.4355]}]}