{"lat":42.25,"lon":-109,"programs":["pota","sota"],"count":8,"references":[{"code":"US-6161","program":"pota","name":"Continental Peak BLM Herd Management Area","coordinates":[-108.791,42.3259]},{"code":"US-6185","program":"pota","name":"South Pass Historic Landmark National Historic Site","coordinates":[-108.886,42.3437]},{"code":"US-6189","program":"pota","name":"South Pass City State Historic Site","coordinates":[-108.8,42.4683]},{"code":"US-6190","program":"pota","name":"Oregon Buttes BLM Historic Area","coordinates":[-108.852,42.3556]},{"code":"US-6193","program":"pota","name":"South Pass Overlook BLM Interpretive Site","coordinates":[-108.974,42.3308]},{"code":"US-10835","program":"pota","name":"Pacific Creek BLM Interpretive Site","coordinates":[-108.946,42.333]},{"code":"US-10945","program":"pota","name":"Whitehorse Creek BLM WSA Wilderness Area","coordinates":[-108.897,42.2747]},{"code":"W7Y/SW-114","program":"sota","name":"Oregon Buttes North","coordinates":[-108.8576,42.2551]}]}