{"lat":42.25,"lon":12.5,"programs":["gma","pota","sota"],"count":17,"references":[{"code":"IT/LZ-1002","program":"gma","name":"Tancia","coordinates":[12.73579979,42.31689835]},{"code":"IT-1916","program":"pota","name":"Bosco Pago Natura 2000","coordinates":[12.6344,42.3836]},{"code":"IT-1917","program":"pota","name":"Monte Tancia e Monte Pizzuto Natura 2000","coordinates":[12.7242,42.3603]},{"code":"IT-2032","program":"pota","name":"Forre alveali dell'Alta Sabina Natura 2000","coordinates":[12.6197,42.3858]},{"code":"IT-1915","program":"pota","name":"Monti San Pancrazio - Oriolo Natura 2000","coordinates":[12.5817,42.435]},{"code":"IT-1919","program":"pota","name":"Piani di Ruschio (Stroncone) Natura 2000","coordinates":[12.7242,42.4697]},{"code":"I/LZ-051","program":"sota","name":"Monte Tancia","coordinates":[12.7425,42.3281]},{"code":"I/LZ-057","program":"sota","name":"Monte Porco Morto","coordinates":[12.7166,42.3734]},{"code":"I/LZ-061","program":"sota","name":"Macchia Lupara","coordinates":[12.7272,42.4586]},{"code":"I/LZ-073","program":"sota","name":"Cima Fosso d'Inselmo","coordinates":[12.6303,42.4105]},{"code":"I/LZ-081","program":"sota","name":"Monte Lacerone","coordinates":[12.6928,42.4469]},{"code":"I/LZ-096","program":"sota","name":"Monte Ode","coordinates":[12.7472,42.2889]},{"code":"I/LZ-113","program":"sota","name":"Colle San Erasmo","coordinates":[12.7308,42.2994]},{"code":"I/LZ-146","program":"sota","name":"Macchia Grande Alieri – San Benedetto","coordinates":[12.5936,42.3857]},{"code":"I/LZ-310","program":"sota","name":"Monte Pizzuto","coordinates":[12.7251,42.3348]},{"code":"I/UM-040","program":"sota","name":"Monte Macchialunga – Quota 1150","coordinates":[12.6956,42.4708]},{"code":"I/UM-057","program":"sota","name":"Monte San Pancrazio","coordinates":[12.5977,42.4336]}]}