{"lat":42.5,"lon":25.25,"programs":["gma","pota","sota"],"count":33,"references":[{"code":"LZM/SP-002","program":"gma","name":"Atovo padalo","coordinates":[25.422707,42.734247]},{"code":"LZM/SP-004","program":"gma","name":"Buzludzha","coordinates":[25.389919,42.738534]},{"code":"LZM/SP-005","program":"gma","name":"Chifut","coordinates":[25.259757,42.731851]},{"code":"LZM/SP-007","program":"gma","name":"Tuzlata","coordinates":[25.257782,42.723182]},{"code":"LZM/SP-008","program":"gma","name":"Malak Sarayar","coordinates":[25.471158,42.694517]},{"code":"LZM/SP-012","program":"gma","name":"Visokata mogila","coordinates":[25.412235,42.72043]},{"code":"LZM/SP-013","program":"gma","name":"Golyam Kupen","coordinates":[25.49974,42.693823]},{"code":"LZM/SP-014","program":"gma","name":"Shipka","coordinates":[25.321469,42.747769]},{"code":"LZM/SP-015","program":"gma","name":"Orlovo gnezdo","coordinates":[25.322389,42.746676]},{"code":"LZM/SP-016","program":"gma","name":"Gradishtitsa","coordinates":[25.363054,42.740236]},{"code":"LZM/SP-023","program":"gma","name":"Katunite","coordinates":[25.417771,42.701866]},{"code":"LZM/SP-024","program":"gma","name":"Visoka mogila","coordinates":[25.478368,42.736296]},{"code":"LZM/SP-025","program":"gma","name":"Garvanat","coordinates":[25.46103,42.686915]},{"code":"LZM/SP-028","program":"gma","name":"Beklemyata","coordinates":[25.476673,42.713234]},{"code":"LZM/SP-034","program":"gma","name":"Golyam Tarsovets","coordinates":[25.342627,42.730874]},{"code":"LZM/SP-036","program":"gma","name":"Bakadzhik","coordinates":[25.286665,42.736485]},{"code":"LZM/SP-038","program":"gma","name":"Grabnaka","coordinates":[25.494461,42.729676]},{"code":"LZM/SP-040","program":"gma","name":"Gradishkata mogila","coordinates":[25.358934,42.726336]},{"code":"LZM/SP-052","program":"gma","name":"Cherni vrah","coordinates":[25.301474,42.734688]},{"code":"LZM/SP-056","program":"gma","name":"Tash tepe","coordinates":[25.262032,42.707606]},{"code":"LZM/SP-060","program":"gma","name":"Starata koria","coordinates":[25.488024,42.6717]},{"code":"LZM/SP-097","program":"gma","name":"Samarya","coordinates":[25.477209,42.665618]},{"code":"LZM/SP-135","program":"gma","name":"Demir tepe","coordinates":[25.340893,42.749653]},{"code":"LZM/SP-136","program":"gma","name":"Karadzhova kula","coordinates":[25.438547,42.746614]},{"code":"LZM/SP-137","program":"gma","name":"Ispolin","coordinates":[25.252134,42.738556]},{"code":"XLZ/CB-017","program":"gma","name":"Ispolin","coordinates":[25.2521,42.7386]},{"code":"BG-0035","program":"pota","name":"Kamenshtitsa Nature Reserve","coordinates":[25.407,42.668]},{"code":"BG-0095","program":"pota","name":"Shipka National Historical Park","coordinates":[25.3215,42.7483]},{"code":"BG-0164","program":"pota","name":"Tyulbeto Recreation Park","coordinates":[25.3994,42.6261]},{"code":"LZ/CB-018","program":"sota","name":"Karadzhova kula","coordinates":[25.4386,42.7466]},{"code":"LZ/CB-020","program":"sota","name":"Sarayar","coordinates":[25.4845,42.696]},{"code":"LZ/CB-025","program":"sota","name":"Malak Tarsovets","coordinates":[25.3457,42.7405]},{"code":"LZ/SG-029","program":"sota","name":"Ruya","coordinates":[25.4003,42.5208]}]}