{"lat":42.5,"lon":26.25,"programs":["gma","pota","sota"],"count":33,"references":[{"code":"LZM/SI-003","program":"gma","name":"Kutelka","coordinates":[26.324251,42.732198]},{"code":"LZM/SI-005","program":"gma","name":"Tyulbeto","coordinates":[26.36399,42.714638]},{"code":"LZM/SI-021","program":"gma","name":"Kalinka","coordinates":[26.489689,42.737116]},{"code":"LZM/SI-029","program":"gma","name":"Mintesh","coordinates":[26.479347,42.744617]},{"code":"LZM/SI-032","program":"gma","name":"Chukata","coordinates":[26.425188,42.741875]},{"code":"LZM/SI-035","program":"gma","name":"Neveshta","coordinates":[26.444242,42.717412]},{"code":"LZM/SI-037","program":"gma","name":"Groba","coordinates":[26.471107,42.745941]},{"code":"LZM/SI-044","program":"gma","name":"Mandrata","coordinates":[26.476343,42.71262]},{"code":"LZM/SI-045","program":"gma","name":"Karabunar","coordinates":[26.464927,42.735224]},{"code":"LZM/SI-049","program":"gma","name":"Ostra","coordinates":[26.476815,42.703695]},{"code":"LZM/SI-066","program":"gma","name":"Dragoika","coordinates":[26.253483,42.74427]},{"code":"LZM/SI-067","program":"gma","name":"Babata","coordinates":[26.470683,42.69212]},{"code":"LZM/SI-073","program":"gma","name":"Baicha","coordinates":[26.494839,42.690038]},{"code":"LZM/SI-075","program":"gma","name":"Kuminya","coordinates":[26.330648,42.725487]},{"code":"LZM/SI-079","program":"gma","name":"Mecha dupka","coordinates":[26.26713,42.680669]},{"code":"LZM/SI-082","program":"gma","name":"Bozhurovets","coordinates":[26.422226,42.694864]},{"code":"LZM/SI-086","program":"gma","name":"Boevets","coordinates":[26.489689,42.683729]},{"code":"LZM/SI-087","program":"gma","name":"Motrun","coordinates":[26.308157,42.707101]},{"code":"LZM/SI-093","program":"gma","name":"Kaleto","coordinates":[26.328698,42.723143]},{"code":"LZM/SI-112","program":"gma","name":"Golyam Golish","coordinates":[26.256316,42.671582]},{"code":"LZM/SI-119","program":"gma","name":"Gradishte","coordinates":[26.324508,42.706786]},{"code":"LZM/SI-120","program":"gma","name":"Malak Golish","coordinates":[26.268203,42.670099]},{"code":"LZM/SI-126","program":"gma","name":"Gradishteto","coordinates":[26.453726,42.677955]},{"code":"LZM/SI-149","program":"gma","name":"Mecha polyana","coordinates":[26.357076,42.74157]},{"code":"LZM/SI-150","program":"gma","name":"Bashkaynak","coordinates":[26.351421,42.735007]},{"code":"LZM/SI-151","program":"gma","name":"Golyamata chatalka","coordinates":[26.350692,42.723504]},{"code":"BG-0013","program":"pota","name":"Sinite Kamani Nature Park","coordinates":[26.3473,42.7066]},{"code":"BG-0048","program":"pota","name":"Kutela Nature Reserve","coordinates":[26.35,42.74]},{"code":"BG-0099","program":"pota","name":"Kabile Historic Site","coordinates":[26.4846,42.5471]},{"code":"LZ/EB-001","program":"sota","name":"Balgarka","coordinates":[26.3216,42.7471]},{"code":"LZ/EB-010","program":"sota","name":"Gavanite","coordinates":[26.4336,42.7112]},{"code":"LZ/EB-013","program":"sota","name":"Ushite","coordinates":[26.498,42.7454]},{"code":"LZ/EB-024","program":"sota","name":"Barmuka","coordinates":[26.2919,42.6993]}]}