{"lat":42.5,"lon":-71.25,"programs":["pota","wwbota"],"count":5,"references":[{"code":"US-2436","program":"pota","name":"Greycourt State Park","coordinates":[-71.1839,42.7294]},{"code":"US-2443","program":"pota","name":"Lawrence Heritage State Park","coordinates":[-71.1575,42.7066]},{"code":"US-4746","program":"pota","name":"Harold Parker State Forest","coordinates":[-71.0785,42.6268]},{"code":"US-11608","program":"pota","name":"Upper Parker River Wildlife Management Area","coordinates":[-71.0196,42.734]},{"code":"B/US-0226","program":"wwbota","name":"Lawrence Civil Defense Bunker (MA)","coordinates":[-71.1631,42.707]}]}