{"lat":42.5,"lon":17.75,"programs":["pota","sota"],"count":8,"references":[{"code":"HR-0254","program":"pota","name":"Elafiti Natura 2000","coordinates":[17.892,42.7178]},{"code":"9A/DH-066","program":"sota","name":"Semin","coordinates":[17.98646,42.745636]},{"code":"9A/DH-084","program":"sota","name":"Gradina","coordinates":[17.946957,42.742737]},{"code":"9A/DH-103","program":"sota","name":"Vrteljka","coordinates":[17.980518,42.726383]},{"code":"9A/DH-121","program":"sota","name":"Bračevo brdo","coordinates":[17.992226,42.710537]},{"code":"9A/DH-161","program":"sota","name":"Velji vrh","coordinates":[17.856123,42.74002]},{"code":"9A/DH-165","program":"sota","name":"Katine staje","coordinates":[17.805351,42.74366]},{"code":"9A/DH-167","program":"sota","name":"Balokovo","coordinates":[17.94437,42.677414]}]}