{"lat":42.5,"lon":22,"programs":["pota","sota"],"count":5,"references":[{"code":"RS-0156","program":"pota","name":"Jovačka jezera Natural Monument","coordinates":[22.0029,42.6421]},{"code":"YU/JS-001","program":"sota","name":"Besna kobila","coordinates":[22.2305,42.52949]},{"code":"YU/JS-004","program":"sota","name":"Šuplja padina","coordinates":[22.2361,42.50568]},{"code":"YU/JS-039","program":"sota","name":"Mrkša","coordinates":[22.15215,42.5779]},{"code":"YU/JS-064","program":"sota","name":"Golemi Kičer","coordinates":[22.07576,42.54057]}]}