{"lat":42.5,"lon":3,"programs":["pota","wwbota"],"count":25,"references":[{"code":"FR-3498","program":"pota","name":"POSIDONIES DE LA COTE DES ALBERES  FR9101482 Natura 2000","coordinates":[3.12279,42.5179]},{"code":"FR-3501","program":"pota","name":"EMBOUCHURE DU TECH ET GRAU DE LA MASSANE  FR9101493 Natura 2000","coordinates":[3.05278,42.5686]},{"code":"FR-3502","program":"pota","name":"MAS LARRIEU  FR3600070 National Nature Reserve","coordinates":[3.04052,42.5872]},{"code":"FR-3504","program":"pota","name":"COMPLEXE LAGUNAIRE DE CANET  FR9101465 Natura 2000","coordinates":[3.01333,42.6681]},{"code":"FR-3505","program":"pota","name":"COMPLEXE LAGUNAIRE DE CANET SAINT NAZAIRE  FR9112025 Natura 2000","coordinates":[3.01333,42.6681]},{"code":"FR-10117","program":"pota","name":"Grau Des Basses Biological Reserve","coordinates":[3.031,42.654]},{"code":"FR-10137","program":"pota","name":"La cote des Alberes Biological Reserve","coordinates":[3.13163,42.5114]},{"code":"FR-10148","program":"pota","name":"Cap Bear Biological Reserve","coordinates":[3.12558,42.5154]},{"code":"FR-10149","program":"pota","name":"Crete du Pic de la Grange Biological Reserve","coordinates":[3.09728,42.5057]},{"code":"FR-10151","program":"pota","name":"Falaises de la Mauresque et de la Miranda Biological Reserve","coordinates":[3.1074,42.5236]},{"code":"FR-10152","program":"pota","name":"Colline du Fort Saint-Elme a Collioure Biological Reserve","coordinates":[3.09052,42.5186]},{"code":"FR-10153","program":"pota","name":"Falaises du Racou a Collioure Biological Reserve","coordinates":[3.07373,42.5328]},{"code":"FR-10154","program":"pota","name":"Vallon El Ravaner Biological Reserve","coordinates":[3.06321,42.5308]},{"code":"FR-10159","program":"pota","name":"Grau de la Massane Biological Reserve","coordinates":[3.05304,42.5394]},{"code":"FR-10160","program":"pota","name":"El Tamariguer Biological Reserve","coordinates":[3.03707,42.5623]},{"code":"FR-10161","program":"pota","name":"Embouchure du Tech et grau de la Massane Biological Reserve","coordinates":[3.03958,42.5805]},{"code":"FR-10162","program":"pota","name":"Mas Larrieu Biological Reserve","coordinates":[3.04125,42.5854]},{"code":"FR-10166","program":"pota","name":"Dunes de Capellans Biological Reserve","coordinates":[3.03962,42.612]},{"code":"FR-10167","program":"pota","name":"Prairies humides de Saint-Cyprien Biological Reserve","coordinates":[3.01788,42.6283]},{"code":"FR-10168","program":"pota","name":"Complexe lagunaire de Canet-Saint-Nazaire Biological Reserve","coordinates":[3.01418,42.6668]},{"code":"FR-10169","program":"pota","name":"Etang de Canet Biological Reserve","coordinates":[3.01868,42.6687]},{"code":"FR-10172","program":"pota","name":"Prairies humides de Saint-Cyprien Biological Reserve","coordinates":[3.01788,42.6283]},{"code":"FR-10173","program":"pota","name":"Zone humide de l'Etang de Canet Biological Reserve","coordinates":[3.00873,42.6655]},{"code":"FR-10174","program":"pota","name":"Lido de l'etang de Canet Biological Reserve","coordinates":[3.03238,42.6549]},{"code":"B/F-6866","program":"wwbota","name":"Vault d'Aurelien","coordinates":[3.079628,42.531867]}]}