{"lat":42.5,"lon":-76.5,"programs":["pota","sota"],"count":5,"references":[{"code":"US-2053","program":"pota","name":"Fillmore Glen State Park","coordinates":[-76.4188,42.6996]},{"code":"US-5107","program":"pota","name":"Bear Swamp(Cayuga County) State Forest","coordinates":[-76.3181,42.7491]},{"code":"US-5323","program":"pota","name":"Summer Hill State Forest","coordinates":[-76.3524,42.6751]},{"code":"US-9069","program":"pota","name":"Owasco Flats Wildlife Management Area","coordinates":[-76.4357,42.7125]},{"code":"W2/WE-032","program":"sota","name":"Jewett Hill","coordinates":[-76.466,42.7042]}]}