{"lat":42.5,"lon":140.75,"programs":["sota"],"count":10,"references":[{"code":"JA8/IR-010","program":"sota","name":"JA8/IR-010","coordinates":[140.9699,42.5042]},{"code":"JA8/IR-014","program":"sota","name":"Usuzan (Oousu)","coordinates":[140.8392,42.544]},{"code":"JA8/IR-018","program":"sota","name":"Honnukibetsu","coordinates":[140.8733,42.6778]},{"code":"JA8/IR-021","program":"sota","name":"Windsor Great Peak","coordinates":[140.7612,42.5912]},{"code":"JA8/IR-027","program":"sota","name":"Touyako","coordinates":[140.8432,42.6037]},{"code":"JA8/IR-028","program":"sota","name":"Shouwashinzan","coordinates":[140.8643,42.5425]},{"code":"JA8/IR-029","program":"sota","name":"JA8/IR-029","coordinates":[140.8609,42.5998]},{"code":"JA8/IR-030","program":"sota","name":"JA8/IR-030","coordinates":[140.8529,42.6083]},{"code":"JA8/SB-022","program":"sota","name":"Nukkibetsuyama","coordinates":[140.9227,42.7101]},{"code":"JA8/SB-024","program":"sota","name":"Takeyama","coordinates":[140.9458,42.6907]}]}