{"lat":42.5,"lon":-106,"programs":["gma","sota"],"count":13,"references":[{"code":"XW7Y/EW-037","program":"gma","name":"Peterson Mountain","coordinates":[-105.85289764,42.56430054]},{"code":"W7Y/EW-009","program":"sota","name":"Buffalo Peak","coordinates":[-105.8536,42.5094]},{"code":"W7Y/EW-010","program":"sota","name":"Cherry Mountain","coordinates":[-105.9069,42.5068]},{"code":"W7Y/EW-015","program":"sota","name":"Buck Peak","coordinates":[-105.9,42.541]},{"code":"W7Y/EW-016","program":"sota","name":"Gunnysack Benchmark","coordinates":[-105.9775,42.5563]},{"code":"W7Y/EW-030","program":"sota","name":"8642","coordinates":[-105.9904,42.5844]},{"code":"W7Y/EW-032","program":"sota","name":"8525","coordinates":[-105.9557,42.6104]},{"code":"W7Y/EW-044","program":"sota","name":"8150","coordinates":[-105.9316,42.5891]},{"code":"W7Y/EW-046","program":"sota","name":"Lookout Peak","coordinates":[-105.9804,42.6231]},{"code":"W7Y/EW-052","program":"sota","name":"Pole Mountain","coordinates":[-105.8962,42.5772]},{"code":"W7Y/EW-058","program":"sota","name":"Lacy Mountain","coordinates":[-105.8408,42.6361]},{"code":"W7Y/EW-059","program":"sota","name":"No 31 Benchmark","coordinates":[-105.9981,42.6742]},{"code":"W7Y/EW-100","program":"sota","name":"8260","coordinates":[-105.8396,42.5732]}]}