{"lat":42.5,"lon":-8.75,"programs":["pota","sota"],"count":9,"references":[{"code":"ES-1760","program":"pota","name":"Rutas ecológicas del río Catoira National Recreation Trail","coordinates":[-8.7082,42.6565]},{"code":"ES-1761","program":"pota","name":"Camino Natural de las Sendas en Abalo National Recreation Trail","coordinates":[-8.72743,42.6432]},{"code":"ES-1887","program":"pota","name":"Parque  Río Barosa Natural Area","coordinates":[-8.63084,42.5559]},{"code":"ES-1971","program":"pota","name":"Ruta de los Jardines de las Camelias Forest Reserve","coordinates":[-8.73304,42.5782]},{"code":"EA1/PO-008","program":"sota","name":"Monte de Cadavo","coordinates":[-8.50164,42.58828]},{"code":"EA1/PO-012","program":"sota","name":"Xesteiras","coordinates":[-8.58618,42.67567]},{"code":"EA1/PO-018","program":"sota","name":"Xiabre","coordinates":[-8.6989,42.63179]},{"code":"EA1/PO-023","program":"sota","name":"Acibal","coordinates":[-8.60176,42.52134]},{"code":"EA1/PO-045","program":"sota","name":"Monte de Castro Valente","coordinates":[-8.60593,42.72939]}]}