{"lat":42.5,"lon":-72.5,"programs":["pota","sota"],"count":18,"references":[{"code":"US-4561","program":"pota","name":"New England Trail National Scenic Trail","coordinates":[-72.2558,42.7158]},{"code":"US-2428","program":"pota","name":"Connecticut River Greenway State Park","coordinates":[-72.4983,42.6134]},{"code":"US-2442","program":"pota","name":"Lake Wyola State Park","coordinates":[-72.4362,42.5074]},{"code":"US-4734","program":"pota","name":"Wendell State Forest","coordinates":[-72.4367,42.538]},{"code":"US-4744","program":"pota","name":"Erving State Forest","coordinates":[-72.3809,42.6167]},{"code":"US-4748","program":"pota","name":"Warwick State Forest","coordinates":[-72.3603,42.6448]},{"code":"US-4751","program":"pota","name":"Northfield State Forest","coordinates":[-72.397,42.6611]},{"code":"US-4756","program":"pota","name":"Mount Grace State Forest","coordinates":[-72.3413,42.6886]},{"code":"US-11473","program":"pota","name":"Montague Wildlife Management Area","coordinates":[-72.4754,42.5243]},{"code":"US-11477","program":"pota","name":"Orange Wildlife Management Area","coordinates":[-72.294,42.6223]},{"code":"US-11479","program":"pota","name":"Pauchaug Brook Wildlife Management Area","coordinates":[-72.4482,42.7198]},{"code":"US-11489","program":"pota","name":"Warwick Wildlife Management Area","coordinates":[-72.3056,42.643]},{"code":"US-11490","program":"pota","name":"Wendell Wildlife Management Area","coordinates":[-72.4157,42.5237]},{"code":"US-11505","program":"pota","name":"Fish Brook Wildlife Management Area","coordinates":[-72.2727,42.6775]},{"code":"W1/CR-003","program":"sota","name":"Dry Hill","coordinates":[-72.4681,42.5436]},{"code":"W1/CR-005","program":"sota","name":"Mount Grace","coordinates":[-72.355,42.6914]},{"code":"W1/CR-007","program":"sota","name":"Notch Mountain","coordinates":[-72.4122,42.7119]},{"code":"W1/CR-008","program":"sota","name":"Crag Mountain","coordinates":[-72.4181,42.6436]}]}