{"lat":42.5,"lon":27.75,"programs":["gma","pota"],"count":8,"references":[{"code":"LZM/EM-039","program":"gma","name":"Sveti Iliya","coordinates":[27.872357,42.721322]},{"code":"LZM/EM-071","program":"gma","name":"Petrova chuka","coordinates":[27.825494,42.723056]},{"code":"LZM/EM-082","program":"gma","name":"Yurtya","coordinates":[27.824678,42.71902]},{"code":"LZM/EM-087","program":"gma","name":"Kucuyan","coordinates":[27.818542,42.713029]},{"code":"LZM/EM-099","program":"gma","name":"Paprahi","coordinates":[27.85077,42.707101]},{"code":"LZM/EM-101","program":"gma","name":"Babakaya","coordinates":[27.886648,42.704168]},{"code":"BG-0138","program":"pota","name":"Nos Emine Natural Monument","coordinates":[27.9,42.7017]},{"code":"BG-0139","program":"pota","name":"Irakli Protected Area","coordinates":[27.8928,42.7306]}]}