{"lat":42.5,"lon":13,"programs":["pota","sota"],"count":14,"references":[{"code":"IT-0110","program":"pota","name":"Monti Pizzuto - Alvagnano Natura 2000","coordinates":[13.1467,42.6717]},{"code":"I/AB-099","program":"sota","name":"Monte Verrico","coordinates":[13.2047,42.5601]},{"code":"I/LZ-016","program":"sota","name":"Monte Boragine","coordinates":[13.1108,42.5872]},{"code":"I/LZ-019","program":"sota","name":"Monte San Venanzio","coordinates":[13.1144,42.6153]},{"code":"I/LZ-029","program":"sota","name":"Monte Tolentino","coordinates":[13.0143,42.6011]},{"code":"I/LZ-312","program":"sota","name":"Monte di Cambio","coordinates":[13.0248,42.5125]},{"code":"I/UM-001","program":"sota","name":"Monte Pizzuto / Pozzoni","coordinates":[13.1627,42.6589]},{"code":"I/UM-003","program":"sota","name":"Monte Utero","coordinates":[13.1894,42.7092]},{"code":"I/UM-005","program":"sota","name":"Monte Alvagnano","coordinates":[13.1366,42.6817]},{"code":"I/UM-008","program":"sota","name":"Costa Comune","coordinates":[13.0893,42.6475]},{"code":"I/UM-011","program":"sota","name":"La Montagnola","coordinates":[13.0329,42.6462]},{"code":"I/UM-012","program":"sota","name":"Monte Torrato","coordinates":[13.0945,42.6732]},{"code":"I/UM-014","program":"sota","name":"Monte Pizzo","coordinates":[13.0217,42.6684]},{"code":"I/UM-025","program":"sota","name":"Monte Meraviglia","coordinates":[13.0195,42.6864]}]}