{"lat":42.5,"lon":19.75,"programs":["pota","sota"],"count":12,"references":[{"code":"ME-0005","program":"pota","name":"Prokletije National Park","coordinates":[19.9143,42.5308]},{"code":"4O/IC-011","program":"sota","name":"Karanfil Ljuljaševića","coordinates":[19.8024,42.5052]},{"code":"4O/IC-012","program":"sota","name":"Plana (Bandera)","coordinates":[19.8863,42.6101]},{"code":"4O/IC-014","program":"sota","name":"Velji vrh","coordinates":[19.8356,42.5999]},{"code":"4O/IC-015","program":"sota","name":"Vrh veliki (Veliki Trojan)","coordinates":[19.75,42.5513]},{"code":"4O/IC-018","program":"sota","name":"Maja Bors","coordinates":[19.9061,42.5077]},{"code":"4O/IC-022","program":"sota","name":"Goleš","coordinates":[19.8432,42.6475]},{"code":"4O/IC-026","program":"sota","name":"Drekin vrh","coordinates":[19.819,42.6294]},{"code":"4O/IC-034","program":"sota","name":"Prijedolska glava","coordinates":[19.9357,42.7021]},{"code":"4O/IC-048","program":"sota","name":"Vezirova brada","coordinates":[19.812,42.5398]},{"code":"4O/IC-056","program":"sota","name":"Teferič","coordinates":[19.8209,42.7434]},{"code":"4O/IC-057","program":"sota","name":"Čiperek","coordinates":[19.8177,42.713]}]}