{"lat":42.5,"lon":24.75,"programs":["gma","pota","sota"],"count":55,"references":[{"code":"LZM/KF-001","program":"gma","name":"Malkiya yumruk","coordinates":[24.919461,42.724443]},{"code":"LZM/KF-002","program":"gma","name":"Zhaltets","coordinates":[24.866396,42.722268]},{"code":"LZM/KF-003","program":"gma","name":"Paradzhika","coordinates":[24.948277,42.725074]},{"code":"LZM/KF-004","program":"gma","name":"Bezimenen","coordinates":[24.896221,42.720439]},{"code":"LZM/KF-005","program":"gma","name":"Yuryushka gramada","coordinates":[24.967376,42.732734]},{"code":"LZM/KF-006","program":"gma","name":"Ushite","coordinates":[24.939609,42.728478]},{"code":"LZM/KF-007","program":"gma","name":"Pobita glava","coordinates":[24.897203,42.71029]},{"code":"LZM/KF-010","program":"gma","name":"Haydut tepe","coordinates":[24.898689,42.69139]},{"code":"LZM/KF-011","program":"gma","name":"Kulata","coordinates":[24.982266,42.689145]},{"code":"LZM/KF-013","program":"gma","name":"Rusaliite","coordinates":[24.992266,42.737904]},{"code":"LZM/KF-016","program":"gma","name":"Mikhova planina","coordinates":[24.927094,42.738376]},{"code":"LZM/KF-017","program":"gma","name":"Golyama dyuza","coordinates":[24.999905,42.721511]},{"code":"LZM/KF-029","program":"gma","name":"Malak Rayski Kupen","coordinates":[24.935703,42.693839]},{"code":"LZM/KF-030","program":"gma","name":"Golyam Rayski Kupen","coordinates":[24.938579,42.686237]},{"code":"LZM/KF-031","program":"gma","name":"Sreden Rayski Kupen","coordinates":[24.9386,42.68936]},{"code":"LZM/KF-038","program":"gma","name":"Atanas tepe","coordinates":[24.999089,42.681647]},{"code":"LZM/KF-064","program":"gma","name":"Radulovia vrah","coordinates":[24.983854,42.625402]},{"code":"LZM/KF-065","program":"gma","name":"Ganchovite kamani","coordinates":[24.991021,42.629254]},{"code":"LZM/KF-071","program":"gma","name":"Boyuva","coordinates":[24.993854,42.653057]},{"code":"LZM/KF-073","program":"gma","name":"Bundrovoto","coordinates":[24.995527,42.637747]},{"code":"LZM/KF-080","program":"gma","name":"Gevrekat","coordinates":[24.992137,42.621076]},{"code":"LZM/KF-081","program":"gma","name":"Kosturovi kamani","coordinates":[24.999089,42.61997]},{"code":"LZM/RV-001","program":"gma","name":"KOCHMARA","coordinates":[24.861846,42.68089]},{"code":"LZM/RV-002","program":"gma","name":"SELSKATA MOGILA","coordinates":[24.891028,42.679785]},{"code":"LZM/RV-003","program":"gma","name":"SYUTLYUCHAL","coordinates":[24.878368,42.6748]},{"code":"LZM/RV-004","program":"gma","name":"BELCHU","coordinates":[24.899654,42.677072]},{"code":"LZM/RV-005","program":"gma","name":"HAYDUTA","coordinates":[24.910598,42.675652]},{"code":"LZM/RV-006","program":"gma","name":"RAVNETS","coordinates":[24.924577,42.673175]},{"code":"LZM/RV-007","program":"gma","name":"ORLEKA","coordinates":[24.941669,42.670576]},{"code":"LZM/RV-008","program":"gma","name":"KITKATA","coordinates":[24.853435,42.653973]},{"code":"LZM/RV-009","program":"gma","name":"GYOZKAYA","coordinates":[24.891286,42.644408]},{"code":"LZM/RV-010","program":"gma","name":"TUMBATA","coordinates":[24.937871,42.651195]},{"code":"LZM/RV-011","program":"gma","name":"KALETO","coordinates":[24.909225,42.645675]},{"code":"LZM/RV-012","program":"gma","name":"BAIRA","coordinates":[24.928236,42.625528]},{"code":"LZM/RV-013","program":"gma","name":"YUMRYUKBAIR","coordinates":[24.922957,42.61817]},{"code":"LZM/RV-014","program":"gma","name":"GERGENTEPE","coordinates":[24.853134,42.632791]},{"code":"LZM/SD-128","program":"gma","name":"Konnik(konche mogila)","coordinates":[24.779148,42.602653]},{"code":"LZM/SD-129","program":"gma","name":"Balyovitsa","coordinates":[24.751961,42.595339]},{"code":"LZM/TR-001","program":"gma","name":"Malka Ambaritsa","coordinates":[24.787519,42.722754]},{"code":"LZM/TR-002","program":"gma","name":"Malak Kupen","coordinates":[24.812622,42.721433]},{"code":"LZM/TR-003","program":"gma","name":"Kostenurkata","coordinates":[24.846654,42.719665]},{"code":"LZM/TR-004","program":"gma","name":"Krastets","coordinates":[24.835389,42.728142]},{"code":"LZM/TR-005","program":"gma","name":"Zalamtsa","coordinates":[24.780889,42.708078]},{"code":"LZM/TR-007","program":"gma","name":"Sakaritsa","coordinates":[24.792575,42.686953]},{"code":"LZM/TR-011","program":"gma","name":"Bivolarnika","coordinates":[24.769189,42.736535]},{"code":"LZM/TR-014","program":"gma","name":"Golyam Kupen","coordinates":[24.769726,42.691837]},{"code":"BG-0058","program":"pota","name":"Severen Dzendem Nature Reserve","coordinates":[24.9402,42.7367]},{"code":"BG-0065","program":"pota","name":"Stara Reka Nature Reserve","coordinates":[24.8298,42.6961]},{"code":"LZ/CB-001","program":"sota","name":"Botev","coordinates":[24.9175,42.7173]},{"code":"LZ/CB-003","program":"sota","name":"Dyuzchal (Mlechen chal)","coordinates":[24.8791,42.7245]},{"code":"LZ/CB-006","program":"sota","name":"Kupena","coordinates":[24.8194,42.7236]},{"code":"LZ/CB-007","program":"sota","name":"Ambaritsa","coordinates":[24.781,42.7201]},{"code":"LZ/CB-010","program":"sota","name":"Chernata mogila","coordinates":[24.8863,42.6771]},{"code":"LZ/SG-019","program":"sota","name":"Sveti Marko","coordinates":[24.9771,42.5203]},{"code":"LZ/SG-047","program":"sota","name":"Momini gardi","coordinates":[24.8709,42.549]}]}