{"lat":42.5,"lon":-8.5,"programs":["pota","sota"],"count":6,"references":[{"code":"ES-1185","program":"pota","name":"Branas de Xestoso Natura 2000","coordinates":[-8.3286,42.6784]},{"code":"EA1/PO-003","program":"sota","name":"Candán","coordinates":[-8.26402,42.59622]},{"code":"EA1/PO-004","program":"sota","name":"Outeiro do Couto","coordinates":[-8.36946,42.50135]},{"code":"EA1/PO-016","program":"sota","name":"Cabalar","coordinates":[-8.49115,42.64623]},{"code":"EA1/PO-039","program":"sota","name":"A Costoia","coordinates":[-8.29202,42.50327]},{"code":"EA1/PO-040","program":"sota","name":"O Caveiro","coordinates":[-8.46679,42.57629]}]}