{"lat":42.5,"lon":142.5,"programs":["sota"],"count":16,"references":[{"code":"JA8/HD-001","program":"sota","name":"Poroshiridake","coordinates":[142.6829,42.7194]},{"code":"JA8/HD-008","program":"sota","name":"Namewakkadake","coordinates":[142.721,42.666]},{"code":"JA8/HD-009","program":"sota","name":"JA8/HD-009","coordinates":[142.6662,42.6452]},{"code":"JA8/HD-021","program":"sota","name":"Nukanraidake","coordinates":[142.6137,42.7222]},{"code":"JA8/HD-026","program":"sota","name":"JA8/HD-026","coordinates":[142.6958,42.5518]},{"code":"JA8/HD-031","program":"sota","name":"Daisen","coordinates":[142.6619,42.5702]},{"code":"JA8/HD-047","program":"sota","name":"Settsuniyama","coordinates":[142.5252,42.7198]},{"code":"JA8/HD-049","program":"sota","name":"JA8/HD-049","coordinates":[142.5469,42.7068]},{"code":"JA8/HD-050","program":"sota","name":"Oroenai","coordinates":[142.5653,42.5762]},{"code":"JA8/HD-052","program":"sota","name":"Kounaisan","coordinates":[142.5821,42.656]},{"code":"JA8/HD-055","program":"sota","name":"JA8/HD-055","coordinates":[142.5207,42.693]},{"code":"JA8/HD-059","program":"sota","name":"Horoinai","coordinates":[142.5607,42.5348]},{"code":"JA8/HD-066","program":"sota","name":"JA8/HD-066","coordinates":[142.5469,42.663]},{"code":"JA8/HD-082","program":"sota","name":"JA8/HD-082","coordinates":[142.736,42.5331]},{"code":"JA8/HD-120","program":"sota","name":"Uriyama","coordinates":[142.5865,42.629]},{"code":"JA8/TC-004","program":"sota","name":"Tottabetsudake","coordinates":[142.6951,42.7387]}]}