{"lat":42.5,"lon":-120.75,"programs":["sota"],"count":7,"references":[{"code":"W7O/CE-013","program":"sota","name":"Slide Mountain","coordinates":[-120.7247,42.6817]},{"code":"W7O/CE-025","program":"sota","name":"Morgan Butte","coordinates":[-120.5443,42.5399]},{"code":"W7O/CE-034","program":"sota","name":"Brattain Butte","coordinates":[-120.554,42.5804]},{"code":"W7O/CE-041","program":"sota","name":"Ennis Butte","coordinates":[-120.5521,42.6208]},{"code":"W7O/CE-060","program":"sota","name":"McComb Butte","coordinates":[-120.6218,42.5884]},{"code":"W7O/CE-266","program":"sota","name":"6057","coordinates":[-120.601,42.6927]},{"code":"W7O/CE-280","program":"sota","name":"5496","coordinates":[-120.605,42.6025]}]}