{"lat":42.5,"lon":2.5,"programs":["gma","pota","sota"],"count":21,"references":[{"code":"FA/PE-042","program":"gma","name":"Mont Helena","coordinates":[2.66499996,42.57970047]},{"code":"FR-4032","program":"pota","name":"Fenouilledes Natura 2000","coordinates":[2.54722,42.6769]},{"code":"FR-10177","program":"pota","name":"Vallee de la Tet de Vinça a Perpignan Biological Reserve","coordinates":[2.69346,42.6855]},{"code":"FR-10202","program":"pota","name":"Massif de Forca-Real Biological Reserve","coordinates":[2.70164,42.7291]},{"code":"FR-10203","program":"pota","name":"Vallee de la Tet de Vinca a Perpignan Biological Reserve","coordinates":[2.69346,42.6855]},{"code":"FR-10204","program":"pota","name":"Massif des Aspres Biological Reserve","coordinates":[2.64426,42.5729]},{"code":"FR-10205","program":"pota","name":"Colline et grotte de Montou Biological Reserve","coordinates":[2.68449,42.6537]},{"code":"FR-10206","program":"pota","name":"Garrigues de Castelnou Biological Reserve","coordinates":[2.71418,42.6148]},{"code":"FR-10207","program":"pota","name":"Cretes de Camelas Biological Reserve","coordinates":[2.68043,42.6249]},{"code":"FR-10208","program":"pota","name":"Massifs du Mont Helene et du Montner Biological Reserve","coordinates":[2.66602,42.5721]},{"code":"FR-10209","program":"pota","name":"Grotte de Calmeilles Biological Reserve","coordinates":[2.67124,42.5556]},{"code":"FR-10221","program":"pota","name":"Vallee de la Lentilla Biological Reserve","coordinates":[2.51553,42.5212]},{"code":"FR-11230","program":"pota","name":"Versant sud du Massif du Madres Biological Reserve","coordinates":[2.64426,42.5729]},{"code":"FR-12468","program":"pota","name":"Plateau de Rodes et de Montalba Biological Reserve","coordinates":[2.607,42.675]},{"code":"FR-12470","program":"pota","name":"Massif du Pic Aubeill Biological Reserve","coordinates":[2.63,42.733]},{"code":"FR-12471","program":"pota","name":"Massif du Sarrat d'Espinets Biological Reserve","coordinates":[2.536,42.721]},{"code":"F/PE-167","program":"sota","name":"Sainte Anne","coordinates":[2.5606,42.5647]},{"code":"F/PE-242","program":"sota","name":"Sarrat d'Espinets","coordinates":[2.5147,42.7213]},{"code":"F/PE-311","program":"sota","name":"Chapelle de Força Real","coordinates":[2.7014,42.7278]},{"code":"F/PE-365","program":"sota","name":"Serrat del Coll d'Arques","coordinates":[2.6664,42.5305]},{"code":"F/PE-373","program":"sota","name":"Pic Aubeill","coordinates":[2.6225,42.7336]}]}