{"lat":42.5,"lon":0.25,"programs":["gma","pota","sota"],"count":50,"references":[{"code":"EC/AR-006","program":"gma","name":"Gourgs Blancs","coordinates":[0.4779,42.69919968]},{"code":"EC/AR-007","program":"gma","name":"Seil Dera Baquo","coordinates":[0.49759999,42.69329834]},{"code":"EC/AR-013","program":"gma","name":"Pico de L&acute; Ibonet","coordinates":[0.26190001,42.71269989]},{"code":"FA/PO-006","program":"gma","name":"Pic des Courgs Blancs","coordinates":[0.4786,42.70080185]},{"code":"FA/PO-012","program":"gma","name":"Pic de Batoua","coordinates":[0.33579999,42.70890045]},{"code":"FA/PO-016","program":"gma","name":"Pas de Balthazar","coordinates":[0.2678,42.72190094]},{"code":"XEA2/HU-031","program":"gma","name":"Tuca Des Corbets","coordinates":[0.477,42.63959885]},{"code":"FR-3784","program":"pota","name":"RIOUMAJOU ET MOUDANG  FR7300934 National Park","coordinates":[0.28583,42.7403]},{"code":"FR-3785","program":"pota","name":"HAUT LOURON  AYGUES TORTES CAILLAUAS GOURGS BLANCS GORGES DE CLARABIDE PICS DES PICHADERES ET D ESTIOUERE MONTAGNE DE TRAMADITS  FR7300935 Natura 2000","coordinates":[0.42222,42.7331]},{"code":"ES-0687","program":"pota","name":"Macizo de Cotiella Natura 2000","coordinates":[0.32,42.52]},{"code":"ES-0707","program":"pota","name":"Rio Esera Natura 2000","coordinates":[0.4706,42.5794]},{"code":"ES-0713","program":"pota","name":"Chistau Natura 2000","coordinates":[0.3078,42.5883]},{"code":"ES-0716","program":"pota","name":"Sierra de Chia - Congosto de Seira Natura 2000","coordinates":[0.4161,42.51]},{"code":"ES-2392","program":"pota","name":"Glaciares Pirenaicos Natural Monument","coordinates":[0.489135,42.5876]},{"code":"EA2/HU-002","program":"sota","name":"Posets","coordinates":[0.4352,42.6546]},{"code":"EA2/HU-008","program":"sota","name":"Bachimala","coordinates":[0.3944,42.6986]},{"code":"EA2/HU-016","program":"sota","name":"Eriste","coordinates":[0.4093,42.625]},{"code":"EA2/HU-018","program":"sota","name":"Batoua","coordinates":[0.3362,42.7086]},{"code":"EA2/HU-023","program":"sota","name":"Punta Suelza","coordinates":[0.2899,42.652]},{"code":"EA2/HU-029","program":"sota","name":"Cotiella","coordinates":[0.3199,42.512]},{"code":"EA2/HU-051","program":"sota","name":"Tuxal de Bocs","coordinates":[0.4236,42.5978]},{"code":"EA2/HU-056","program":"sota","name":"Punta Ixabre","coordinates":[0.3959,42.6796]},{"code":"EA2/HU-058","program":"sota","name":"Peña las Once","coordinates":[0.3469,42.5477]},{"code":"EA2/HU-063","program":"sota","name":"Puntal de Chía","coordinates":[0.4206,42.5511]},{"code":"EA2/HU-068","program":"sota","name":"Pico de l'Orbar","coordinates":[0.2779,42.6097]},{"code":"EA2/HU-089","program":"sota","name":"Peña de San Martín","coordinates":[0.3079,42.58]},{"code":"EA2/HU-095","program":"sota","name":"Peña de Artiés","coordinates":[0.2885,42.572]},{"code":"EA2/HU-117","program":"sota","name":"Tuca Des Corbets","coordinates":[0.47578,42.63843]},{"code":"EA2/HU-119","program":"sota","name":"Punta Fuesa","coordinates":[0.26749,42.6608]},{"code":"EA2/HU-122","program":"sota","name":"Punta de Armeña / Pico d'Espouy","coordinates":[0.31948,42.52022]},{"code":"EA2/HU-129","program":"sota","name":"La Montañeta","coordinates":[0.39499,42.60927]},{"code":"EA2/HU-130","program":"sota","name":"Peña de la Una","coordinates":[0.31896,42.53195]},{"code":"EA2/HU-132","program":"sota","name":"Peña Blanca","coordinates":[0.3212,42.68285]},{"code":"EA2/HU-135","program":"sota","name":"Pico Mobisón Gran","coordinates":[0.28321,42.53522]},{"code":"EA2/HU-146","program":"sota","name":"Pico del Montó","coordinates":[0.34569,42.66251]},{"code":"EA2/HU-148","program":"sota","name":"Tozal d'Escubillons","coordinates":[0.30163,42.62795]},{"code":"EA2/HU-185","program":"sota","name":"Peña de Sin","coordinates":[0.2597,42.57108]},{"code":"F/PE-002","program":"sota","name":"Pic des Gourgs Blancs","coordinates":[0.4789,42.6997]},{"code":"F/PE-008","program":"sota","name":"Pic du Seil de la Baque","coordinates":[0.4963,42.6925]},{"code":"F/PE-012","program":"sota","name":"Pic des Spijeoles","coordinates":[0.4847,42.71]},{"code":"F/PE-335","program":"sota","name":"Pic de Hourgade","coordinates":[0.4492,42.7339]},{"code":"F/PO-020","program":"sota","name":"Pic de Lustou","coordinates":[0.3599,42.7352]},{"code":"F/PO-031","program":"sota","name":"Pic de la Niscoude","coordinates":[0.3491,42.7151]},{"code":"F/PO-038","program":"sota","name":"Crête de Parraouis","coordinates":[0.3675,42.7433]},{"code":"F/PO-042","program":"sota","name":"Pic d'Aygues Tortes","coordinates":[0.4261,42.6911]},{"code":"F/PO-043","program":"sota","name":"Pic d'Arriouère","coordinates":[0.2608,42.7114]},{"code":"F/PO-046","program":"sota","name":"Pic d'Espingo","coordinates":[0.4636,42.7408]},{"code":"F/PO-049","program":"sota","name":"Pic de l'Espade","coordinates":[0.2638,42.6932]},{"code":"F/PO-075","program":"sota","name":"Pic des Courtalets","coordinates":[0.4367,42.7302]},{"code":"F/PO-271","program":"sota","name":"Pic de Thou","coordinates":[0.3432,42.7484]}]}