{"lat":42.75,"lon":0.25,"programs":["gma","pota","sota"],"count":36,"references":[{"code":"FA/PO-027","program":"gma","name":"Montagne d Areng","coordinates":[0.46110001,42.91529846]},{"code":"FA/PO-033","program":"gma","name":"Plo del Naou","coordinates":[0.31529999,42.92079926]},{"code":"FA/PO-045","program":"gma","name":"Pic de Mont Aspet","coordinates":[0.47999999,42.95280075]},{"code":"FA/PO-046","program":"gma","name":"Pic de Picarre","coordinates":[0.4822,42.99359894]},{"code":"FR-2518","program":"pota","name":"Massif de Sesques et de l'Ossau Natura 2000","coordinates":[0.489191,42.9025]},{"code":"FR-8111","program":"pota","name":"Massif du Montious Biological Reserve","coordinates":[0.44,42.866]},{"code":"FR-8112","program":"pota","name":"Vallons forestiers et milieux subalpins en rive droite du bas Louron Biological Reserve","coordinates":[0.42409,42.8906]},{"code":"FR-8113","program":"pota","name":"Vallee du Louron Biological Reserve","coordinates":[0.42387,42.8122]},{"code":"FR-8114","program":"pota","name":"Massif granitique hercynien de Borderes-Louron Conservation Area","coordinates":[0.43,42.82]},{"code":"FR-8636","program":"pota","name":"Massif du Montious Biological Reserve","coordinates":[0.44,42.866]},{"code":"FR-8638","program":"pota","name":"Haute vallee d´Aure en rive droite, de Barroude au Col d´Azet Biological Reserve","coordinates":[0.27502,42.7508]},{"code":"FR-8639","program":"pota","name":"Haute vallee d'Aure Biological Reserve","coordinates":[0.26805,42.8056]},{"code":"FR-8641","program":"pota","name":"La Neste, amont Biological Reserve","coordinates":[0.30264,42.8293]},{"code":"FR-8642","program":"pota","name":"Vallee du Louron Biological Reserve","coordinates":[0.42387,42.8122]},{"code":"FR-8644","program":"pota","name":"Vallee d'Aulon et soulane de Vielle-Aure Biological Reserve","coordinates":[0.28071,42.8526]},{"code":"FR-8645","program":"pota","name":"Massif entre les Nestes d'Aure et du Louron Biological Reserve","coordinates":[0.37766,42.8394]},{"code":"FR-8646","program":"pota","name":"La Neste du Louron et ses affluents Biological Reserve","coordinates":[0.40302,42.8253]},{"code":"FR-8648","program":"pota","name":"Payolle Biological Reserve","coordinates":[0.29964,42.9453]},{"code":"FR-8664","program":"pota","name":"Bois de La Cabane Biological Reserve","coordinates":[0.26788,42.8205]},{"code":"F/PO-035","program":"sota","name":"Pic d'Aret","coordinates":[0.2749,42.7542]},{"code":"F/PO-050","program":"sota","name":"L'Arbizon","coordinates":[0.2726,42.8759]},{"code":"F/PO-055","program":"sota","name":"Pic d'Arrouyette","coordinates":[0.3848,42.7511]},{"code":"F/PO-068","program":"sota","name":"Pic de la Haille","coordinates":[0.3295,42.755]},{"code":"F/PO-076","program":"sota","name":"Pic de Berdalade","coordinates":[0.342,42.7614]},{"code":"F/PO-083","program":"sota","name":"Pic de Sarrouyes","coordinates":[0.3668,42.7627]},{"code":"F/PO-115","program":"sota","name":"Montségu","coordinates":[0.4621,42.7627]},{"code":"F/PO-128","program":"sota","name":"Montious","coordinates":[0.4415,42.8611]},{"code":"F/PO-131","program":"sota","name":"Mont Né","coordinates":[0.4766,42.877]},{"code":"F/PO-142","program":"sota","name":"Signal de Bassia","coordinates":[0.3041,42.9771]},{"code":"F/PO-147","program":"sota","name":"Cap Nestès","coordinates":[0.4471,42.9352]},{"code":"F/PO-153","program":"sota","name":"Monné Rouye","coordinates":[0.319,42.9512]},{"code":"F/PO-158","program":"sota","name":"Pic de Montaut","coordinates":[0.4249,42.9737]},{"code":"F/PO-159","program":"sota","name":"Peyres Aubes","coordinates":[0.3787,42.8142]},{"code":"F/PO-257","program":"sota","name":"Pic de Mont Aspet","coordinates":[0.4784,42.9523]},{"code":"F/PO-259","program":"sota","name":"Pic de Picarre","coordinates":[0.4801,42.9933]},{"code":"F/PO-282","program":"sota","name":"Plo del Naou","coordinates":[0.3135,42.9194]}]}