{"lat":42.75,"lon":27.5,"programs":["gma","pota"],"count":94,"references":[{"code":"LZM/EM-013","program":"gma","name":"Gyoztepe","coordinates":[27.655506,42.798435]},{"code":"LZM/EM-014","program":"gma","name":"Kesyada","coordinates":[27.647223,42.807146]},{"code":"LZM/EM-024","program":"gma","name":"Idilitsa","coordinates":[27.590618,42.827607]},{"code":"LZM/EM-029","program":"gma","name":"Kaputarla","coordinates":[27.656794,42.781134]},{"code":"LZM/EM-030","program":"gma","name":"Sarchtepe","coordinates":[27.641687,42.784157]},{"code":"LZM/EM-031","program":"gma","name":"Kabakchiya","coordinates":[27.706189,42.766076]},{"code":"LZM/EM-033","program":"gma","name":"Cvyatko Stoyanova chuka","coordinates":[27.66866,42.819203]},{"code":"LZM/EM-034","program":"gma","name":"Petkov rat","coordinates":[27.58019,42.828205]},{"code":"LZM/EM-036","program":"gma","name":"Kukerchova chuka","coordinates":[27.67808,42.791968]},{"code":"LZM/EM-040","program":"gma","name":"Grobishteto","coordinates":[27.689409,42.806107]},{"code":"LZM/EM-041","program":"gma","name":"Golyam gol bair","coordinates":[27.553217,42.806248]},{"code":"LZM/EM-042","program":"gma","name":"Palashka chuka","coordinates":[27.564461,42.8065]},{"code":"LZM/EM-043","program":"gma","name":"Kayranska chuka","coordinates":[27.589202,42.821627]},{"code":"LZM/EM-046","program":"gma","name":"Valska chuka","coordinates":[27.62641,42.794047]},{"code":"LZM/EM-048","program":"gma","name":"Kabakchiya","coordinates":[27.702627,42.763303]},{"code":"LZM/EM-049","program":"gma","name":"Babkata","coordinates":[27.60551,42.823138]},{"code":"LZM/EM-051","program":"gma","name":"Dyadovata Atanasova chuka","coordinates":[27.71091,42.804658]},{"code":"LZM/EM-053","program":"gma","name":"Podensku burun","coordinates":[27.580404,42.824869]},{"code":"LZM/EM-054","program":"gma","name":"Kaleto","coordinates":[27.68795,42.792031]},{"code":"LZM/EM-057","program":"gma","name":"Ambarite","coordinates":[27.5771,42.820541]},{"code":"LZM/EM-058","program":"gma","name":"Ravna chuka","coordinates":[27.653317,42.860835]},{"code":"LZM/EM-060","program":"gma","name":"Kabakchiya","coordinates":[27.630615,42.803241]},{"code":"LZM/EM-063","program":"gma","name":"Karachmak chuka","coordinates":[27.680319,42.826631]},{"code":"LZM/EM-064","program":"gma","name":"Leferchev garbel","coordinates":[27.69177,42.821973]},{"code":"LZM/EM-067","program":"gma","name":"Kovalashka chuka","coordinates":[27.722239,42.804501]},{"code":"LZM/EM-070","program":"gma","name":"Leskova chuka","coordinates":[27.672071,42.768943]},{"code":"LZM/EM-073","program":"gma","name":"Saradzhi tepe","coordinates":[27.616625,42.79011]},{"code":"LZM/EM-074","program":"gma","name":"Gradishteto","coordinates":[27.640786,42.869517]},{"code":"LZM/EM-076","program":"gma","name":"Harmanyurtyu","coordinates":[27.6404,42.852876]},{"code":"LZM/EM-077","program":"gma","name":"Kanska chuka","coordinates":[27.607956,42.807649]},{"code":"LZM/EM-083","program":"gma","name":"Sardzhatepe","coordinates":[27.608943,42.786929]},{"code":"LZM/EM-084","program":"gma","name":"Kaleto","coordinates":[27.611647,42.798235]},{"code":"LZM/EM-089","program":"gma","name":"Hasarlashka chuka","coordinates":[27.696619,42.842084]},{"code":"LZM/EM-091","program":"gma","name":"Achmatepe","coordinates":[27.708592,42.831762]},{"code":"LZM/EM-092","program":"gma","name":"Adatlar","coordinates":[27.689409,42.847247]},{"code":"LZM/EM-093","program":"gma","name":"Baalartepe","coordinates":[27.749233,42.816716]},{"code":"LZM/EM-094","program":"gma","name":"Achmatepe","coordinates":[27.716618,42.831825]},{"code":"LZM/EM-097","program":"gma","name":"Haramanlaka","coordinates":[27.640121,42.77088]},{"code":"LZM/EM-098","program":"gma","name":"Kashla bair","coordinates":[27.591691,42.788913]},{"code":"LZM/EM-102","program":"gma","name":"Stamatova chuka","coordinates":[27.653704,42.767084]},{"code":"LZM/KC-004","program":"gma","name":"Dedeeva chuka","coordinates":[27.519979,42.919978]},{"code":"LZM/KC-007","program":"gma","name":"Golyamata chuka","coordinates":[27.503371,42.913503]},{"code":"LZM/KC-008","program":"gma","name":"Balyova chuka","coordinates":[27.549291,42.836529]},{"code":"LZM/KC-009","program":"gma","name":"Stara golitsa","coordinates":[27.571607,42.932327]},{"code":"LZM/KC-013","program":"gma","name":"Mirchov chukar","coordinates":[27.560105,42.930442]},{"code":"LZM/KC-014","program":"gma","name":"Obesenata chuka","coordinates":[27.549677,42.92884]},{"code":"LZM/KC-015","program":"gma","name":"Karabair","coordinates":[27.51294,42.826694]},{"code":"LZM/KC-017","program":"gma","name":"Bakhova chuka","coordinates":[27.590833,42.939837]},{"code":"LZM/KC-018","program":"gma","name":"Petlova chuka","coordinates":[27.536416,42.948224]},{"code":"LZM/KC-019","program":"gma","name":"Fetina chuka","coordinates":[27.582378,42.938737]},{"code":"LZM/KC-020","program":"gma","name":"Golyamata turla","coordinates":[27.525473,42.881059]},{"code":"LZM/KC-024","program":"gma","name":"Malkata turla","coordinates":[27.51822,42.878166]},{"code":"LZM/KC-026","program":"gma","name":"Panichkin chukar","coordinates":[27.513456,42.928243]},{"code":"LZM/KC-030","program":"gma","name":"Stanishka chuka","coordinates":[27.60684,42.832643]},{"code":"LZM/KC-032","program":"gma","name":"Veleva glava","coordinates":[27.545428,42.941313]},{"code":"LZM/KC-038","program":"gma","name":"Ostrata mogila","coordinates":[27.556543,42.945931]},{"code":"LZM/KC-039","program":"gma","name":"Gradishte","coordinates":[27.535472,42.983334]},{"code":"LZM/KC-040","program":"gma","name":"Drumeva chuka","coordinates":[27.565253,42.950015]},{"code":"LZM/KC-044","program":"gma","name":"Gradishteto","coordinates":[27.650399,42.839975]},{"code":"LZM/KC-049","program":"gma","name":"Murdzha","coordinates":[27.505603,42.950172]},{"code":"LZM/KC-052","program":"gma","name":"Kovacheva mogila","coordinates":[27.50247,42.897692]},{"code":"LZM/KC-060","program":"gma","name":"Ravninska chuka","coordinates":[27.616024,42.844569]},{"code":"LZM/KC-066","program":"gma","name":"Valchev borun","coordinates":[27.59903,42.96016]},{"code":"LZM/KC-067","program":"gma","name":"Malka lisa mogila","coordinates":[27.60066,42.959783]},{"code":"LZM/KC-070","program":"gma","name":"Kedkova chuka","coordinates":[27.517619,42.899358]},{"code":"LZM/KC-074","program":"gma","name":"Britovska chuka","coordinates":[27.513499,42.940779]},{"code":"LZM/KC-075","program":"gma","name":"Chukata lozya","coordinates":[27.68486,42.835507]},{"code":"LZM/KC-078","program":"gma","name":"Sakar tepe","coordinates":[27.612806,42.96038]},{"code":"LZM/KC-079","program":"gma","name":"Kokala","coordinates":[27.615852,42.934244]},{"code":"LZM/KC-081","program":"gma","name":"Harmanyurtyu","coordinates":[27.640314,42.852876]},{"code":"LZM/KC-084","program":"gma","name":"Tashlak tepe","coordinates":[27.701597,42.914258]},{"code":"LZM/KC-085","program":"gma","name":"Gradenata mogila","coordinates":[27.694709,42.919585]},{"code":"LZM/KC-086","program":"gma","name":"Staikova chuka","coordinates":[27.604523,42.918218]},{"code":"LZM/KC-087","program":"gma","name":"Lozyata chuka","coordinates":[27.650828,42.913189]},{"code":"LZM/KC-088","program":"gma","name":"Orlov kamak","coordinates":[27.568088,42.977965]},{"code":"LZM/KC-089","program":"gma","name":"Goliamata yabalka","coordinates":[27.505946,42.976364]},{"code":"LZM/KC-090","program":"gma","name":"Marin tepe","coordinates":[27.714643,42.959469]},{"code":"LZM/KC-094","program":"gma","name":"Avrantepe","coordinates":[27.637954,42.966756]},{"code":"LZM/KC-095","program":"gma","name":"Lanalashka chuka","coordinates":[27.565084,42.987509]},{"code":"LZM/KC-096","program":"gma","name":"Bexhenin tepe","coordinates":[27.64482,42.914446]},{"code":"LZM/KC-098","program":"gma","name":"Kurt bair","coordinates":[27.717948,42.948664]},{"code":"LZM/KC-099","program":"gma","name":"Skomene","coordinates":[27.551691,42.905362]},{"code":"LZM/KC-101","program":"gma","name":"Beberna chuka","coordinates":[27.661386,42.903671]},{"code":"LZM/KC-105","program":"gma","name":"Sait tepe","coordinates":[27.677779,42.908417]},{"code":"LZM/KC-106","program":"gma","name":"Kun tepe","coordinates":[27.657262,42.902628]},{"code":"LZM/KC-107","program":"gma","name":"Ilyovata chuka","coordinates":[27.691348,42.904954]},{"code":"LZM/KC-116","program":"gma","name":"Nebi Yordo","coordinates":[27.708125,42.891089]},{"code":"LZM/KC-118","program":"gma","name":"Chobankolevi","coordinates":[27.631516,42.904639]},{"code":"LZM/KC-119","program":"gma","name":"Beshkitepe","coordinates":[27.656622,42.938988]},{"code":"LZM/KC-120","program":"gma","name":"Lyulyaktepe","coordinates":[27.694259,42.953847]},{"code":"LZM/KC-121","program":"gma","name":"Kurbantepe","coordinates":[27.650356,42.987132]},{"code":"LZM/KC-123","program":"gma","name":"Smailyordu","coordinates":[27.724428,42.87381]},{"code":"XLZ/EB-045","program":"gma","name":"Balyova chuka","coordinates":[27.5493,42.8366]},{"code":"BG-0108","program":"pota","name":"Kamchiyska i Emenska planina Natura 2000","coordinates":[27.505,42.9417]}]}