{"lat":42.75,"lon":25,"programs":["gma","pota","sota"],"count":80,"references":[{"code":"LZM/CP-004","program":"gma","name":"Chereshkite","coordinates":[25.011234,42.881876]},{"code":"LZM/CP-008","program":"gma","name":"Mazaloto","coordinates":[25.035127,42.871923]},{"code":"LZM/CP-009","program":"gma","name":"Biloto","coordinates":[25.008161,42.893982]},{"code":"LZM/CP-012","program":"gma","name":"Klichat","coordinates":[25.038614,42.865113]},{"code":"LZM/CP-082","program":"gma","name":"Denyuv chukar","coordinates":[25.045094,42.906746]},{"code":"LZM/CP-113","program":"gma","name":"Dabravata","coordinates":[25.226841,42.920575]},{"code":"LZM/CP-117","program":"gma","name":"Shumata","coordinates":[25.051789,42.928525]},{"code":"LZM/CP-118","program":"gma","name":"Pamuka","coordinates":[25.054536,42.931228]},{"code":"LZM/CP-121","program":"gma","name":"Koriykata","coordinates":[25.074041,42.909501]},{"code":"LZM/KF-012","program":"gma","name":"Dolnata kukla","coordinates":[25.051449,42.779467]},{"code":"LZM/KF-019","program":"gma","name":"Ustrikata","coordinates":[25.038945,42.754134]},{"code":"LZM/KF-022","program":"gma","name":"Plochata","coordinates":[25.026898,42.761728]},{"code":"LZM/KF-024","program":"gma","name":"Valcha mogila","coordinates":[25.015783,42.762862]},{"code":"LZM/KF-025","program":"gma","name":"Zelenikovets","coordinates":[25.018401,42.770014]},{"code":"LZM/KF-026","program":"gma","name":"Valcha glava","coordinates":[25.10715,42.761413]},{"code":"LZM/KF-039","program":"gma","name":"Gornata kukla","coordinates":[25.051274,42.772975]},{"code":"LZM/KF-041","program":"gma","name":"Ganyov chukar","coordinates":[25.096722,42.789732]},{"code":"LZM/KF-043","program":"gma","name":"Kupnets","coordinates":[25.069857,42.770707]},{"code":"LZM/KF-051","program":"gma","name":"Cholashka mogila","coordinates":[25.037456,42.798985]},{"code":"LZM/KF-052","program":"gma","name":"Venetsa","coordinates":[25.068226,42.78928]},{"code":"LZM/KF-053","program":"gma","name":"Belenska kukla","coordinates":[25.027113,42.787244]},{"code":"LZM/KF-055","program":"gma","name":"Kunyovoto","coordinates":[25.118061,42.837373]},{"code":"LZM/KF-058","program":"gma","name":"Dryanovski vrah","coordinates":[25.04121,42.837586]},{"code":"LZM/KF-060","program":"gma","name":"Penov preslap","coordinates":[25.043292,42.842666]},{"code":"LZM/KF-062","program":"gma","name":"Golemia chukar","coordinates":[25.03016,42.798298]},{"code":"LZM/KF-067","program":"gma","name":"Garvanov chukar","coordinates":[25.059385,42.806347]},{"code":"LZM/KF-070","program":"gma","name":"Yavora","coordinates":[25.082431,42.821214]},{"code":"LZM/KF-074","program":"gma","name":"Turlata","coordinates":[25.062132,42.80384]},{"code":"LZM/KF-075","program":"gma","name":"Govedarnika","coordinates":[25.075006,42.817881]},{"code":"LZM/KF-082","program":"gma","name":"Lipova mogila","coordinates":[25.042005,42.827136]},{"code":"LZM/KF-083","program":"gma","name":"Musin dyal","coordinates":[25.097752,42.816433]},{"code":"LZM/KF-085","program":"gma","name":"Voyvodin","coordinates":[25.103905,42.848242]},{"code":"LZM/KF-089","program":"gma","name":"Lomena polyana","coordinates":[25.016062,42.812403]},{"code":"LZM/KF-090","program":"gma","name":"Polugarya","coordinates":[25.046039,42.82553]},{"code":"LZM/KF-092","program":"gma","name":"Kriviya dyal","coordinates":[25.071664,42.843749]},{"code":"LZM/SP-001","program":"gma","name":"Bukhala","coordinates":[25.146418,42.766801]},{"code":"LZM/SP-003","program":"gma","name":"Korita","coordinates":[25.160451,42.775338]},{"code":"LZM/SP-018","program":"gma","name":"Kokonka","coordinates":[25.216327,42.762626]},{"code":"LZM/SP-021","program":"gma","name":"Tankia rat","coordinates":[25.177531,42.77496]},{"code":"LZM/SP-027","program":"gma","name":"Tochiloto","coordinates":[25.195256,42.764342]},{"code":"LZM/SP-051","program":"gma","name":"Osenikovets","coordinates":[25.123742,42.827576]},{"code":"LZM/SP-053","program":"gma","name":"Chukarya","coordinates":[25.145817,42.814827]},{"code":"LZM/SP-063","program":"gma","name":"Goreloto","coordinates":[25.190942,42.806154]},{"code":"LZM/SP-065","program":"gma","name":"Mechkova chuka","coordinates":[25.162039,42.865015]},{"code":"LZM/SP-066","program":"gma","name":"Gramadata","coordinates":[25.202293,42.847905]},{"code":"LZM/SP-067","program":"gma","name":"Mechkovi chuki","coordinates":[25.164957,42.857846]},{"code":"LZM/SP-069","program":"gma","name":"Vaditsite","coordinates":[25.167789,42.84372]},{"code":"LZM/SP-071","program":"gma","name":"Hristov chukar","coordinates":[25.224009,42.840699]},{"code":"LZM/SP-075","program":"gma","name":"Ogorelets","coordinates":[25.125818,42.830928]},{"code":"LZM/SP-077","program":"gma","name":"Ostra chuka","coordinates":[25.213108,42.814544]},{"code":"LZM/SP-078","program":"gma","name":"Ostrata mogila","coordinates":[25.201778,42.809036]},{"code":"LZM/SP-082","program":"gma","name":"Kunyovoto","coordinates":[25.118008,42.837332]},{"code":"LZM/SP-083","program":"gma","name":"Plochkata","coordinates":[25.151439,42.865207]},{"code":"LZM/SP-090","program":"gma","name":"Varhat","coordinates":[25.14719,42.849981]},{"code":"LZM/SP-091","program":"gma","name":"Chukata","coordinates":[25.189633,42.86461]},{"code":"LZM/SP-092","program":"gma","name":"Shirok rid","coordinates":[25.197959,42.864987]},{"code":"LZM/SP-094","program":"gma","name":"Guteva cherkva","coordinates":[25.209332,42.868384]},{"code":"LZM/SP-095","program":"gma","name":"Bukhala","coordinates":[25.090199,42.881651]},{"code":"LZM/SP-099","program":"gma","name":"Mogilata","coordinates":[25.233192,42.854889]},{"code":"LZM/SP-100","program":"gma","name":"Bukhala","coordinates":[25.129509,42.869108]},{"code":"LZM/SP-101","program":"gma","name":"Panteva chuka","coordinates":[25.212293,42.870492]},{"code":"LZM/SP-102","program":"gma","name":"Chukara","coordinates":[25.216198,42.866025]},{"code":"LZM/SP-105","program":"gma","name":"Uruka","coordinates":[25.237784,42.859388]},{"code":"LZM/SP-117","program":"gma","name":"Varhat","coordinates":[25.111656,42.856987]},{"code":"LZM/SP-118","program":"gma","name":"Troyanskoto","coordinates":[25.13144,42.873825]},{"code":"LZM/SP-119","program":"gma","name":"Voyvodyn","coordinates":[25.103846,42.848188]},{"code":"LZM/SP-120","program":"gma","name":"Kraynia chukar","coordinates":[25.188872,42.8519]},{"code":"LZM/SP-121","program":"gma","name":"Razmazova prisoyka","coordinates":[25.1438,42.87587]},{"code":"LZM/SP-122","program":"gma","name":"Enchova prisoyka","coordinates":[25.160666,42.875209]},{"code":"LZM/SP-123","program":"gma","name":"Vednia chukar","coordinates":[25.16427,42.87826]},{"code":"LZM/SP-124","program":"gma","name":"Koev chukar","coordinates":[25.127621,42.887096]},{"code":"LZM/SP-125","program":"gma","name":"Bonkin chukar","coordinates":[25.136847,42.887474]},{"code":"LZM/SP-126","program":"gma","name":"Denkin chukar","coordinates":[25.143585,42.886562]},{"code":"LZM/SP-127","program":"gma","name":"Lipachorat","coordinates":[25.113115,42.888481]},{"code":"LZM/SP-128","program":"gma","name":"Vlachishteto","coordinates":[25.138865,42.883574]},{"code":"LZM/SP-129","program":"gma","name":"Poplyuvka","coordinates":[25.123601,42.896466]},{"code":"LZM/SP-130","program":"gma","name":"Gorishtata","coordinates":[25.151911,42.881845]},{"code":"LZM/SP-131","program":"gma","name":"Pette mechki","coordinates":[25.130839,42.894398]},{"code":"BG-0055","program":"pota","name":"Peeshti Skali Nature Reserve","coordinates":[25.0734,42.7653]},{"code":"LZ/CB-049","program":"sota","name":"Levi vrah","coordinates":[25.003,42.8779]}]}