{"lat":42.75,"lon":19.5,"programs":["pota","sota"],"count":10,"references":[{"code":"ME-0001","program":"pota","name":"Biogradska Gora National Park","coordinates":[19.5959,42.901]},{"code":"4O/IC-021","program":"sota","name":"Crna glava","coordinates":[19.6982,42.8666]},{"code":"4O/IC-024","program":"sota","name":"Crna glava","coordinates":[19.7079,42.9081]},{"code":"4O/IC-031","program":"sota","name":"Razvršje","coordinates":[19.6253,42.9116]},{"code":"4O/IC-035","program":"sota","name":"Ogorela glava","coordinates":[19.6238,42.8648]},{"code":"4O/IC-036","program":"sota","name":"Ključ","coordinates":[19.6299,42.8112]},{"code":"4O/IC-041","program":"sota","name":"Jelenak","coordinates":[19.6834,42.8035]},{"code":"4O/IC-043","program":"sota","name":"Lisa","coordinates":[19.6825,42.7681]},{"code":"4O/IC-049","program":"sota","name":"Ostrvica","coordinates":[19.5134,42.7565]},{"code":"4O/ZC-095","program":"sota","name":"Gradac","coordinates":[19.5644,42.9188]}]}