{"lat":42.75,"lon":-115,"programs":["pota"],"count":7,"references":[{"code":"US-0940","program":"pota","name":"Hagerman Fossil Beds National Monument","coordinates":[-114.952,42.7817]},{"code":"US-2248","program":"pota","name":"Thousand Springs State Park","coordinates":[-114.855,42.8668]},{"code":"US-5591","program":"pota","name":"Billingsley Creek Wildlife Management Area","coordinates":[-114.882,42.833]},{"code":"US-5606","program":"pota","name":"Hagerman Wildlife Management Area","coordinates":[-114.879,42.7693]},{"code":"US-10444","program":"pota","name":"Hagerman National Fish Hatchery","coordinates":[-114.863,42.7633]},{"code":"US-11537","program":"pota","name":"Lower Salmon Falls Reservoir State Fishing Lake","coordinates":[-114.904,42.8402]},{"code":"US-11546","program":"pota","name":"Upper Salmon Falls Reservoir State Fishing Lake","coordinates":[-114.899,42.764]}]}