{"lat":42.75,"lon":-79,"programs":["pota","wwbota"],"count":8,"references":[{"code":"CA-5302","program":"pota","name":"Fort Erie National Historic Site","coordinates":[-78.9247,42.8945]},{"code":"US-0866","program":"pota","name":"Theodore Roosevelt Inaugural National Historic Site","coordinates":[-78.8728,42.9016]},{"code":"US-2011","program":"pota","name":"Beaver Island State Park","coordinates":[-78.9703,42.969]},{"code":"US-2021","program":"pota","name":"Buffalo Harbor State Park","coordinates":[-78.8621,42.8464]},{"code":"US-2164","program":"pota","name":"Woodlawn Beach State Park","coordinates":[-78.8515,42.7893]},{"code":"US-9056","program":"pota","name":"Motor Island Wildlife Management Area","coordinates":[-78.934,42.9645]},{"code":"US-10050","program":"pota","name":"Darwin Martin House State Historic Site","coordinates":[-78.8465,42.936]},{"code":"B/US-0437","program":"wwbota","name":"Buffalo Fire Department Engine 1 Ladder 2","coordinates":[-78.873599,42.882146]}]}