{"lat":42.75,"lon":-5,"programs":["gma","sota"],"count":21,"references":[{"code":"XEA1/LE-140","program":"gma","name":"Cuetos Negros?","coordinates":[-4.90320015,42.89139938]},{"code":"XEA1/LE-169","program":"gma","name":"Cueto Mesao","coordinates":[-4.9598999,42.92679977]},{"code":"XEA1/LE-188","program":"gma","name":"Alto de la Carbajosa","coordinates":[-4.92409992,42.93790054]},{"code":"XEA1/PL-023","program":"gma","name":"Era Verde","coordinates":[-4.79370022,42.91569901]},{"code":"EA1/LE-090","program":"sota","name":"Coscollorudo","coordinates":[-4.89961,42.91011]},{"code":"EA1/LE-149","program":"sota","name":"Cueto","coordinates":[-4.93035,42.89219]},{"code":"EA1/LE-163","program":"sota","name":"Puerto del Pando","coordinates":[-4.92699,42.91865]},{"code":"EA1/LE-185","program":"sota","name":"Cueto de Pujedo","coordinates":[-4.98399,42.9465]},{"code":"EA1/LE-187","program":"sota","name":"Cueto del Avellán","coordinates":[-4.93656,42.95631]},{"code":"EA1/LE-215","program":"sota","name":"Peñas Malas","coordinates":[-4.78397,42.99355]},{"code":"EA1/LE-239","program":"sota","name":"Peñas Blancas","coordinates":[-4.89944,42.88313]},{"code":"EA1/LE-270","program":"sota","name":"Pinedo de Pedrosa","coordinates":[-4.94854,42.94076]},{"code":"EA1/PL-002","program":"sota","name":"Espigüete","coordinates":[-4.79617,42.94461]},{"code":"EA1/PL-004","program":"sota","name":"Murcia, Pico","coordinates":[-4.7945,42.98044]},{"code":"EA1/PL-009","program":"sota","name":"Peña del Fraile","coordinates":[-4.76539,42.83291]},{"code":"EA1/PL-012","program":"sota","name":"Arbillos","coordinates":[-4.85224,42.893]},{"code":"EA1/PL-014","program":"sota","name":"Lampa","coordinates":[-4.86547,42.86071]},{"code":"EA1/PL-020","program":"sota","name":"Cerro Valdeaves","coordinates":[-4.75133,42.86762]},{"code":"EA1/PL-031","program":"sota","name":"Peña Mayor","coordinates":[-4.82036,42.83813]},{"code":"EA1/PL-032","program":"sota","name":"Monte la Sierra","coordinates":[-4.78686,42.83544]},{"code":"EA1/PL-033","program":"sota","name":"Era Verde","coordinates":[-4.786,42.91407]}]}