{"lat":42.75,"lon":12.75,"programs":["pota","sota"],"count":32,"references":[{"code":"IT-1941","program":"pota","name":"Sasso di Pale Natura 2000","coordinates":[12.7736,42.9881]},{"code":"IT-1942","program":"pota","name":"Lecceta di Sassovivo (Foligno) Natura 2000","coordinates":[12.7653,42.9561]},{"code":"IT-1944","program":"pota","name":"Selva di Cupigliolo Natura 2000","coordinates":[12.8726,42.9829]},{"code":"IT-1947","program":"pota","name":"Castagneti di Morro (Foligno) Natura 2000","coordinates":[12.8408,42.9542]},{"code":"IT-1948","program":"pota","name":"Fiume Menotre (Rasiglia) Natura 2000","coordinates":[12.8496,42.9643]},{"code":"IT-1949","program":"pota","name":"Boschi di Terne - Pupaggi Natura 2000","coordinates":[12.8758,42.8958]},{"code":"IT-1950","program":"pota","name":"Torrente Argentina (Sellano) Natura 2000","coordinates":[12.9242,42.865]},{"code":"IT-1951","program":"pota","name":"Monti Serano - Brunette (sommità) Natura 2000","coordinates":[12.8044,42.8761]},{"code":"IT-1952","program":"pota","name":"Valle di Pettino (Campello sul Clitunno) Natura 2000","coordinates":[12.7869,42.8408]},{"code":"IT-1953","program":"pota","name":"Fiume e Fonti del Clitunno Natura 2000","coordinates":[12.759,42.8362]},{"code":"IT-1954","program":"pota","name":"Fosso di Camposolo Natura 2000","coordinates":[12.8356,42.8069]},{"code":"IT-1955","program":"pota","name":"Valnerina Natura 2000","coordinates":[12.9158,42.8121]},{"code":"IT-2040","program":"pota","name":"Monti Galloro - dell'Immagine Natura 2000","coordinates":[12.9128,42.7806]},{"code":"IT-2041","program":"pota","name":"Monti lo Stiglio - Pagliaro Natura 2000","coordinates":[12.9322,42.7947]},{"code":"IT-2042","program":"pota","name":"Gola del Corno - Stretta di Biselli Natura 2000","coordinates":[12.9811,42.7978]},{"code":"I/MC-017","program":"sota","name":"Poggio Martello","coordinates":[12.9777,42.9566]},{"code":"I/MC-023","program":"sota","name":"Monte Tolagna","coordinates":[12.9491,42.9917]},{"code":"I/UM-017","program":"sota","name":"Monte Serano","coordinates":[12.7997,42.8664]},{"code":"I/UM-018","program":"sota","name":"Monte Maggiore","coordinates":[12.8629,42.8268]},{"code":"I/UM-022","program":"sota","name":"Monte Maggio","coordinates":[12.9556,42.7536]},{"code":"I/UM-023","program":"sota","name":"Monte l'Aspro","coordinates":[12.9744,42.8136]},{"code":"I/UM-024","program":"sota","name":"Monte Sella","coordinates":[12.9796,42.8312]},{"code":"I/UM-029","program":"sota","name":"Monte Carpegna","coordinates":[12.832,42.8621]},{"code":"I/UM-032","program":"sota","name":"Monte Vergozze","coordinates":[12.8209,42.8516]},{"code":"I/UM-033","program":"sota","name":"Monte Puranno","coordinates":[12.8324,42.9252]},{"code":"I/UM-036","program":"sota","name":"Monte Santo Stefano","coordinates":[12.8267,42.9465]},{"code":"I/UM-038","program":"sota","name":"Monte Costara","coordinates":[12.9219,42.9342]},{"code":"I/UM-039","program":"sota","name":"Le Piane","coordinates":[12.97,42.7658]},{"code":"I/UM-041","program":"sota","name":"Monte Puro","coordinates":[12.9534,42.8572]},{"code":"I/UM-049","program":"sota","name":"Monte Aguzzo","coordinates":[12.7883,42.953]},{"code":"I/UM-056","program":"sota","name":"Monte Serrone","coordinates":[12.782,42.9628]},{"code":"I/UM-064","program":"sota","name":"Sasso di Pale","coordinates":[12.779,42.9884]}]}