{"lat":42.75,"lon":-109.25,"programs":["sota"],"count":22,"references":[{"code":"W7Y/FT-016","program":"sota","name":"Lizard Head Peak","coordinates":[-109.1978,42.79]},{"code":"W7Y/FT-026","program":"sota","name":"Windy Mountain","coordinates":[-109.1705,42.7968]},{"code":"W7Y/FT-032","program":"sota","name":"12490","coordinates":[-109.1749,42.8165]},{"code":"W7Y/FT-035","program":"sota","name":"Dog Tooth Peak","coordinates":[-109.1871,42.7624]},{"code":"W7Y/FT-036","program":"sota","name":"Mitchell Peak","coordinates":[-109.1988,42.7684]},{"code":"W7Y/FT-041","program":"sota","name":"Big Sandy Mountain","coordinates":[-109.1797,42.7511]},{"code":"W7Y/FT-042","program":"sota","name":"Warrior Peaks West","coordinates":[-109.2252,42.7629]},{"code":"W7Y/FT-045","program":"sota","name":"Pylon Peak","coordinates":[-109.2358,42.7684]},{"code":"W7Y/FT-048","program":"sota","name":"Bair Peak","coordinates":[-109.2439,42.8053]},{"code":"W7Y/FT-049","program":"sota","name":"Cathedral Peak","coordinates":[-109.1789,42.8252]},{"code":"W7Y/FT-055","program":"sota","name":"Chauvenet, Mount","coordinates":[-109.1587,42.8407]},{"code":"W7Y/FT-060","program":"sota","name":"Bollinger Peak","coordinates":[-109.2329,42.7828]},{"code":"W7Y/FT-067","program":"sota","name":"12175","coordinates":[-109.2317,42.9051]},{"code":"W7Y/FT-071","program":"sota","name":"12140","coordinates":[-109.2155,42.8094]},{"code":"W7Y/FT-098","program":"sota","name":"Chevo, Mount","coordinates":[-109.0542,42.7533]},{"code":"W7Y/FT-101","program":"sota","name":"Valentine Peak","coordinates":[-109.1974,42.8571]},{"code":"W7Y/FT-119","program":"sota","name":"Cross, Mount","coordinates":[-109.0999,42.8785]},{"code":"W7Y/FT-128","program":"sota","name":"Black Mountain","coordinates":[-109.0383,42.8371]},{"code":"W7Y/FT-137","program":"sota","name":"10005","coordinates":[-109.0608,42.8792]},{"code":"W7Y/FT-138","program":"sota","name":"9849","coordinates":[-109.1383,42.9775]},{"code":"W7Y/FT-139","program":"sota","name":"9525","coordinates":[-109.0844,42.9462]},{"code":"W7Y/FT-140","program":"sota","name":"9522","coordinates":[-109.0577,42.9146]}]}