{"lat":42.75,"lon":-3.25,"programs":["gma","pota","sota"],"count":16,"references":[{"code":"EC/CL-004","program":"gma","name":"Raso","coordinates":[-3.10540009,42.88050079]},{"code":"EC/PV-018","program":"gma","name":"Cueto","coordinates":[-3.14549994,42.79949951]},{"code":"EC/PV-020","program":"gma","name":"Rodil, Alto del","coordinates":[-3.12739992,42.88880157]},{"code":"XEA2/VI-020","program":"gma","name":"Raso","coordinates":[-3.10540009,42.88050079]},{"code":"ES-0467","program":"pota","name":"Monte Santiago Natura 2000","coordinates":[-3.0407,42.9632]},{"code":"ES-0238","program":"pota","name":"Valderejo Nature Park","coordinates":[-3.23138,42.8748]},{"code":"ES-1324","program":"pota","name":"Omecillo-Tumecillo ibaia / Rio Omecillo-Tumecillo Natura 2000","coordinates":[-3.0841,42.8402]},{"code":"ES-1342","program":"pota","name":"Valderejo-Sobron-arcenako mendilerroa / Valderejo-Sobron-Sierra de arcena Natura 2000","coordinates":[-3.2319,42.8768]},{"code":"EA1/BU-032","program":"sota","name":"Cueto","coordinates":[-3.14663,42.7984]},{"code":"EA1/BU-071","program":"sota","name":"Raso","coordinates":[-3.10692,42.87957]},{"code":"EA1/BU-073","program":"sota","name":"Rodil, Alto del","coordinates":[-3.12883,42.88785]},{"code":"EA2/VI-007","program":"sota","name":"Recuenco","coordinates":[-3.246,42.9055]},{"code":"EA2/VI-009","program":"sota","name":"Repiko","coordinates":[-3.0215,42.8902]},{"code":"EA2/VI-030","program":"sota","name":"Alto del Pozo","coordinates":[-3.1324,42.8201]},{"code":"EA2/VI-033","program":"sota","name":"San Andres","coordinates":[-3.0216,42.8469]},{"code":"EA2/VI-041","program":"sota","name":"Los Castros","coordinates":[-3.0603,42.8612]}]}