{"lat":42.75,"lon":-106.75,"programs":["pota"],"count":5,"references":[{"code":"US-6131","program":"pota","name":"Bessemer Bend BLM Historic Preservation Site","coordinates":[-106.531,42.7733]},{"code":"US-10821","program":"pota","name":"Dan Speas State Fish Hatchery","coordinates":[-106.531,42.7584]},{"code":"US-10836","program":"pota","name":"Emigrant Gap BLM Interpretive Site","coordinates":[-106.538,42.844]},{"code":"US-10899","program":"pota","name":"Poison Spider OHV Park BLM Recreation Management Area","coordinates":[-106.553,42.8441]},{"code":"US-10900","program":"pota","name":"South Bighorn/Red Wall Backcountry Byway BLM Recreation Management Area","coordinates":[-106.613,42.9428]}]}