{"lat":42.75,"lon":-89.5,"programs":["pota"],"count":7,"references":[{"code":"US-8225","program":"pota","name":"Badfish Creek State Wildlife Area","coordinates":[-89.2764,42.88]},{"code":"US-9766","program":"pota","name":"Badger State Trail","coordinates":[-89.4819,42.9431]},{"code":"US-9835","program":"pota","name":"Brooklyn State Wildlife Area","coordinates":[-89.4992,42.843]},{"code":"US-9841","program":"pota","name":"Evansville State Wildlife Area","coordinates":[-89.2828,42.7622]},{"code":"US-9846","program":"pota","name":"Hook Lake Bog - Grass Lake State Wildlife Area","coordinates":[-89.3219,42.9332]},{"code":"US-9853","program":"pota","name":"Liberty Creek State Wildlife Area","coordinates":[-89.3983,42.756]},{"code":"US-10647","program":"pota","name":"Anthony Branch State Fish and Wildlife Area","coordinates":[-89.3399,42.8961]}]}