{"lat":42.75,"lon":11.75,"programs":["pota","sota"],"count":8,"references":[{"code":"IT-0369","program":"pota","name":"Monte Rufeno Natura 2000","coordinates":[11.8897,42.7928]},{"code":"IT-1058","program":"pota","name":"Medio Corso del Fiume Paglia Natura 2000","coordinates":[11.975,42.7647]},{"code":"IT-1164","program":"pota","name":"Bosco del Sasseto Natura 2000","coordinates":[11.9475,42.7611]},{"code":"IT-1564","program":"pota","name":"Monte Cetona Natura 2000","coordinates":[11.87,42.9472]},{"code":"IT-0735","program":"pota","name":"Selva di Meana (Allerona) Natura 2000","coordinates":[11.9461,42.8067]},{"code":"I/TO-057","program":"sota","name":"Monte Cetona","coordinates":[11.8758,42.9297]},{"code":"I/TO-099","program":"sota","name":"Rocca di Radicòfani","coordinates":[11.7687,42.8985]},{"code":"I/UM-075","program":"sota","name":"Poggio Spino","coordinates":[11.9103,42.8458]}]}