{"lat":42.75,"lon":13.25,"programs":["gma","pota","sota"],"count":14,"references":[{"code":"IT/MC-1006","program":"gma","name":"Monte Vettore","coordinates":[13.27579975,42.82440186]},{"code":"IT/MC-1007","program":"gma","name":"Monte Vettoretto","coordinates":[13.27610016,42.82419968]},{"code":"IT/UM-1001","program":"gma","name":"Monte Vettor","coordinates":[13.27610016,42.82389832]},{"code":"IT/UM-1002","program":"gma","name":"Serra Santa","coordinates":[13.27610016,42.82389832]},{"code":"IT-0076","program":"pota","name":"Ponte d'Arli Natura 2000","coordinates":[13.4742,42.8033]},{"code":"IT-0501","program":"pota","name":"Monte Ceresa Natura 2000","coordinates":[13.3486,42.8042]},{"code":"IT-1018","program":"pota","name":"Montefalcone Appennino - Smerillo Natura 2000","coordinates":[13.4561,42.9986]},{"code":"I/MC-001","program":"sota","name":"Monte Vettore","coordinates":[13.275,42.8244]},{"code":"I/MC-002","program":"sota","name":"Scoglio del Lago","coordinates":[13.2544,42.8258]},{"code":"I/MC-018","program":"sota","name":"Monte Ceresa","coordinates":[13.344,42.8045]},{"code":"I/MC-041","program":"sota","name":"Monte Teglia","coordinates":[13.4592,42.7555]},{"code":"I/MC-072","program":"sota","name":"Monte Falcone","coordinates":[13.4489,42.9931]},{"code":"I/MC-084","program":"sota","name":"Monte la Torre","coordinates":[13.4798,42.9434]},{"code":"I/MC-093","program":"sota","name":"Monte Civitella","coordinates":[13.3887,42.9752]}]}