{"lat":42.75,"lon":12.5,"programs":["gma","pota","sota"],"count":6,"references":[{"code":"IT/UM-1000","program":"gma","name":"Monte Martano","coordinates":[12.5763998,42.78279877]},{"code":"IT-1156","program":"pota","name":"Colline Premartane (Bettona - Gualdo Cattaneo) Natura 2000","coordinates":[12.5114,42.9661]},{"code":"IT-2037","program":"pota","name":"Monte Il Cerchio (Monti Martani) Natura 2000","coordinates":[12.5742,42.7664]},{"code":"I/UM-047","program":"sota","name":"Colletti di San Leonardo – Quota 1110","coordinates":[12.5767,42.7825]},{"code":"I/UM-050","program":"sota","name":"Monte Martano","coordinates":[12.5688,42.8009]},{"code":"I/UM-083","program":"sota","name":"Poggio delle Civitelle","coordinates":[12.53,42.9342]}]}