{"lat":42.75,"lon":17.5,"programs":["pota","sota"],"count":16,"references":[{"code":"HR-0263","program":"pota","name":"Stonski kanal Natura 2000","coordinates":[17.724,42.817]},{"code":"HR-0333","program":"pota","name":"Malostonski zaljev Natura 2000","coordinates":[17.5433,42.9207]},{"code":"9A/DH-083","program":"sota","name":"Čarović","coordinates":[17.537004,42.857895]},{"code":"9A/DH-099","program":"sota","name":"Daska","coordinates":[17.563051,42.96176]},{"code":"9A/DH-112","program":"sota","name":"Ilijino Brdo","coordinates":[17.641806,42.844555]},{"code":"9A/DH-128","program":"sota","name":"Vepar","coordinates":[17.686718,42.879055]},{"code":"9A/DH-129","program":"sota","name":"Šibenik","coordinates":[17.506298,42.978584]},{"code":"9A/DH-136","program":"sota","name":"Strinčera","coordinates":[17.70646,42.835857]},{"code":"9A/DH-139","program":"sota","name":"Velja","coordinates":[17.726797,42.80155]},{"code":"9A/DH-146","program":"sota","name":"Kulina","coordinates":[17.686325,42.896557]},{"code":"9A/DH-152","program":"sota","name":"Polakovica","coordinates":[17.704319,42.816864]},{"code":"9A/DH-156","program":"sota","name":"Sveti Bartolomeo","coordinates":[17.696022,42.842743]},{"code":"9A/DH-173","program":"sota","name":"Velika Bratota","coordinates":[17.716944,42.916946]},{"code":"E7/HA-145","program":"sota","name":"Carina","coordinates":[17.7302,42.9725]},{"code":"E7/HA-167","program":"sota","name":"Gradina","coordinates":[17.6778,42.9356]},{"code":"E7/HA-170","program":"sota","name":"Ćurilo","coordinates":[17.6284,42.9073]}]}