{"lat":42.75,"lon":-73.5,"programs":["pota"],"count":6,"references":[{"code":"US-2065","program":"pota","name":"Grafton Lakes State Park","coordinates":[-73.4512,42.7885]},{"code":"US-5172","program":"pota","name":"Chestnut Woods State Forest","coordinates":[-73.2838,42.9995]},{"code":"US-5253","program":"pota","name":"Pittstown State Forest","coordinates":[-73.471,42.8173]},{"code":"US-5338","program":"pota","name":"Tibbetts State Forest","coordinates":[-73.3621,42.8418]},{"code":"US-10034","program":"pota","name":"Bennington Battlefield State Historic Site","coordinates":[-73.3049,42.9338]},{"code":"US-10298","program":"pota","name":"Whipstock Hill Wildlife Management Area","coordinates":[-73.2655,42.8917]}]}