{"lat":42.75,"lon":26.75,"programs":["gma","sota"],"count":89,"references":[{"code":"LZM/DR-005","program":"gma","name":"Mahnatia kamak","coordinates":[26.892772,42.981356]},{"code":"LZM/DR-008","program":"gma","name":"Gradishte","coordinates":[26.884103,42.982831]},{"code":"LZM/DR-009","program":"gma","name":"Mogilata","coordinates":[26.907792,42.980445]},{"code":"LZM/DR-016","program":"gma","name":"Sivriyata","coordinates":[26.854019,42.982926]},{"code":"LZM/DR-023","program":"gma","name":"Bregurla","coordinates":[26.899209,42.996204]},{"code":"LZM/DR-026","program":"gma","name":"Kukushinitsa","coordinates":[26.878395,42.995639]},{"code":"LZM/DR-036","program":"gma","name":"Karekova koriya","coordinates":[26.92613,42.9925]},{"code":"LZM/KR-002","program":"gma","name":"Kirechkofia","coordinates":[26.990361,42.805272]},{"code":"LZM/KR-005","program":"gma","name":"Kabata","coordinates":[26.974311,42.804217]},{"code":"LZM/KR-006","program":"gma","name":"Zhiloto","coordinates":[26.949506,42.79792]},{"code":"LZM/KR-007","program":"gma","name":"Trenov noser","coordinates":[26.939507,42.799116]},{"code":"LZM/KR-009","program":"gma","name":"Chochvite nivi","coordinates":[26.951995,42.805571]},{"code":"LZM/KR-010","program":"gma","name":"Kapulata","coordinates":[26.916761,42.800691]},{"code":"LZM/KR-012","program":"gma","name":"Achimata","coordinates":[26.994116,42.807539]},{"code":"LZM/KR-014","program":"gma","name":"Konska stapka","coordinates":[26.959119,42.80384]},{"code":"LZM/KR-015","program":"gma","name":"Prakhodchovets","coordinates":[26.932168,42.794267]},{"code":"LZM/KR-016","program":"gma","name":"Kaleto","coordinates":[26.957531,42.793193]},{"code":"LZM/KR-020","program":"gma","name":"Kartalak","coordinates":[26.994181,42.792063]},{"code":"LZM/KR-025","program":"gma","name":"Koprivets","coordinates":[26.992936,42.751141]},{"code":"LZM/KR-030","program":"gma","name":"Chukata","coordinates":[26.92071,42.768691]},{"code":"LZM/KR-032","program":"gma","name":"Sedloto","coordinates":[26.935687,42.764871]},{"code":"LZM/KR-033","program":"gma","name":"Sara bair","coordinates":[26.957831,42.758199]},{"code":"LZM/KR-042","program":"gma","name":"Arapite","coordinates":[26.887751,42.790425]},{"code":"LZM/KR-044","program":"gma","name":"Dorutarla","coordinates":[26.957461,42.819077]},{"code":"LZM/KR-050","program":"gma","name":"Karshibaalar","coordinates":[26.976414,42.827104]},{"code":"LZM/VH-010","program":"gma","name":"Araba bozolu","coordinates":[26.982379,42.903288]},{"code":"LZM/VH-011","program":"gma","name":"Tetraldoorosu","coordinates":[26.988859,42.913755]},{"code":"LZM/VH-012","program":"gma","name":"Nla burun","coordinates":[26.75231,42.916992]},{"code":"LZM/VH-013","program":"gma","name":"Topkaya","coordinates":[26.8611,42.989962]},{"code":"LZM/VH-015","program":"gma","name":"Kartalkaya","coordinates":[26.973066,42.930097]},{"code":"LZM/VH-016","program":"gma","name":"Yupek","coordinates":[26.770377,42.930348]},{"code":"LZM/VH-017","program":"gma","name":"Tashbashi","coordinates":[26.826596,42.936129]},{"code":"LZM/VH-021","program":"gma","name":"Chalakbashi","coordinates":[26.960278,42.906714]},{"code":"LZM/VH-023","program":"gma","name":"Golyam Debelets","coordinates":[26.895862,42.94923]},{"code":"LZM/VH-024","program":"gma","name":"Taukchiya","coordinates":[26.87376,42.948758]},{"code":"LZM/VH-026","program":"gma","name":"Kodzhaach","coordinates":[26.75173,42.928683]},{"code":"LZM/VH-028","program":"gma","name":"Chifkikaa","coordinates":[26.769519,42.903445]},{"code":"LZM/VH-029","program":"gma","name":"Kyabashi","coordinates":[26.869769,42.926671]},{"code":"LZM/VH-031","program":"gma","name":"Valyov kamak","coordinates":[26.878717,42.938867]},{"code":"LZM/VH-032","program":"gma","name":"Orlitsata","coordinates":[26.967144,42.928337]},{"code":"LZM/VH-034","program":"gma","name":"Yanakaak","coordinates":[26.78175,42.899924]},{"code":"LZM/VH-035","program":"gma","name":"Marinska chuka","coordinates":[26.837111,42.952591]},{"code":"LZM/VH-038","program":"gma","name":"Stanyuvitsa","coordinates":[26.986327,42.946245]},{"code":"LZM/VH-044","program":"gma","name":"Lyulyakovets","coordinates":[26.851058,42.952339]},{"code":"LZM/VH-048","program":"gma","name":"Kondo","coordinates":[26.863933,42.913063]},{"code":"LZM/VH-049","program":"gma","name":"Yusekbair","coordinates":[26.870284,42.901967]},{"code":"LZM/VH-050","program":"gma","name":"Kodhza kaya","coordinates":[26.810675,42.907091]},{"code":"LZM/VH-051","program":"gma","name":"Ostria kamak","coordinates":[26.866808,42.947533]},{"code":"LZM/VH-054","program":"gma","name":"Malak Debelets","coordinates":[26.921437,42.940622]},{"code":"LZM/VH-055","program":"gma","name":"Alan chukar","coordinates":[26.877022,42.903398]},{"code":"LZM/VH-056","program":"gma","name":"Bozhuritsa","coordinates":[26.945429,42.947722]},{"code":"LZM/VH-058","program":"gma","name":"Malkia kartal","coordinates":[26.958518,42.9251]},{"code":"LZM/VH-063","program":"gma","name":"Sivridzhasyrt","coordinates":[26.822348,42.907657]},{"code":"LZM/VH-064","program":"gma","name":"Yuleylebair","coordinates":[26.880391,42.90981]},{"code":"LZM/VH-067","program":"gma","name":"Niboa","coordinates":[26.94042,42.940119]},{"code":"LZM/VH-068","program":"gma","name":"Karaburun doorou","coordinates":[26.927791,42.903539]},{"code":"LZM/VH-069","program":"gma","name":"Seypisatekesi","coordinates":[26.900368,42.918564]},{"code":"LZM/VH-070","program":"gma","name":"Alabair","coordinates":[26.764498,42.883166]},{"code":"LZM/VH-071","program":"gma","name":"Cheplak bair","coordinates":[26.887407,42.905661]},{"code":"LZM/VH-073","program":"gma","name":"Bodlivata chuka","coordinates":[26.959805,42.940433]},{"code":"LZM/VH-075","program":"gma","name":"Asar bair","coordinates":[26.901054,42.905331]},{"code":"LZM/VH-076","program":"gma","name":"Gyumeyan","coordinates":[26.859941,42.898572]},{"code":"LZM/VH-078","program":"gma","name":"Baigirbem","coordinates":[26.901114,42.911146]},{"code":"LZM/VH-079","program":"gma","name":"Sivriata","coordinates":[26.854019,42.982926]},{"code":"LZM/VH-087","program":"gma","name":"Gaitana","coordinates":[26.85359,42.875178]},{"code":"LZM/VH-088","program":"gma","name":"Kuzbashi","coordinates":[26.823936,42.89263]},{"code":"LZM/VH-089","program":"gma","name":"Mushmula","coordinates":[26.893846,42.92884]},{"code":"LZM/VH-091","program":"gma","name":"Kodzha Chekeles","coordinates":[26.884103,42.920983]},{"code":"LZM/VH-094","program":"gma","name":"Sartanburun","coordinates":[26.878223,42.886247]},{"code":"LZM/VH-096","program":"gma","name":"Gedikyustyu","coordinates":[26.763297,42.974166]},{"code":"LZM/VH-098","program":"gma","name":"Kuzbzshi","coordinates":[26.900196,42.897252]},{"code":"LZM/VH-100","program":"gma","name":"Korudoorusu","coordinates":[26.906505,42.887819]},{"code":"LZM/VH-102","program":"gma","name":"Haidushka chuka","coordinates":[26.901183,42.956234]},{"code":"LZM/VH-108","program":"gma","name":"Mesheborun","coordinates":[26.932683,42.923906]},{"code":"LZM/VH-109","program":"gma","name":"Baalak","coordinates":[26.904016,42.879832]},{"code":"LZM/VH-110","program":"gma","name":"Byuyuk burun","coordinates":[26.892428,42.882631]},{"code":"LZM/VH-111","program":"gma","name":"Palinyova chuka","coordinates":[26.915989,42.967477]},{"code":"LZM/VH-119","program":"gma","name":"Pradlyova chuka","coordinates":[26.988688,42.956485]},{"code":"LZM/VH-128","program":"gma","name":"Markovitsa","coordinates":[26.834965,42.867944]},{"code":"LZM/VH-132","program":"gma","name":"Karadzhova mogila","coordinates":[26.859899,42.861779]},{"code":"XLZ/EB-040","program":"gma","name":"Kaleto","coordinates":[26.8419,42.8495]},{"code":"LZ/EB-022","program":"sota","name":"Kazaldzhikludorusu","coordinates":[26.9732,42.9238]},{"code":"LZ/EB-023","program":"sota","name":"Bayryaka","coordinates":[26.847,42.9407]},{"code":"LZ/EB-025","program":"sota","name":"Kyulafbair","coordinates":[26.7856,42.9185]},{"code":"LZ/EB-031","program":"sota","name":"Iliytsa","coordinates":[26.9655,42.7961]},{"code":"LZ/EB-041","program":"sota","name":"Mahnatiya kamak","coordinates":[26.8928,42.9814]},{"code":"LZ/EB-046","program":"sota","name":"Golyama koriya","coordinates":[26.9296,42.8594]},{"code":"LZ/EB-055","program":"sota","name":"Chuklata","coordinates":[26.9207,42.7687]},{"code":"LZ/EB-077","program":"sota","name":"Kaleto","coordinates":[26.8455,42.8517]}]}