{"lat":42.75,"lon":142.75,"programs":["sota"],"count":7,"references":[{"code":"JA8/HD-019","program":"sota","name":"Pekerebetsudake","coordinates":[142.7594,42.9425]},{"code":"JA8/TC-012","program":"sota","name":"Fushimidake","coordinates":[142.7656,42.7758]},{"code":"JA8/TC-013","program":"sota","name":"Memurodake","coordinates":[142.7854,42.869]},{"code":"JA8/TC-015","program":"sota","name":"Oshikiyama","coordinates":[142.7824,42.7636]},{"code":"JA8/TC-031","program":"sota","name":"Tomuraushiyama","coordinates":[142.7739,42.8009]},{"code":"JA8/TC-055","program":"sota","name":"Tsurugiyama","coordinates":[142.8851,42.8487]},{"code":"JA8/TC-066","program":"sota","name":"Obihirodake","coordinates":[142.8921,42.7543]}]}