{"lat":42.75,"lon":-4,"programs":["pota","sota"],"count":9,"references":[{"code":"ES-2347","program":"pota","name":"Hoces del Ebro Natura 2000","coordinates":[-3.8582,42.8056]},{"code":"ES-0114","program":"pota","name":"Hoces del Alto Ebro y Rudron Nature Park","coordinates":[-3.75692,42.7793]},{"code":"ES-0479","program":"pota","name":"Embalse del Ebro-Monte Hijedo Natura 2000","coordinates":[-3.9159,42.9746]},{"code":"ES-2327","program":"pota","name":"Hoces del Alto Ebro y Rudrón - ZEPA Natura 2000","coordinates":[-3.7793,42.7998]},{"code":"ES-2500","program":"pota","name":"Embalse del Ebro Natura 2000","coordinates":[-3.9054,42.987]},{"code":"EA1/BU-051","program":"sota","name":"Cielma","coordinates":[-3.79351,42.92412]},{"code":"EA1/BU-093","program":"sota","name":"Barrio de Bricia","coordinates":[-3.84934,42.91504]},{"code":"EA1/BU-107","program":"sota","name":"Alto de Marul","coordinates":[-3.81224,42.90565]},{"code":"EA1/CT-056","program":"sota","name":"El Castro","coordinates":[-3.8589,42.92949]}]}