{"lat":42.75,"lon":1.5,"programs":["gma","pota","sota"],"count":30,"references":[{"code":"FA/PE-045","program":"gma","name":"Sommet de Saint Sauveur","coordinates":[1.59189999,42.97890091]},{"code":"FA/PE-046","program":"gma","name":"Monner","coordinates":[1.72780001,42.98220062]},{"code":"FR-3796","program":"pota","name":"QUIES CALCAIRES DE TARASCON SUR ARIEGE ET GROTTE DE LA PETITE CAOUGNO  FR7300829 Natura 2000","coordinates":[1.65056,42.8219]},{"code":"FR-3797","program":"pota","name":"PECHS DE FOIX SOULA ET ROQUEFIXADE GROTTE DE L HERM  FR7300842 Natura 2000","coordinates":[1.65944,42.9469]},{"code":"FR-4164","program":"pota","name":"Quies calcaires de Tarascon-sur-Ariege et grotte de la Petite Caougno Natura 2000","coordinates":[1.65056,42.8219]},{"code":"FR-5733","program":"pota","name":"Aval de l'Arget et affluents vallee de la Barguillere Biological Reserve","coordinates":[1.5587,42.96]},{"code":"FR-5738","program":"pota","name":"Sios et affluents Biological Reserve","coordinates":[1.65983,42.9229]},{"code":"FR-5739","program":"pota","name":"Le Plantaurel entre Foix et Lavelanet Biological Reserve","coordinates":[1.7247,42.9524]},{"code":"FR-12376","program":"pota","name":"Parois calcaires et quies du bassin de Tarascon Biological Reserve","coordinates":[1.669,42.84]},{"code":"FR-12512","program":"pota","name":"Montagnes d'Olmes Biological Reserve","coordinates":[1.744,42.847]},{"code":"F/PE-115","program":"sota","name":"Mont Fourcat","coordinates":[1.7183,42.8569]},{"code":"F/PE-139","program":"sota","name":"Roc du Batail","coordinates":[1.5075,42.9064]},{"code":"F/PE-143","program":"sota","name":"Pic de la Bède","coordinates":[1.5356,42.76]},{"code":"F/PE-156","program":"sota","name":"Rochers de la Mirouge","coordinates":[1.6697,42.8114]},{"code":"F/PE-159","program":"sota","name":"Bois de Baychon","coordinates":[1.6161,42.8072]},{"code":"F/PE-182","program":"sota","name":"Rocher du Courbas","coordinates":[1.7272,42.7864]},{"code":"F/PE-189","program":"sota","name":"Cap de la Lesse","coordinates":[1.6036,42.8256]},{"code":"F/PE-194","program":"sota","name":"Sommet de Crouzille","coordinates":[1.7069,42.7958]},{"code":"F/PE-209","program":"sota","name":"Roc de Sédour","coordinates":[1.5775,42.8667]},{"code":"F/PE-215","program":"sota","name":"La Pique","coordinates":[1.6272,42.8452]},{"code":"F/PE-221","program":"sota","name":"Pic de l'Aspre","coordinates":[1.7003,42.9497]},{"code":"F/PE-226","program":"sota","name":"Picou de Freychenet","coordinates":[1.7197,42.9144]},{"code":"F/PE-231","program":"sota","name":"Montcoustan","coordinates":[1.5139,42.9922]},{"code":"F/PE-246","program":"sota","name":"Boumajou","coordinates":[1.6143,42.8778]},{"code":"F/PE-261","program":"sota","name":"Hêtre dit la Fajane","coordinates":[1.7254,42.9716]},{"code":"F/PE-264","program":"sota","name":"Quière de Bernadou","coordinates":[1.6453,42.9903]},{"code":"F/PE-359","program":"sota","name":"Calames","coordinates":[1.5575,42.87]},{"code":"F/PE-360","program":"sota","name":"Pic des Monges","coordinates":[1.7342,42.9547]},{"code":"F/PE-364","program":"sota","name":"Picou de Montcamp","coordinates":[1.6817,42.9233]},{"code":"F/PE-369","program":"sota","name":"Montnet","coordinates":[1.6694,42.9967]}]}