{"lat":42.75,"lon":-3,"programs":["gma","pota","sota"],"count":16,"references":[{"code":"XEA1/BU-097","program":"gma","name":"Busto","coordinates":[-2.75500011,42.79380035]},{"code":"ES-0470","program":"pota","name":"Riberas del Zadorra Natura 2000","coordinates":[-2.8372,42.7564]},{"code":"ES-0235","program":"pota","name":"Gorbea Nature Park","coordinates":[-2.80894,42.9907]},{"code":"ES-1322","program":"pota","name":"Urkabustaizko irla-hariztiak / Robledales isla de Urkabustaiz Natura 2000","coordinates":[-2.8794,42.9422]},{"code":"ES-1323","program":"pota","name":"Arkamu-Gibillo-Arrastaria Natura 2000","coordinates":[-2.9733,42.9068]},{"code":"ES-1325","program":"pota","name":"Baia ibaia / Rio Baia Natura 2000","coordinates":[-2.8796,42.926]},{"code":"ES-1326","program":"pota","name":"Caicedo Yuso eta Arreoko lakua / Lago de Caicedo Yuso y Arreo Natura 2000","coordinates":[-2.991,42.7783]},{"code":"EA2/VI-021","program":"sota","name":"Oteros","coordinates":[-2.8606,42.8461]},{"code":"EA2/VI-025","program":"sota","name":"Cantoblanco","coordinates":[-2.9682,42.8362]},{"code":"EA2/VI-031","program":"sota","name":"Marinda","coordinates":[-2.9429,42.8935]},{"code":"EA2/VI-035","program":"sota","name":"Atalaya","coordinates":[-2.9535,42.8008]},{"code":"EA2/VI-036","program":"sota","name":"Somo","coordinates":[-2.9522,42.7841]},{"code":"EA2/VI-039","program":"sota","name":"San Vitores","coordinates":[-2.8681,42.8071]},{"code":"EA2/VI-040","program":"sota","name":"Atxabal","coordinates":[-2.8209,42.9316]},{"code":"EA2/VI-047","program":"sota","name":"Santa Ageda","coordinates":[-2.9077,42.9296]},{"code":"EA2/VI-049","program":"sota","name":"Montemayor","coordinates":[-2.884,42.7763]}]}