{"lat":42.75,"lon":-116,"programs":["pota"],"count":5,"references":[{"code":"US-5599","program":"pota","name":"CJ Strike Wildlife Management Area Wildlife Management Area","coordinates":[-115.968,42.9581]},{"code":"US-12226","program":"pota","name":"Bruneau Arm Reservoir State Fishing Lake","coordinates":[-115.871,42.9131]},{"code":"US-12227","program":"pota","name":"Crane Falls Lake State Fishing Lake","coordinates":[-115.842,42.9647]},{"code":"US-12228","program":"pota","name":"Cove Arm Lake State Fishing Lake","coordinates":[-115.863,42.9695]},{"code":"US-12233","program":"pota","name":"CJ Strike Reservoir State Fishing Lake","coordinates":[-115.958,42.9424]}]}