{"lat":42.75,"lon":-124.5,"programs":["pota","sota"],"count":7,"references":[{"code":"US-12462","program":"pota","name":"New River BLM Special Recreation Management Area","coordinates":[-124.461,42.991]},{"code":"W7O/SC-145","program":"sota","name":"Butler, Mount","coordinates":[-124.2601,42.7672]},{"code":"W7O/SC-152","program":"sota","name":"Edson Butte","coordinates":[-124.3343,42.8722]},{"code":"W7O/SC-156","program":"sota","name":"Avery, Mount","coordinates":[-124.2507,42.7904]},{"code":"W7O/SC-167","program":"sota","name":"Calf Ranch Mountain","coordinates":[-124.2625,42.8933]},{"code":"W7O/SC-178","program":"sota","name":"Bennett Butte","coordinates":[-124.2743,42.9589]},{"code":"W7O/SC-361","program":"sota","name":"1461","coordinates":[-124.3727,42.9333]}]}