{"lat":42.75,"lon":18,"programs":["sota"],"count":15,"references":[{"code":"E7/HA-018","program":"sota","name":"Motka","coordinates":[18.1304,42.8337]},{"code":"E7/HA-019","program":"sota","name":"Ilija","coordinates":[18.1296,42.8689]},{"code":"E7/HA-022","program":"sota","name":"Siljevac","coordinates":[18.0485,42.878]},{"code":"E7/HA-023","program":"sota","name":"Radoš","coordinates":[18.1914,42.8353]},{"code":"E7/HA-025","program":"sota","name":"Gradište","coordinates":[18.2044,42.9393]},{"code":"E7/HA-030","program":"sota","name":"Vranjak","coordinates":[18.0376,42.9116]},{"code":"E7/HA-031","program":"sota","name":"Lipnica","coordinates":[18.0138,42.9231]},{"code":"E7/HA-032","program":"sota","name":"Trubar","coordinates":[18.22,42.8464]},{"code":"E7/HA-035","program":"sota","name":"Zečija Glava","coordinates":[18.0088,42.8279]},{"code":"E7/HA-041","program":"sota","name":"Radučino Brdo","coordinates":[18.0711,42.9099]},{"code":"E7/HA-107","program":"sota","name":"Kobilja Glava","coordinates":[18.2201,42.979]},{"code":"E7/HA-138","program":"sota","name":"Gradište","coordinates":[18.0789,42.9406]},{"code":"E7/HA-143","program":"sota","name":"Grajkov Vrh","coordinates":[18.2476,42.8455]},{"code":"E7/HA-150","program":"sota","name":"Kiper","coordinates":[18.0899,42.7652]},{"code":"E7/HA-156","program":"sota","name":"Treštenik","coordinates":[18.1487,42.799]}]}