{"lat":42.75,"lon":18.75,"programs":["sota"],"count":6,"references":[{"code":"4O/ZC-033","program":"sota","name":"Vojnik","coordinates":[18.9974,42.9352]},{"code":"4O/ZC-085","program":"sota","name":"Šljemena","coordinates":[18.8172,42.8397]},{"code":"4O/ZC-093","program":"sota","name":"Veliki Stojkovac","coordinates":[18.9134,42.9733]},{"code":"4O/ZC-108","program":"sota","name":"Kita","coordinates":[18.7827,42.7755]},{"code":"4O/ZC-120","program":"sota","name":"Viroštak","coordinates":[18.8855,42.8469]},{"code":"4O/ZC-126","program":"sota","name":"Uzdomir","coordinates":[18.9238,42.8032]}]}