{"lat":42.75,"lon":19.75,"programs":["sota"],"count":10,"references":[{"code":"4O/IC-047","program":"sota","name":"Tureća glava","coordinates":[19.771,42.8187]},{"code":"4O/IC-052","program":"sota","name":"Divljački krš","coordinates":[19.9904,42.7913]},{"code":"4O/IC-054","program":"sota","name":"Planinica","coordinates":[19.9327,42.7507]},{"code":"4O/IC-059","program":"sota","name":"Žoljevica","coordinates":[19.7764,42.7722]},{"code":"4O/IC-063","program":"sota","name":"Ćafa","coordinates":[19.8139,42.8456]},{"code":"4O/IC-066","program":"sota","name":"Lokve","coordinates":[19.9229,42.9511]},{"code":"4O/IC-070","program":"sota","name":"Tivran","coordinates":[19.8742,42.8793]},{"code":"4O/IC-071","program":"sota","name":"Ostri","coordinates":[19.8569,42.8751]},{"code":"4O/IC-073","program":"sota","name":"Belkovački krš","coordinates":[19.7581,42.9967]},{"code":"4O/IC-074","program":"sota","name":"Gradina","coordinates":[19.837,42.8101]}]}