{"lat":42.75,"lon":-109.5,"programs":["sota"],"count":36,"references":[{"code":"W7Y/FT-018","program":"sota","name":"Roberts Mountain","coordinates":[-109.296,42.9151]},{"code":"W7Y/FT-021","program":"sota","name":"Wolverine Peak","coordinates":[-109.3577,42.9818]},{"code":"W7Y/FT-022","program":"sota","name":"Lander, Mount","coordinates":[-109.3221,42.8838]},{"code":"W7Y/FT-023","program":"sota","name":"Musembeah Peak","coordinates":[-109.2994,42.8769]},{"code":"W7Y/FT-025","program":"sota","name":"North Cleft Peak","coordinates":[-109.3697,42.9494]},{"code":"W7Y/FT-028","program":"sota","name":"Washakie, Mount","coordinates":[-109.2565,42.8137]},{"code":"W7Y/FT-030","program":"sota","name":"Hooker, Mount","coordinates":[-109.3052,42.8526]},{"code":"W7Y/FT-037","program":"sota","name":"Halls Mountain","coordinates":[-109.4113,42.9552]},{"code":"W7Y/FT-038","program":"sota","name":"Renegade Peak","coordinates":[-109.3072,42.8931]},{"code":"W7Y/FT-039","program":"sota","name":"Dike Mountain","coordinates":[-109.2744,42.8352]},{"code":"W7Y/FT-044","program":"sota","name":"Glissade Peak","coordinates":[-109.3208,42.8623]},{"code":"W7Y/FT-052","program":"sota","name":"12285","coordinates":[-109.2711,42.9005]},{"code":"W7Y/FT-053","program":"sota","name":"Chess Ridge","coordinates":[-109.2504,42.8424]},{"code":"W7Y/FT-054","program":"sota","name":"Europe Peak","coordinates":[-109.4539,42.9702]},{"code":"W7Y/FT-061","program":"sota","name":"12230","coordinates":[-109.4269,42.96]},{"code":"W7Y/FT-062","program":"sota","name":"Milky Ridge South","coordinates":[-109.4297,42.9744]},{"code":"W7Y/FT-063","program":"sota","name":"Pipe Organ","coordinates":[-109.3992,42.946]},{"code":"W7Y/FT-068","program":"sota","name":"Bailey Peak","coordinates":[-109.3396,42.8984]},{"code":"W7Y/FT-072","program":"sota","name":"Kagevah Peak","coordinates":[-109.3457,42.9192]},{"code":"W7Y/FT-074","program":"sota","name":"Odyssey Peak","coordinates":[-109.3618,42.9362]},{"code":"W7Y/FT-075","program":"sota","name":"Wykee Peak","coordinates":[-109.2874,42.9434]},{"code":"W7Y/FT-087","program":"sota","name":"Mount Heebeecheeche","coordinates":[-109.3585,42.9561]},{"code":"W7Y/FT-189","program":"sota","name":"Petroleum Peak","coordinates":[-109.3248,42.9095]},{"code":"W7Y/SL-013","program":"sota","name":"Bonneville, Mount","coordinates":[-109.3401,42.8721]},{"code":"W7Y/SL-014","program":"sota","name":"Raid Peak","coordinates":[-109.3434,42.8598]},{"code":"W7Y/SL-016","program":"sota","name":"Pronghorn Peak","coordinates":[-109.3544,42.8855]},{"code":"W7Y/SL-017","program":"sota","name":"Geikie, Mount","coordinates":[-109.3306,42.8289]},{"code":"W7Y/SL-021","program":"sota","name":"Victor, Mount","coordinates":[-109.479,42.9614]},{"code":"W7Y/SL-023","program":"sota","name":"Ambush Peak","coordinates":[-109.3387,42.8447]},{"code":"W7Y/SL-026","program":"sota","name":"Pyramid Peak","coordinates":[-109.2943,42.8409]},{"code":"W7Y/SL-043","program":"sota","name":"Medina Mountain","coordinates":[-109.4529,42.9303]},{"code":"W7Y/SL-053","program":"sota","name":"11262","coordinates":[-109.3938,42.8918]},{"code":"W7Y/SL-056","program":"sota","name":"East Twin Butte","coordinates":[-109.348,42.7812]},{"code":"W7Y/SL-065","program":"sota","name":"Mitchells Nipple","coordinates":[-109.3895,42.8131]},{"code":"W7Y/SL-066","program":"sota","name":"10654","coordinates":[-109.4226,42.829]},{"code":"W7Y/SL-114","program":"sota","name":"Nylon Peak","coordinates":[-109.3383,42.8889]}]}