{"lat":42.75,"lon":19,"programs":["sota"],"count":14,"references":[{"code":"4O/ZC-010","program":"sota","name":"Lastva","coordinates":[19.2491,42.8395]},{"code":"4O/ZC-018","program":"sota","name":"Veliki Zebalac","coordinates":[19.2262,42.8705]},{"code":"4O/ZC-019","program":"sota","name":"Kurozeb","coordinates":[19.2409,42.7549]},{"code":"4O/ZC-023","program":"sota","name":"Lijevno","coordinates":[19.2353,42.8799]},{"code":"4O/ZC-028","program":"sota","name":"4O/ZC-028","coordinates":[19.2162,42.7857]},{"code":"4O/ZC-029","program":"sota","name":"Veliki Žurim","coordinates":[19.1836,42.8344]},{"code":"4O/ZC-038","program":"sota","name":"Borovnik","coordinates":[19.1526,42.8239]},{"code":"4O/ZC-048","program":"sota","name":"Ostrvica","coordinates":[19.1456,42.8805]},{"code":"4O/ZC-056","program":"sota","name":"Jablan brdo","coordinates":[19.0622,42.9146]},{"code":"4O/ZC-072","program":"sota","name":"Studena","coordinates":[19.0352,42.853]},{"code":"4O/ZC-102","program":"sota","name":"Mala borova glava","coordinates":[19.1876,42.9525]},{"code":"4O/ZC-114","program":"sota","name":"Pošćenski zavrh","coordinates":[19.0594,42.9747]},{"code":"4O/ZC-115","program":"sota","name":"Turija","coordinates":[19.0848,42.9631]},{"code":"4O/ZC-118","program":"sota","name":"Tović","coordinates":[19.0006,42.8106]}]}