{"lat":43,"lon":16.5,"programs":["pota","sota"],"count":7,"references":[{"code":"HR-0325","program":"pota","name":"Hvar - šume kod Starigrada Natura 2000","coordinates":[16.6195,43.2045]},{"code":"HR-0327","program":"pota","name":"Otoci Lukavci Natura 2000","coordinates":[16.5814,43.0857]},{"code":"HR-0329","program":"pota","name":"Hvar - od uvale Vitarna do uvale Maslinica Natura 2000","coordinates":[16.514,43.206]},{"code":"HR-0336","program":"pota","name":"Hvar - otok Zečevo Natura 2000","coordinates":[16.6849,43.1904]},{"code":"HR-0372","program":"pota","name":"Hvar - Kabal Natura 2000","coordinates":[16.5555,43.2216]},{"code":"HR-0373","program":"pota","name":"Hvar - od Maslinice do Grebišća Natura 2000","coordinates":[16.6314,43.163]},{"code":"9A/DH-086","program":"sota","name":"Sveta Nikola","coordinates":[16.5976,43.14448]}]}