{"lat":43,"lon":6.5,"programs":["pota","sota"],"count":23,"references":[{"code":"FR-3132","program":"pota","name":"CORNICHE VAROISE FR9301624 Natura 2000","coordinates":[6.64917,43.1794]},{"code":"FR-7072","program":"pota","name":"CORNICHE DES MAURES Biological Reserve","coordinates":[6.50209,43.1584]},{"code":"FR-7073","program":"pota","name":"VALLEES DE LA GISCLE ET DE LA MOLE Biological Reserve","coordinates":[6.52992,43.2435]},{"code":"FR-7074","program":"pota","name":"MAURES DE LA PRESQU'ILE DE SAINT-TROPEZ Biological Reserve","coordinates":[6.61088,43.2295]},{"code":"FR-7075","program":"pota","name":"CAP LARDIER, CAP TAILLAT ET CAP CAMARAT Biological Reserve","coordinates":[6.62824,43.1833]},{"code":"FR-7076","program":"pota","name":"PLAGE DE PAMPELONNE Biological Reserve","coordinates":[6.66025,43.2189]},{"code":"FR-10535","program":"pota","name":"ILE DE L'ESQUILLADE Marine Conservation Area","coordinates":[6.53258,43.0498]},{"code":"FR-10536","program":"pota","name":"BANC DU MAGAUD Marine Conservation Area","coordinates":[6.59001,43.0334]},{"code":"FR-10537","program":"pota","name":"TETE DU CANYON DES STOECHADES Marine Conservation Area","coordinates":[6.57324,43.0941]},{"code":"FR-10544","program":"pota","name":"POINTE DE LA NASQUE (OU DU DATTIER) Marine Conservation Area","coordinates":[6.51252,43.1537]},{"code":"FR-10545","program":"pota","name":"HERBIER DE POSIDONIES DE LA BAIE DE CAVALAIRE Marine Conservation Area","coordinates":[6.56969,43.1781]},{"code":"FR-10546","program":"pota","name":"POINTE D'ANDATI-CAP CAMARAT Marine Conservation Area","coordinates":[6.6755,43.1746]},{"code":"FR-10547","program":"pota","name":"PLAGE ET HERBIER DE POSIDONIES DE PAMPELONNE Marine Conservation Area","coordinates":[6.68684,43.2218]},{"code":"FR-11515","program":"pota","name":"Corniche des maures Conservation Park","coordinates":[6.50564,43.173]},{"code":"FR-11517","program":"pota","name":"Vallee de la mole Conservation Park","coordinates":[6.51059,43.2159]},{"code":"FR-11518","program":"pota","name":"Pardigon Conservation Park","coordinates":[6.54775,43.1917]},{"code":"FR-11519","program":"pota","name":"Cap taillat – cap camarat Conservation Park","coordinates":[6.64348,43.1865]},{"code":"FR-11520","program":"pota","name":"Cap lardier Conservation Area","coordinates":[6.61564,43.1766]},{"code":"FR-11521","program":"pota","name":"Pampelonne Conservation Park","coordinates":[6.6593,43.214]},{"code":"FR-11543","program":"pota","name":"La serpentinite varisque de la Carrade Conservation Park","coordinates":[6.55,43.2]},{"code":"FR-11544","program":"pota","name":"La vallee du Jabron a Trigance des tresses aux meandres encaisses Conservation Area","coordinates":[6.6,43.1833]},{"code":"F/AM-667","program":"sota","name":"Les Pradels","coordinates":[6.5,43.1889]},{"code":"F/AM-687","program":"sota","name":"Barri de Gassin","coordinates":[6.6019,43.2192]}]}