{"lat":43,"lon":11,"programs":["pota","sota"],"count":11,"references":[{"code":"IT-0283","program":"pota","name":"Palazzo State Natural Reserve","coordinates":[11.0433,43.2036]},{"code":"IT-0500","program":"pota","name":"Val di Farma Natura 2000","coordinates":[11.2222,43.0683]},{"code":"IT-0562","program":"pota","name":"Cornocchia State Natural Reserve","coordinates":[11.0873,43.2227]},{"code":"IT-0593","program":"pota","name":"Alta Val di Merse Natura 2000","coordinates":[11.2194,43.1719]},{"code":"I/TO-075","program":"sota","name":"Poggio di Montieri","coordinates":[11.0042,43.1263]},{"code":"I/TO-114","program":"sota","name":"Monte Alto","coordinates":[11.1419,43.047]},{"code":"I/TO-115","program":"sota","name":"Sassoforte","coordinates":[11.1002,43.033]},{"code":"I/TO-122","program":"sota","name":"Poggio Fògari","coordinates":[11.0916,43.1132]},{"code":"I/TO-138","program":"sota","name":"Monte Quoio","coordinates":[11.1973,43.1022]},{"code":"I/TO-156","program":"sota","name":"I Monti","coordinates":[11.1933,43.0777]},{"code":"I/TO-171","program":"sota","name":"Poggio Siena Vecchia","coordinates":[11.2144,43.2179]}]}