{"lat":43,"lon":-72.5,"programs":["pota","sota"],"count":7,"references":[{"code":"US-4887","program":"pota","name":"Connecticut River State Forest","coordinates":[-72.4169,43.2207]},{"code":"US-4899","program":"pota","name":"Fall Mountain State Forest","coordinates":[-72.4139,43.1621]},{"code":"US-4901","program":"pota","name":"Feuer State Forest","coordinates":[-72.2606,43.15]},{"code":"US-11037","program":"pota","name":"Bear's Den Natural Area State Park","coordinates":[-72.268,43.0255]},{"code":"W1/GM-239","program":"sota","name":"Signal Hill","coordinates":[-72.4925,43.1628]},{"code":"W1/HA-155","program":"sota","name":"Mount Kilburn","coordinates":[-72.4325,43.1375]},{"code":"W1/HA-213","program":"sota","name":"Smith Hill","coordinates":[-72.2653,43.0981]}]}