{"lat":43,"lon":-79.25,"programs":["pota","wwbota"],"count":15,"references":[{"code":"CA-4878","program":"pota","name":"Navy Island National Historic Site","coordinates":[-79.0144,43.055]},{"code":"CA-4881","program":"pota","name":"Queenston Heights National Historic Site","coordinates":[-79.0528,43.1601]},{"code":"CA-5576","program":"pota","name":"Virgil Dams and Reservoirs Conservation Area","coordinates":[-79.1226,43.2181]},{"code":"CA-5578","program":"pota","name":"Woodend Conservation Area","coordinates":[-79.1675,43.1433]},{"code":"CA-6096","program":"pota","name":"Battle of Beaver Dams National Historic Site","coordinates":[-79.2017,43.1231]},{"code":"CA-6210","program":"pota","name":"Battle of Chippawa (Battlefield Park) National Historic Site","coordinates":[-79.0247,43.0527]},{"code":"CA-6216","program":"pota","name":"Battle of Lundy's Lane National Historic Site","coordinates":[-79.0959,43.0903]},{"code":"CA-6341","program":"pota","name":"Welland Canal System National Historical Site","coordinates":[-79.1988,43.1848]},{"code":"US-2006","program":"pota","name":"Artpark State Park","coordinates":[-79.0454,43.1653]},{"code":"US-2044","program":"pota","name":"DeVeaux Woods State Park","coordinates":[-79.0611,43.1193]},{"code":"US-2087","program":"pota","name":"Joseph Davis State Park","coordinates":[-79.0391,43.2139]},{"code":"US-2113","program":"pota","name":"Niagara Falls State Park","coordinates":[-79.069,43.0863]},{"code":"US-2124","program":"pota","name":"Reservoir State Park","coordinates":[-79.0154,43.1329]},{"code":"B/CA-1056","program":"wwbota","name":"FRP LP43","coordinates":[-79.0666667,43.1]},{"code":"B/CA-1065","program":"wwbota","name":"FRP LP42","coordinates":[-79.1989299,43.1236091]}]}