{"lat":43,"lon":1.25,"programs":["pota","sota"],"count":9,"references":[{"code":"FR-1996","program":"pota","name":"Pyrenees Ariegeoises Regional Park","coordinates":[1.43333,43]},{"code":"FR-3984","program":"pota","name":"Queirs du Mas d Azil et de Camarade grottes du Mas d Azil et de la carriere de Sabarat Natura 2000","coordinates":[1.33556,43.0797]},{"code":"FR-3985","program":"pota","name":"Piege et collines du Lauragais Natura 2000","coordinates":[1.33556,43.0797]},{"code":"FR-4153","program":"pota","name":"Grotte de Montseron Natura 2000","coordinates":[1.32802,43.02]},{"code":"FR-5730","program":"pota","name":"Le Plantaurel - du Mas d'Azil à l'Ariege Biological Reserve","coordinates":[1.49702,43.0516]},{"code":"FR-5731","program":"pota","name":"Calcaires pliensbachiens du Pech Saint-Sauveur a Vernajoul Conservation Area","coordinates":[1.498,43.0516]},{"code":"FR-12419","program":"pota","name":"Vallon du Nascouil et monts de la Bouiche, de la Garosse et de la Bouyche Biological Reserve","coordinates":[1.428,43.063]},{"code":"F/PE-255","program":"sota","name":"Cabanères","coordinates":[1.2708,43.0806]},{"code":"F/PE-269","program":"sota","name":"Le Pouech","coordinates":[1.4772,43.0192]}]}