{"lat":43,"lon":19.5,"programs":["sota"],"count":7,"references":[{"code":"4O/ZC-062","program":"sota","name":"Avdova glava","coordinates":[19.5072,43.0588]},{"code":"4O/ZC-082","program":"sota","name":"Markov kamen","coordinates":[19.6866,43.1385]},{"code":"4O/ZC-086","program":"sota","name":"Đovdanica (Bogdanica)","coordinates":[19.569,43.1604]},{"code":"4O/ZC-098","program":"sota","name":"Medovo brdo","coordinates":[19.651,43.1802]},{"code":"4O/ZC-112","program":"sota","name":"Šančevi","coordinates":[19.6827,43.0142]},{"code":"4O/ZC-116","program":"sota","name":"Muminov krš","coordinates":[19.7105,43.0015]},{"code":"YU/ZS-070","program":"sota","name":"Ravni Jasen","coordinates":[19.7382,43.20547]}]}