{"lat":43,"lon":0.75,"programs":["gma","pota","sota"],"count":32,"references":[{"code":"FA/PE-048","program":"gma","name":"Castel de l'Estelle","coordinates":[0.75669998,43.03530121]},{"code":"FA/PE-052","program":"gma","name":"Montignous","coordinates":[0.94669998,43.02830124]},{"code":"FR-11340","program":"pota","name":"Plis pyreneens des Petites-Pyrenees Conservation Area","coordinates":[0.901,43.164]},{"code":"FR-11341","program":"pota","name":"Ophite et gypse triasiques a Salies-du-Salat Conservation Area","coordinates":[0.915,43.102]},{"code":"FR-11345","program":"pota","name":"Gisement paleontologique serravallien de Valentine a Saint-Gaudens Conservation Area","coordinates":[0.77,43.0899]},{"code":"FR-11346","program":"pota","name":"Petites Pyrenees en rive gauche de la Garonne Biological Reserve","coordinates":[0.93145,43.1868]},{"code":"FR-11347","program":"pota","name":"Versants sud des massifs du Mont Grand et de Cassagnau Biological Reserve","coordinates":[0.95624,43.1987]},{"code":"FR-11348","program":"pota","name":"Bois de la Hage et massifs de Laffite-Toupiere a la Garonne Biological Reserve","coordinates":[0.92716,43.1676]},{"code":"FR-11352","program":"pota","name":"Bois et prairies au nord de Salies-du-Salat Biological Reserve","coordinates":[0.95352,43.1145]},{"code":"FR-11354","program":"pota","name":"Ruisseaux de l'Arbas et de Rieuaris Biological Reserve","coordinates":[0.93127,43.0206]},{"code":"FR-11355","program":"pota","name":"Prairies naturelles, bois et ruisseaux des vallees de la Justale et du Louch-Rieumajou Biological Reserve","coordinates":[0.90346,43.0668]},{"code":"FR-11356","program":"pota","name":"Bois de Castans Biological Reserve","coordinates":[0.90997,43.102]},{"code":"FR-11357","program":"pota","name":"Buttes de Montespan et de Ganties Biological Reserve","coordinates":[0.8541,43.0794]},{"code":"FR-11358","program":"pota","name":"Aval des ruisseaux du Job et du Ger Biological Reserve","coordinates":[0.78359,43.0599]},{"code":"FR-11359","program":"pota","name":"Massif forestier du Mont-Jammes Biological Reserve","coordinates":[0.76748,43.089]},{"code":"FR-11360","program":"pota","name":"Prairies humides et milieux riverains de la vallee du Jo Biological Reserve","coordinates":[0.81857,43.1351]},{"code":"FR-11361","program":"pota","name":"Facies d'erosion des marnes de Castillon-de-Saint-Martory Biological Reserve","coordinates":[0.83649,43.1414]},{"code":"FR-11362","program":"pota","name":"Affleurements calcareo-marneux des coteaux du Saint-Gaudinois Biological Reserve","coordinates":[0.79876,43.1744]},{"code":"FR-11363","program":"pota","name":"Landes, pelouses seches et marnes de Birouliere et des Cotes de Couscouil Biological Reserve","coordinates":[0.77091,43.1583]},{"code":"FR-11364","program":"pota","name":"Milieux marneux ouverts et versants forestiers d'Aulon a Proupiary Biological Reserve","coordinates":[0.84486,43.172]},{"code":"FR-11631","program":"pota","name":"Grotte de Saint-Paul Biological Reserve","coordinates":[0.805,43.023]},{"code":"FR-11632","program":"pota","name":"Massif de l'Arbas Biological Reserve","coordinates":[0.814,43.011]},{"code":"FR-12102","program":"pota","name":"Forets de Boussan et Mauboussin Biological Reserve","coordinates":[0.877,43.233]},{"code":"FR-12103","program":"pota","name":"Foret de Mauboussin Biological Reserve","coordinates":[0.828,43.245]},{"code":"FR-12104","program":"pota","name":"Bois de Barboutere Biological Reserve","coordinates":[0.75,43.244]},{"code":"FR-12413","program":"pota","name":"Massif forestier de Juzet-d'Izaut a Aspet Biological Reserve","coordinates":[0.783,43.006]},{"code":"FR-12414","program":"pota","name":"Massif forestier en rive droite du Job a Encausse-les-Thermes Biological Reserve","coordinates":[0.754,43.043]},{"code":"FR-12416","program":"pota","name":"Bois entre Saleich et Mane Biological Reserve","coordinates":[0.946,43.051]},{"code":"FR-12417","program":"pota","name":"Forets de Saleich et de l'Estelas et stations seches de Francazal et de Salege Biological Reserve","coordinates":[0.976,43.01]},{"code":"F/PE-265","program":"sota","name":"Mont Pourcet","coordinates":[0.798,43.0379]},{"code":"F/PE-271","program":"sota","name":"Tuc de Hosets","coordinates":[0.7592,43.0317]},{"code":"F/PE-292","program":"sota","name":"Cap de la Pale","coordinates":[0.9453,43.0358]}]}