{"lat":43,"lon":13,"programs":["pota","sota"],"count":12,"references":[{"code":"IT-1027","program":"pota","name":"Gola di S. Eustachio Natura 2000","coordinates":[13.1375,43.205]},{"code":"IT-1028","program":"pota","name":"Monte Letegge - Monte d'Aria Natura 2000","coordinates":[13.1542,43.1639]},{"code":"I/MC-013","program":"sota","name":"Monte Sasso Tetto","coordinates":[13.2318,43.0051]},{"code":"I/MC-029","program":"sota","name":"Monte Fiegni","coordinates":[13.1889,43.0858]},{"code":"I/MC-047","program":"sota","name":"Monte Uschio","coordinates":[13.0146,43.0135]},{"code":"I/MC-052","program":"sota","name":"Monte Letegge","coordinates":[13.148,43.1577]},{"code":"I/MC-063","program":"sota","name":"Monte Casale","coordinates":[13.0189,43.0894]},{"code":"I/MC-066","program":"sota","name":"Monte d'Aria","coordinates":[13.1431,43.193]},{"code":"I/MC-070","program":"sota","name":"Monte di Pietralata – Quota 919","coordinates":[13.0244,43.0505]},{"code":"I/MC-074","program":"sota","name":"Monte San Savino","coordinates":[13.1127,43.0656]},{"code":"I/MC-079","program":"sota","name":"Monte Capolapiaggia – Quota 851","coordinates":[13.133,43.1386]},{"code":"I/MC-083","program":"sota","name":"Monte Giove","coordinates":[13.0409,43.0254]}]}