{"lat":43,"lon":-71,"programs":["pota","wwbota"],"count":6,"references":[{"code":"US-2413","program":"pota","name":"Vaughan Woods State Park","coordinates":[-70.8126,43.2121]},{"code":"US-0448","program":"pota","name":"Great Bay National Wildlife Refuge","coordinates":[-70.8436,43.0892]},{"code":"US-0885","program":"pota","name":"Lamprey National Wild and Scenic River","coordinates":[-70.9335,43.0796]},{"code":"US-4973","program":"pota","name":"Urban Forestry Center State Forest","coordinates":[-70.7681,43.0457]},{"code":"US-12118","program":"pota","name":"Adams Point WMA State Wildlife Area","coordinates":[-70.8658,43.09]},{"code":"B/US-0239","program":"wwbota","name":"Portsmouth Civil Defense Bunker (NH)","coordinates":[-70.7626,43.0718]}]}