{"lat":43,"lon":5.5,"programs":["pota","sota"],"count":23,"references":[{"code":"FR-3894","program":"pota","name":"La Pointe Fauconniere Natura 2000","coordinates":[5.69667,43.1556]},{"code":"FR-3895","program":"pota","name":"Baie de la Ciotat Natura 2000","coordinates":[5.65111,43.1728]},{"code":"FR-7033","program":"pota","name":"MONTAGNE DE LA CANAILLE - FALAISES SOUBEYRANES - BEC DE L'AIGLE Biological Reserve","coordinates":[5.57297,43.1931]},{"code":"FR-7044","program":"pota","name":"COLLINES ET LITTORAL DE SAINT-CYR ET DE BANDOL Biological Reserve","coordinates":[5.71342,43.1582]},{"code":"FR-10503","program":"pota","name":"CAP CANAILLE-CALANQUE DE FIGUEROLLES Marine Conservation Area","coordinates":[5.56914,43.1768]},{"code":"FR-10505","program":"pota","name":"BANC DE L'ESQUINE Marine Conservation Area","coordinates":[5.55075,43.0619]},{"code":"FR-10506","program":"pota","name":"BANC DES BLAUQUIERES Marine Conservation Area","coordinates":[5.65612,43.0564]},{"code":"FR-10507","program":"pota","name":"SECHE DE LA CASSIDAIGNE Marine Conservation Area","coordinates":[5.54546,43.1374]},{"code":"FR-10508","program":"pota","name":"CALANQUE DE FIGUEROLLES AU BEC DE L'AIGLE Marine Conservation Area","coordinates":[5.60105,43.1609]},{"code":"FR-10509","program":"pota","name":"ILE VERTE Marine Conservation Area","coordinates":[5.61668,43.1595]},{"code":"FR-10510","program":"pota","name":"BAIES DE LA CIOTAT ET DES LECQUES(13) Marine Conservation Area","coordinates":[5.64136,43.1768]},{"code":"FR-10511","program":"pota","name":"BAIES DE LA CIOTAT ET DES LECQUES(83) Marine Conservation Area","coordinates":[5.67944,43.1691]},{"code":"FR-10512","program":"pota","name":"POINTE FAUCONNIERE Marine Conservation Area","coordinates":[5.67873,43.1555]},{"code":"FR-10513","program":"pota","name":"POINTE DU DEFENS Marine Conservation Area","coordinates":[5.69358,43.143]},{"code":"FR-10514","program":"pota","name":"SECHE D'ALON Marine Conservation Area","coordinates":[5.70864,43.1432]},{"code":"FR-10515","program":"pota","name":"ILE ROUSSE, ILE DE BENDOR Marine Conservation Area","coordinates":[5.73541,43.1256]},{"code":"FR-13247","program":"pota","name":"FALAISES SOUBEYRANES ET LEUR REPLAT SOMMITAL Biological Reserve","coordinates":[5.573,43.173]},{"code":"FR-13248","program":"pota","name":"CORDON LITTORAL DE LA MADRAGUE A L'ILE ROUSSE ET COLLINE DE LA GACHE Biological Reserve","coordinates":[5.686,43.156]},{"code":"FR-13249","program":"pota","name":"CORDON LITTORAL DE LA MADRAGUE A L'ILE ROUSSE ET COLLINE DE LA GACHE Biological Reserve","coordinates":[5.705,43.167]},{"code":"FR-13250","program":"pota","name":"COLLINES DU CASTELLET ET PLAINES BARONNES Biological Reserve","coordinates":[5.674,43.231]},{"code":"F/AM-686","program":"sota","name":"La Vigie","coordinates":[5.7454,43.1762]},{"code":"F/CR-254","program":"sota","name":"Cap Canaille","coordinates":[5.5658,43.1826]},{"code":"F/CR-272","program":"sota","name":"Le Montounier","coordinates":[5.6494,43.2453]}]}