{"lat":43,"lon":25.25,"programs":["gma","pota","sota"],"count":55,"references":[{"code":"LZM/CP-050","program":"gma","name":"Miryova mogila","coordinates":[25.354342,43.030596]},{"code":"LZM/CP-074","program":"gma","name":"Golyamata stena","coordinates":[25.30838,43.056597]},{"code":"LZM/CP-075","program":"gma","name":"Lovnidolska chuka","coordinates":[25.280464,43.021973]},{"code":"LZM/CP-078","program":"gma","name":"Gyuneto","coordinates":[25.343699,43.059796]},{"code":"LZM/CP-079","program":"gma","name":"Sredniya wrah","coordinates":[25.364363,43.032549]},{"code":"LZM/CP-080","program":"gma","name":"Petrov dol","coordinates":[25.378289,43.030941]},{"code":"LZM/CP-081","program":"gma","name":"Diva baba","coordinates":[25.456095,43.029812]},{"code":"LZM/CP-083","program":"gma","name":"Valkat","coordinates":[25.396442,43.057036]},{"code":"LZM/CP-084","program":"gma","name":"Chuplaka","coordinates":[25.343785,43.038627]},{"code":"LZM/CP-087","program":"gma","name":"Diva baba","coordinates":[25.452147,43.032227]},{"code":"LZM/CP-088","program":"gma","name":"Mogilata","coordinates":[25.434165,43.032447]},{"code":"LZM/CP-092","program":"gma","name":"Kuzbasha","coordinates":[25.312972,43.043286]},{"code":"LZM/CP-093","program":"gma","name":"Mogilata","coordinates":[25.480642,43.023788]},{"code":"LZM/CP-094","program":"gma","name":"Vrani dyal","coordinates":[25.461588,43.043394]},{"code":"LZM/CP-097","program":"gma","name":"Sveti Arkhangel","coordinates":[25.418029,43.032604]},{"code":"LZM/CP-102","program":"gma","name":"Golyamata stena","coordinates":[25.452576,43.055813]},{"code":"LZM/CP-105","program":"gma","name":"Guvnishta","coordinates":[25.462446,43.005902]},{"code":"LZM/CP-109","program":"gma","name":"Krasta","coordinates":[25.466394,43.00449]},{"code":"LZM/CP-111","program":"gma","name":"Mogilata","coordinates":[25.437727,43.015251]},{"code":"LZM/CP-115","program":"gma","name":"Chukata","coordinates":[25.399661,43.028537]},{"code":"LZM/CP-133","program":"gma","name":"Golyamoto tepe","coordinates":[25.388527,43.078452]},{"code":"LZM/NE-075","program":"gma","name":"Kadena_mogila","coordinates":[25.465821,43.230741]},{"code":"LZM/TN-001","program":"gma","name":"Pluzhna","coordinates":[25.265636,43.13211]},{"code":"LZM/TN-003","program":"gma","name":"Meranski vrah","coordinates":[25.271773,43.147215]},{"code":"LZM/TN-004","program":"gma","name":"Kozdouru","coordinates":[25.343628,43.107657]},{"code":"LZM/TN-005","program":"gma","name":"Gyurenlika","coordinates":[25.358334,43.098288]},{"code":"LZM/TN-006","program":"gma","name":"Lipa bair","coordinates":[25.363097,43.114079]},{"code":"LZM/TN-011","program":"gma","name":"Klisurata","coordinates":[25.318594,43.097849]},{"code":"LZM/TN-015","program":"gma","name":"Merzavets","coordinates":[25.314646,43.11636]},{"code":"LZM/TN-016","program":"gma","name":"Kartala","coordinates":[25.293961,43.107939]},{"code":"LZM/TN-017","program":"gma","name":"Golish","coordinates":[25.319839,43.160239]},{"code":"LZM/TN-019","program":"gma","name":"Topkuru","coordinates":[25.297737,43.124761]},{"code":"LZM/TN-020","program":"gma","name":"Tatarski kairyak","coordinates":[25.386314,43.117079]},{"code":"LZM/TN-022","program":"gma","name":"Kuzupanichka","coordinates":[25.416613,43.111698]},{"code":"LZM/TN-023","program":"gma","name":"Golyamata mogila","coordinates":[25.37962,43.125106]},{"code":"LZM/TN-027","program":"gma","name":"Slivovashki bair","coordinates":[25.431848,43.10421]},{"code":"LZM/TN-028","program":"gma","name":"Golyamata chuka","coordinates":[25.398461,43.147654]},{"code":"LZM/TN-030","program":"gma","name":"Pripeka","coordinates":[25.40627,43.09904]},{"code":"LZM/TN-031","program":"gma","name":"Dermankouru","coordinates":[25.413566,43.102738]},{"code":"LZM/TN-033","program":"gma","name":"Malkiya bair","coordinates":[25.47545,43.109223]},{"code":"LZM/TN-036","program":"gma","name":"Arapovo","coordinates":[25.357862,43.149939]},{"code":"LZM/TN-038","program":"gma","name":"Gevreklibair","coordinates":[25.459485,43.105934]},{"code":"LZM/TN-039","program":"gma","name":"Golemiya bair","coordinates":[25.48562,43.11075]},{"code":"LZM/TN-040","program":"gma","name":"Ergele kairyak","coordinates":[25.454373,43.12913]},{"code":"LZM/TN-041","program":"gma","name":"Gradishteto","coordinates":[25.414596,43.126359]},{"code":"LZM/TN-044","program":"gma","name":"Kayadyuzlyu","coordinates":[25.283532,43.187656]},{"code":"LZM/TN-050","program":"gma","name":"Malkata chuka","coordinates":[25.413673,43.149579]},{"code":"LZM/TN-052","program":"gma","name":"Kairaka","coordinates":[25.418158,43.148139]},{"code":"LZM/TN-056","program":"gma","name":"Kaleto","coordinates":[25.496178,43.153415]},{"code":"LZM/TN-058","program":"gma","name":"Rata","coordinates":[25.364726,43.162368]},{"code":"LZM/TN-060","program":"gma","name":"Tepeto","coordinates":[25.263367,43.184571]},{"code":"LZM/TN-062","program":"gma","name":"Gredata","coordinates":[25.34636,43.175639]},{"code":"BG-0105","program":"pota","name":"Emenski kanion Natural Monument","coordinates":[25.3647,43.1408]},{"code":"LZ/CB-096","program":"sota","name":"Kitkata","coordinates":[25.295,43.0229]},{"code":"LZ/CB-108","program":"sota","name":"Kutra","coordinates":[25.424,43.2341]}]}