{"lat":43,"lon":-79.75,"programs":["pota","wwbota"],"count":6,"references":[{"code":"CA-1307","program":"pota","name":"Beamer Memorial Conservation Area","coordinates":[-79.5754,43.1882]},{"code":"CA-5362","program":"pota","name":"Fifty Point Conservation Area","coordinates":[-79.6285,43.2167]},{"code":"CA-5569","program":"pota","name":"Vinemount Wetland Conservation Area","coordinates":[-79.6634,43.1874]},{"code":"CA-5572","program":"pota","name":"Woolverton Conservation Area","coordinates":[-79.5993,43.191]},{"code":"CA-5581","program":"pota","name":"Ruigrok Tract Conservation Area","coordinates":[-79.7103,43.0202]},{"code":"B/CA-1045","program":"wwbota","name":"FRP LP45","coordinates":[-79.5624195,43.1942126]}]}