{"lat":43,"lon":-9,"programs":["pota","sota"],"count":5,"references":[{"code":"ES-1150","program":"pota","name":"Rio Anllons Natura 2000","coordinates":[-8.8371,43.2319]},{"code":"EA1/CR-013","program":"sota","name":"Pico de Meda","coordinates":[-8.86751,43.11308]},{"code":"EA1/CR-027","program":"sota","name":"Perrol","coordinates":[-8.84338,43.19215]},{"code":"EA1/CR-031","program":"sota","name":"Alto de Fernandiña","coordinates":[-8.94074,43.19863]},{"code":"EA1/CR-043","program":"sota","name":"Couso","coordinates":[-8.82355,43.0909]}]}