{"lat":43,"lon":20,"programs":["gma","pota","sota"],"count":12,"references":[{"code":"XYU/ZS-006","program":"gma","name":"Krstaca","coordinates":[20.0122,43.0426]},{"code":"XYU/ZS-013","program":"gma","name":"Zilindar","coordinates":[20.2406,43.1464]},{"code":"RS-0126","program":"pota","name":"Peštersko polje Ramsar Site","coordinates":[20.1424,43.1069]},{"code":"RS-0127","program":"pota","name":"Gutavica Nature Reserve","coordinates":[20.0651,43.0447]},{"code":"4O/IC-055","program":"sota","name":"Žilindar","coordinates":[20.0122,43.0425]},{"code":"YU/ZS-021","program":"sota","name":"Gradina","coordinates":[20.21711,43.0118]},{"code":"YU/ZS-031","program":"sota","name":"Suhi krš","coordinates":[20.22203,43.16907]},{"code":"YU/ZS-035","program":"sota","name":"Markov vrh","coordinates":[20.2448,43.06472]},{"code":"YU/ZS-038","program":"sota","name":"Žabren","coordinates":[20.24132,43.2027]},{"code":"YU/ZS-049","program":"sota","name":"Vlaški vrh","coordinates":[20.24063,43.14636]},{"code":"YU/ZS-058","program":"sota","name":"Veliki vrh","coordinates":[20.17903,43.18699]},{"code":"YU/ZS-061","program":"sota","name":"Crni vrh","coordinates":[20.10726,43.21809]}]}