{"lat":43,"lon":24.25,"programs":["gma","sota"],"count":22,"references":[{"code":"LZM/CP-098","program":"gma","name":"Skenderyaka","coordinates":[24.27624,43.05274]},{"code":"LZM/MK-023","program":"gma","name":"Visoka mogila","coordinates":[24.466767,43.012587]},{"code":"LZM/MK-035","program":"gma","name":"Yolovskata kukla","coordinates":[24.476895,43.030282]},{"code":"LZM/MK-046","program":"gma","name":"Gradishteto","coordinates":[24.389391,43.029498]},{"code":"LZM/MK-047","program":"gma","name":"Sulyovski vrah","coordinates":[24.489641,43.030314]},{"code":"LZM/VA-067","program":"gma","name":"Damyanitsa","coordinates":[24.261804,43.002387]},{"code":"LZM/VA-082","program":"gma","name":"Chernogor","coordinates":[24.252748,43.007346]},{"code":"LZM/VA-091","program":"gma","name":"Kleneto","coordinates":[24.251547,43.019302]},{"code":"LZM/VA-104","program":"gma","name":"Baldyuvitsa","coordinates":[24.280901,43.010253]},{"code":"LZM/VA-107","program":"gma","name":"Mogilata","coordinates":[24.30871,43.011991]},{"code":"LZM/VA-112","program":"gma","name":"Kukla","coordinates":[24.326262,43.008444]},{"code":"LZM/VA-114","program":"gma","name":"Lala","coordinates":[24.346948,43.002105]},{"code":"LZM/VA-115","program":"gma","name":"Stoika","coordinates":[24.356161,43.000772]},{"code":"LZM/VA-116","program":"gma","name":"Sipa","coordinates":[24.280429,43.026236]},{"code":"LZM/VA-117","program":"gma","name":"Mogilata","coordinates":[24.360166,43.004961]},{"code":"LZM/VA-118","program":"gma","name":"Pravets","coordinates":[24.413509,43.00132]},{"code":"LZM/VA-119","program":"gma","name":"Krasta","coordinates":[24.317854,43.016635]},{"code":"LZM/VA-120","program":"gma","name":"Stoikova mogila","coordinates":[24.32961,43.019835]},{"code":"LZM/VA-121","program":"gma","name":"Varha","coordinates":[24.346476,43.013779]},{"code":"LZM/VA-122","program":"gma","name":"Lipen vrah","coordinates":[24.292834,43.026141]},{"code":"LZM/WP-286","program":"gma","name":"Karadzhovets","coordinates":[24.261326,43.191115]},{"code":"LZ/CB-098","program":"sota","name":"Koleloto","coordinates":[24.3718,43.0448]}]}