{"lat":43,"lon":-0.5,"programs":["gma","pota","sota"],"count":16,"references":[{"code":"FA/PO-037","program":"gma","name":"Barsaut","coordinates":[-0.47189999,43.07830048]},{"code":"FR-0162","program":"pota","name":"la Vallee d Ossau Regional Park","coordinates":[-0.412395,43.0589]},{"code":"FR-3809","program":"pota","name":"LE GAVE D'OSSAU  FR7200793 Natura 2000","coordinates":[-0.4815,43.1202]},{"code":"FR-4262","program":"pota","name":"Tourbiere de Louvie-Juzon Natura 2000","coordinates":[-0.38432,43.097]},{"code":"FR-3769","program":"pota","name":"MASSIF DU MOULLE DE JAOUT  FR7200742 Natura 2000","coordinates":[-0.3387,43.0255]},{"code":"FR-3770","program":"pota","name":"PENES DU MOULLE DE JAOUT  FR7210089 Natura 2000","coordinates":[-0.35396,43.0336]},{"code":"FR-3924","program":"pota","name":"Vallee d Ossau National Nature Reserve","coordinates":[-0.41276,43.0491]},{"code":"F/PO-139","program":"sota","name":"Pic Montagnon","coordinates":[-0.4995,43.0282]},{"code":"F/PO-144","program":"sota","name":"Pic de Gerbe","coordinates":[-0.4595,43.0084]},{"code":"F/PO-157","program":"sota","name":"Pic de Males ores","coordinates":[-0.347,43.0411]},{"code":"F/PO-160","program":"sota","name":"Pic de Mondragon","coordinates":[-0.286,43.0281]},{"code":"F/PO-161","program":"sota","name":"Pic Durban","coordinates":[-0.3143,43.0475]},{"code":"F/PO-182","program":"sota","name":"Soum de las Picarras","coordinates":[-0.3906,43.0767]},{"code":"F/PO-203","program":"sota","name":"Soum de la Brèque","coordinates":[-0.2828,43.0844]},{"code":"F/PO-241","program":"sota","name":"Larroun","coordinates":[-0.441,43.092]},{"code":"F/PO-253","program":"sota","name":"Le Moulle de Jaut","coordinates":[-0.3418,43.0256]}]}