{"lat":43,"lon":22,"programs":["pota","sota"],"count":8,"references":[{"code":"RS-0199","program":"pota","name":"Prirodni prostor Jašunjskih manastira Historic Site","coordinates":[22.0474,43.0969]},{"code":"RS-0045","program":"pota","name":"Suva planina Nature Reserve","coordinates":[22.1926,43.1703]},{"code":"YU/JS-007","program":"sota","name":"Trem","coordinates":[22.17139,43.18352]},{"code":"YU/JS-019","program":"sota","name":"Sokolov kamen","coordinates":[22.11846,43.2081]},{"code":"YU/JS-033","program":"sota","name":"Divna gorica","coordinates":[22.24159,43.20354]},{"code":"YU/JS-068","program":"sota","name":"Kriva buka","coordinates":[22.06173,43.12695]},{"code":"YU/JS-083","program":"sota","name":"Vita kruška","coordinates":[22.17762,43.03888]},{"code":"YU/JS-092","program":"sota","name":"Visoka čuka","coordinates":[22.24744,43.00495]}]}