{"lat":43,"lon":22.5,"programs":["pota","sota"],"count":6,"references":[{"code":"RS-0240","program":"pota","name":"Krupačko blato Nature Reserve","coordinates":[22.678,43.11]},{"code":"YU/IS-012","program":"sota","name":"Basarski kamik","coordinates":[22.70493,43.1632]},{"code":"YU/IS-021","program":"sota","name":"Kitka","coordinates":[22.67072,43.21334]},{"code":"YU/IS-033","program":"sota","name":"Golaš","coordinates":[22.60533,43.24645]},{"code":"YU/IS-080","program":"sota","name":"Neškov vis","coordinates":[22.74927,43.03202]},{"code":"YU/JS-074","program":"sota","name":"Petivore","coordinates":[22.60388,43.04298]}]}