{"lat":43,"lon":141,"programs":["sota"],"count":7,"references":[{"code":"JA8/IS-007","program":"sota","name":"Tenguyama","coordinates":[141.1086,43.0108]},{"code":"JA8/IS-008","program":"sota","name":"Eboshidake","coordinates":[141.1846,43.0119]},{"code":"JA8/IS-010","program":"sota","name":"JA8/IS-010","coordinates":[141.0944,43.0306]},{"code":"JA8/IS-012","program":"sota","name":"Harukayama","coordinates":[141.1037,43.1136]},{"code":"JA8/IS-036","program":"sota","name":"Teineyama","coordinates":[141.1926,43.0767]},{"code":"JA8/SB-003","program":"sota","name":"Yoichidake","coordinates":[141.0198,43.0327]},{"code":"JA8/SB-036","program":"sota","name":"JA8/SB-036","coordinates":[141.0027,43.131]}]}