{"lat":43,"lon":-73.5,"programs":["pota","sota"],"count":12,"references":[{"code":"US-5006","program":"pota","name":"Eldridge Swamp State Forest","coordinates":[-73.3429,43.0603]},{"code":"US-5034","program":"pota","name":"Goose Egg State Forest","coordinates":[-73.2838,43.0728]},{"code":"US-5102","program":"pota","name":"Batten Kill State Forest","coordinates":[-73.3111,43.083]},{"code":"US-5431","program":"pota","name":"Mount Tom State Forest","coordinates":[-73.3262,43.0016]},{"code":"US-9108","program":"pota","name":"Carters Pond Wildlife Management Area","coordinates":[-73.4237,43.1645]},{"code":"W2/GA-161","program":"sota","name":"Goose Egg Ridge","coordinates":[-73.2847,43.072]},{"code":"W2/GA-162","program":"sota","name":"Two Tops","coordinates":[-73.3078,43.0383]},{"code":"W2/GA-163","program":"sota","name":"Barber Hills HP","coordinates":[-73.331,43.0164]},{"code":"W2/GA-164","program":"sota","name":"Cobble; The","coordinates":[-73.4379,43.0258]},{"code":"W2/GA-166","program":"sota","name":"1390","coordinates":[-73.3967,43.066]},{"code":"W2/GA-167","program":"sota","name":"1367","coordinates":[-73.431,43.0725]},{"code":"W2/GA-171","program":"sota","name":"1172","coordinates":[-73.397,43.205]}]}