{"lat":43,"lon":19,"programs":["pota","sota"],"count":16,"references":[{"code":"ME-0002","program":"pota","name":"Durmitor National Park","coordinates":[19.117,43.2117]},{"code":"4O/ZC-001","program":"sota","name":"Bobotov kuk","coordinates":[19.0348,43.1281]},{"code":"4O/ZC-002","program":"sota","name":"Šljeme","coordinates":[19.0648,43.1141]},{"code":"4O/ZC-004","program":"sota","name":"Prutaš","coordinates":[19.0013,43.1267]},{"code":"4O/ZC-009","program":"sota","name":"Sedlena greda","coordinates":[19.0536,43.088]},{"code":"4O/ZC-013","program":"sota","name":"Štuoc","coordinates":[19.0456,43.169]},{"code":"4O/ZC-021","program":"sota","name":"Bolj","coordinates":[19.0396,43.0744]},{"code":"4O/ZC-022","program":"sota","name":"Lojanik","coordinates":[19.008,43.0944]},{"code":"4O/ZC-039","program":"sota","name":"Osuđenik","coordinates":[19.24,43.0239]},{"code":"4O/ZC-046","program":"sota","name":"Obzir","coordinates":[19.0639,43.2431]},{"code":"4O/ZC-049","program":"sota","name":"Bunetina","coordinates":[19.2062,43.2252]},{"code":"4O/ZC-053","program":"sota","name":"Velika Orujica","coordinates":[19.2106,43.0644]},{"code":"4O/ZC-054","program":"sota","name":"Mala Kučajevica","coordinates":[19.2221,43.1069]},{"code":"4O/ZC-058","program":"sota","name":"Kučajevica","coordinates":[19.2497,43.0784]},{"code":"4O/ZC-065","program":"sota","name":"Crni vrh","coordinates":[19.221,43.1761]},{"code":"4O/ZC-070","program":"sota","name":"Šanac","coordinates":[19.2028,43.1214]}]}