{"lat":43,"lon":18.75,"programs":["sota"],"count":13,"references":[{"code":"4O/ZC-003","program":"sota","name":"Veliki Vitao","coordinates":[18.7571,43.2255]},{"code":"4O/ZC-007","program":"sota","name":"Vrsta","coordinates":[18.7714,43.2476]},{"code":"4O/ZC-014","program":"sota","name":"Raklje","coordinates":[18.9833,43.1393]},{"code":"4O/ZC-015","program":"sota","name":"Ružica","coordinates":[18.9752,43.1104]},{"code":"4O/ZC-020","program":"sota","name":"Buručkovac","coordinates":[18.9706,43.0561]},{"code":"4O/ZC-031","program":"sota","name":"Suvor","coordinates":[18.7688,43.185]},{"code":"4O/ZC-035","program":"sota","name":"Ružica","coordinates":[18.7655,43.0923]},{"code":"4O/ZC-037","program":"sota","name":"Golija","coordinates":[18.7946,43.0059]},{"code":"4O/ZC-055","program":"sota","name":"Vagan","coordinates":[18.894,43.219]},{"code":"4O/ZC-081","program":"sota","name":"Razvršje","coordinates":[18.7776,43.1406]},{"code":"4O/ZC-099","program":"sota","name":"Zavorovi","coordinates":[18.8571,43.1407]},{"code":"4O/ZC-105","program":"sota","name":"Jasikov do","coordinates":[18.9283,43.0045]},{"code":"4O/ZC-109","program":"sota","name":"Siljeva kosa","coordinates":[18.9265,43.027]}]}