{"lat":43,"lon":24.5,"programs":["gma","sota"],"count":24,"references":[{"code":"LZM/CP-072","program":"gma","name":"Chuvarlinga","coordinates":[24.698839,43.055499]},{"code":"LZM/CP-090","program":"gma","name":"Dryana","coordinates":[24.533308,43.047538]},{"code":"LZM/CP-095","program":"gma","name":"Orta sara","coordinates":[24.620321,43.051847]},{"code":"LZM/CP-096","program":"gma","name":"Cherveshtitsa","coordinates":[24.631004,43.051893]},{"code":"LZM/CP-101","program":"gma","name":"Golemiya chukar","coordinates":[24.659286,43.048757]},{"code":"LZM/CP-107","program":"gma","name":"Malkia chukar","coordinates":[24.663609,43.048894]},{"code":"LZM/CP-110","program":"gma","name":"Moryashovia chukar","coordinates":[24.666796,43.048914]},{"code":"LZM/MK-002","program":"gma","name":"Karadzhova mogila","coordinates":[24.646626,43.021561]},{"code":"LZM/MK-003","program":"gma","name":"Malkia Pashal","coordinates":[24.572639,43.007409]},{"code":"LZM/MK-004","program":"gma","name":"Gochov chukar","coordinates":[24.547062,43.002482]},{"code":"LZM/MK-005","program":"gma","name":"Ruen","coordinates":[24.575,43.022188]},{"code":"LZM/MK-007","program":"gma","name":"Yuklicher","coordinates":[24.613624,43.023631]},{"code":"LZM/MK-011","program":"gma","name":"Tetyovska mogila","coordinates":[24.511614,43.007315]},{"code":"LZM/MK-026","program":"gma","name":"Livurdshi","coordinates":[24.562168,43.031161]},{"code":"LZM/MK-029","program":"gma","name":"Razvanskata kukla","coordinates":[24.606586,43.031537]},{"code":"LZM/MK-034","program":"gma","name":"Peyov vrah","coordinates":[24.536119,43.030063]},{"code":"LZM/MK-039","program":"gma","name":"Damenitsa","coordinates":[24.512451,43.030486]},{"code":"LZM/MK-041","program":"gma","name":"Preslopa","coordinates":[24.739108,43.025451]},{"code":"LZM/MK-042","program":"gma","name":"Kuklata","coordinates":[24.520411,43.029435]},{"code":"LZM/MK-043","program":"gma","name":"Dzhupeka","coordinates":[24.696879,43.028761]},{"code":"LZM/MK-049","program":"gma","name":"Ostrata mogila","coordinates":[24.657054,43.038846]},{"code":"LZM/MK-050","program":"gma","name":"Tumbata","coordinates":[24.647655,43.038783]},{"code":"LZ/CB-064","program":"sota","name":"Pashaalan","coordinates":[24.589,43.0063]},{"code":"LZ/CB-092","program":"sota","name":"Gyuneto","coordinates":[24.5923,43.0668]}]}