{"lat":43,"lon":140.5,"programs":["sota"],"count":8,"references":[{"code":"JA8/SB-023","program":"sota","name":"Hatsunaitake","coordinates":[140.6313,43.0782]},{"code":"JA8/SB-026","program":"sota","name":"Doronokidake","coordinates":[140.5344,43.2305]},{"code":"JA8/SB-028","program":"sota","name":"Tengudake","coordinates":[140.6608,43.1848]},{"code":"JA8/SB-031","program":"sota","name":"Shirakabayama","coordinates":[140.5648,43.1156]},{"code":"JA8/SB-032","program":"sota","name":"Tomaruyama","coordinates":[140.5369,43.1972]},{"code":"JA8/SB-034","program":"sota","name":"Ryoukokai","coordinates":[140.5467,43.1574]},{"code":"JA8/SB-041","program":"sota","name":"Takinozawayama","coordinates":[140.5102,43.1432]},{"code":"JA8/SB-043","program":"sota","name":"Tenguyama","coordinates":[140.5139,43.1089]}]}