{"lat":43,"lon":-73.75,"programs":["pota","sota"],"count":8,"references":[{"code":"US-0062","program":"pota","name":"Saratoga National Historical Park","coordinates":[-73.6467,43.0028]},{"code":"US-2110","program":"pota","name":"Moreau Lake State Park","coordinates":[-73.7079,43.2262]},{"code":"US-9117","program":"pota","name":"Saratoga Sand Plains Wildlife Management Area","coordinates":[-73.703,43.1636]},{"code":"US-9118","program":"pota","name":"Victory Mills Wildlife Management Area","coordinates":[-73.5985,43.0828]},{"code":"US-9119","program":"pota","name":"Washington County Grasslands Wildlife Management Area","coordinates":[-73.5595,43.2458]},{"code":"US-10042","program":"pota","name":"Grant Cottage State Historic Site","coordinates":[-73.7453,43.2013]},{"code":"W2/GA-165","program":"sota","name":"Willard Mountain","coordinates":[-73.5234,43.0196]},{"code":"W2/GA-181","program":"sota","name":"Grant Mountain","coordinates":[-73.7403,43.2306]}]}