{"lat":43,"lon":-2.25,"programs":["gma","pota","sota"],"count":20,"references":[{"code":"EC/PV-016","program":"gma","name":"Urraki","coordinates":[-2.19079995,43.14350128]},{"code":"EC/PV-017","program":"gma","name":"Belkoain","coordinates":[-2.046,43.22340012]},{"code":"ES-0236","program":"pota","name":"Pagoeta Nature Park","coordinates":[-2.15577,43.2498]},{"code":"ES-1347","program":"pota","name":"Hernio-Gazume Natura 2000","coordinates":[-2.1437,43.1728]},{"code":"ES-1350","program":"pota","name":"Araxes ibaia / Rio Araxes Natura 2000","coordinates":[-2.0279,43.0848]},{"code":"EA2/NV-018","program":"sota","name":"Intzako Dorrea / Hirumugarrieta","coordinates":[-2.0258,43.0001]},{"code":"EA2/SS-002","program":"sota","name":"Larrunarri","coordinates":[-2.0884,43.0227]},{"code":"EA2/SS-005","program":"sota","name":"Hernio","coordinates":[-2.1527,43.1702]},{"code":"EA2/SS-008","program":"sota","name":"Gazume","coordinates":[-2.1655,43.181]},{"code":"EA2/SS-020","program":"sota","name":"Murumendi","coordinates":[-2.2025,43.0914]},{"code":"EA2/SS-026","program":"sota","name":"Laparmendi","coordinates":[-2.0457,43.0854]},{"code":"EA2/SS-028","program":"sota","name":"Laarte","coordinates":[-2.0123,43.1231]},{"code":"EA2/SS-033","program":"sota","name":"Intxurre","coordinates":[-2.1481,43.1149]},{"code":"EA2/SS-036","program":"sota","name":"Murugil","coordinates":[-2.1716,43.2264]},{"code":"EA2/SS-046","program":"sota","name":"Andatza","coordinates":[-2.0757,43.2467]},{"code":"EA2/SS-049","program":"sota","name":"Altzagamendi","coordinates":[-2.1453,43.0703]},{"code":"EA2/SS-052","program":"sota","name":"Buruntza","coordinates":[-2.0144,43.2389]},{"code":"EA2/SS-055","program":"sota","name":"Ollagon","coordinates":[-2.082,43.1117]},{"code":"EA2/SS-056","program":"sota","name":"Ganboa","coordinates":[-2.0639,43.0051]},{"code":"EA2/SS-058","program":"sota","name":"Illaun","coordinates":[-2.1881,43.1317]}]}