{"lat":43,"lon":-74,"programs":["pota"],"count":6,"references":[{"code":"US-2135","program":"pota","name":"Saratoga Spa State Park","coordinates":[-73.8021,43.0552]},{"code":"US-5194","program":"pota","name":"Daketown State Forest","coordinates":[-73.9236,43.1032]},{"code":"US-5196","program":"pota","name":"Daniel's Road State Forest","coordinates":[-73.7924,43.125]},{"code":"US-5387","program":"pota","name":"Lake Desolation State Forest","coordinates":[-73.9695,43.1513]},{"code":"US-5393","program":"pota","name":"Lincoln Mountain State Forest","coordinates":[-73.7997,43.1907]},{"code":"US-5418","program":"pota","name":"Middle Grove State Forest","coordinates":[-73.9478,43.0833]}]}