{"lat":43,"lon":12,"programs":["pota","sota"],"count":11,"references":[{"code":"IT-0848","program":"pota","name":"Lago Trasimeno Natura 2000","coordinates":[12.1036,43.1369]},{"code":"IT-1014","program":"pota","name":"Monti Marzolana - Montali Natura 2000","coordinates":[12.1706,43.0639]},{"code":"IT-1168","program":"pota","name":"Boschi e brughiere di Panicarola Natura 2000","coordinates":[12.1094,43.0569]},{"code":"IT-1171","program":"pota","name":"Boschi di Pischiello - Torre Civitella Natura 2000","coordinates":[12.17,43.2056]},{"code":"IT-1178","program":"pota","name":"Boschi di Castel Rigone Natura 2000","coordinates":[12.2319,43.2244]},{"code":"IT-1594","program":"pota","name":"Boschi e brughiere di Cima Farneto - Poggio Fiorello (Mugnano) Natura 2000","coordinates":[12.1914,43.0531]},{"code":"I/UM-077","program":"sota","name":"Monte Castiglione","coordinates":[12.1236,43.2347]},{"code":"I/UM-093","program":"sota","name":"Monte Petrarvella","coordinates":[12.0828,43.0178]},{"code":"I/UM-097","program":"sota","name":"Monte Solare","coordinates":[12.1544,43.0428]},{"code":"I/UM-098","program":"sota","name":"Monte Marzolana","coordinates":[12.1681,43.0713]},{"code":"I/UM-102","program":"sota","name":"Monte Castiglionaccio","coordinates":[12.2147,43.0986]}]}