{"lat":43,"lon":1,"programs":["pota","sota"],"count":15,"references":[{"code":"FR-2706","program":"pota","name":"VALLEE DE LA GARONNE DE BOUSSENS FR7312010 Natura 2000 Natura 2000","coordinates":[1.14806,43.2333]},{"code":"FR-4154","program":"pota","name":"Grotte de Tourtouse Natura 2000","coordinates":[1.12639,43.09]},{"code":"FR-11342","program":"pota","name":"Gypse triasique de Betchat Conservation Area","coordinates":[1.04291,43.2]},{"code":"FR-11349","program":"pota","name":"Queres des Petites Pyrenees (partie nord) Biological Reserve","coordinates":[1.07888,43.1664]},{"code":"FR-11350","program":"pota","name":"Queres des Petites Pyrenees (partie sud) Biological Reserve","coordinates":[1.06523,43.1352]},{"code":"FR-11351","program":"pota","name":"Queres de Bedeille et grotte de Tourtouse Biological Reserve","coordinates":[1.11566,43.0866]},{"code":"FR-11353","program":"pota","name":"Le Salat et le Lens Biological Reserve","coordinates":[1.04291,43.0491]},{"code":"FR-11617","program":"pota","name":"Petites Pyrenees en rive droite de la Garonne Biological Reserve","coordinates":[1.127,43.086]},{"code":"FR-11618","program":"pota","name":"Cours du Volp Biological Reserve","coordinates":[1.183,43.118]},{"code":"FR-11619","program":"pota","name":"Coteaux de l'est du St-Gironnais Biological Reserve","coordinates":[1.243,43.067]},{"code":"FR-12418","program":"pota","name":"Le Plantaurel occidental Biological Reserve","coordinates":[1.216,43.077]},{"code":"F/PE-280","program":"sota","name":"Tuc de Montcalivert","coordinates":[1.1656,43.0144]},{"code":"F/PE-285","program":"sota","name":"Ausseing Tour","coordinates":[1.0247,43.1594]},{"code":"F/PE-368","program":"sota","name":"Serre d'Arnac","coordinates":[1.1751,43.0272]},{"code":"F/PE-376","program":"sota","name":"Mont Saboth","coordinates":[1.0764,43.1706]}]}