{"lat":43,"lon":22.25,"programs":["pota","sota"],"count":9,"references":[{"code":"RS-0242","program":"pota","name":"Šanac - Jeremijino brdo Other Conservation Area","coordinates":[22.4058,43.0961]},{"code":"YU/JS-015","program":"sota","name":"Litica","coordinates":[22.25297,43.11845]},{"code":"YU/JS-051","program":"sota","name":"Šljivovički vrh","coordinates":[22.35542,43.16449]},{"code":"YU/JS-053","program":"sota","name":"Golemi stol","coordinates":[22.49597,43.02783]},{"code":"YU/JS-079","program":"sota","name":"Kardašica","coordinates":[22.47709,43.19375]},{"code":"YU/JS-082","program":"sota","name":"Debeli del","coordinates":[22.45449,43.20157]},{"code":"YU/JS-084","program":"sota","name":"Rid","coordinates":[22.4977,43.10035]},{"code":"YU/JS-088","program":"sota","name":"Crni vrh","coordinates":[22.44249,43.18782]},{"code":"YU/JS-094","program":"sota","name":"Mali vis","coordinates":[22.40276,43.02025]}]}