{"lat":43.25,"lon":142.25,"programs":["sota"],"count":9,"references":[{"code":"JA8/KK-030","program":"sota","name":"Nunobedake","coordinates":[142.291,43.2971]},{"code":"JA8/KK-105","program":"sota","name":"Takinosawa","coordinates":[142.4166,43.2655]},{"code":"JA8/KK-132","program":"sota","name":"Naeizan","coordinates":[142.3571,43.4663]},{"code":"JA8/SC-001","program":"sota","name":"JA8/SC-001","coordinates":[142.2556,43.2524]},{"code":"JA8/SC-004","program":"sota","name":"Nakatengu","coordinates":[142.2697,43.2891]},{"code":"JA8/SC-017","program":"sota","name":"Nokanandake","coordinates":[142.2899,43.3827]},{"code":"JA8/SC-019","program":"sota","name":"Kondoyama","coordinates":[142.271,43.3576]},{"code":"JA8/SC-055","program":"sota","name":"Kudakeishi","coordinates":[142.3543,43.4106]},{"code":"JA8/SC-068","program":"sota","name":"Takamine","coordinates":[142.3616,43.4289]}]}