{"lat":43.25,"lon":-122.5,"programs":["sota"],"count":13,"references":[{"code":"W7O/CS-064","program":"sota","name":"Staley Ridge","coordinates":[-122.4003,43.3987]},{"code":"W7O/CS-067","program":"sota","name":"Potter Mountain","coordinates":[-122.3387,43.365]},{"code":"W7O/CS-071","program":"sota","name":"McGowan Mountain","coordinates":[-122.2829,43.424]},{"code":"W7O/CS-072","program":"sota","name":"Balm Mountain","coordinates":[-122.4215,43.3802]},{"code":"W7O/CS-093","program":"sota","name":"Pig Iron Mountain","coordinates":[-122.3601,43.2675]},{"code":"W7O/CS-112","program":"sota","name":"Camel Hump","coordinates":[-122.439,43.3183]},{"code":"W7O/CS-114","program":"sota","name":"Perry Butte","coordinates":[-122.4617,43.3319]},{"code":"W7O/CS-116","program":"sota","name":"Dread and Terror Ridge","coordinates":[-122.2779,43.3407]},{"code":"W7O/CS-160","program":"sota","name":"5940","coordinates":[-122.4814,43.4101]},{"code":"W7O/CS-163","program":"sota","name":"5220","coordinates":[-122.3226,43.2815]},{"code":"W7O/CS-165","program":"sota","name":"5020","coordinates":[-122.4801,43.477]},{"code":"W7O/CS-169","program":"sota","name":"4512","coordinates":[-122.4884,43.3233]},{"code":"W7O/CS-183","program":"sota","name":"3660","coordinates":[-122.4918,43.2792]}]}