{"lat":43.25,"lon":-111,"programs":["pota","sota"],"count":17,"references":[{"code":"US-6229","program":"pota","name":"South Park State Wildlife Habitat Management Area","coordinates":[-110.766,43.3943]},{"code":"US-11741","program":"pota","name":"Palisades WSA USFS Recreation Area","coordinates":[-110.877,43.288]},{"code":"W7Y/SW-050","program":"sota","name":"Observation Peak","coordinates":[-110.9498,43.2841]},{"code":"W7Y/SW-073","program":"sota","name":"Wolf Mountain","coordinates":[-110.8749,43.2756]},{"code":"W7Y/TT-115","program":"sota","name":"Smoky Hollow Peak","coordinates":[-110.996,43.4162]},{"code":"W7Y/TT-120","program":"sota","name":"9365","coordinates":[-110.9499,43.3408]},{"code":"W7Y/TT-122","program":"sota","name":"Pass Benchmark","coordinates":[-110.95,43.4769]},{"code":"W7Y/TT-149","program":"sota","name":"Munger Mountain","coordinates":[-110.7799,43.3426]},{"code":"W7Y/TT-156","program":"sota","name":"Taylor Mountain","coordinates":[-110.8881,43.3919]},{"code":"W7Y/TT-158","program":"sota","name":"7948","coordinates":[-110.8988,43.3583]},{"code":"W7Y/TT-165","program":"sota","name":"7576","coordinates":[-110.7615,43.3136]},{"code":"W7Y/TT-168","program":"sota","name":"7481","coordinates":[-110.8291,43.3161]},{"code":"W7Y/TT-169","program":"sota","name":"7467","coordinates":[-110.8001,43.2672]},{"code":"W7Y/TT-170","program":"sota","name":"East Gros Ventre Butte","coordinates":[-110.7796,43.4846]},{"code":"W7Y/TT-172","program":"sota","name":"7260","coordinates":[-110.8511,43.3614]},{"code":"W7Y/TT-174","program":"sota","name":"6902","coordinates":[-110.8058,43.4851]},{"code":"W7Y/TT-175","program":"sota","name":"6794","coordinates":[-110.7974,43.4681]}]}