{"lat":43.25,"lon":-110,"programs":["sota"],"count":8,"references":[{"code":"W7Y/FT-125","program":"sota","name":"10785","coordinates":[-109.7605,43.4814]},{"code":"W7Y/SL-029","program":"sota","name":"Osborn Mountain","coordinates":[-109.7728,43.3316]},{"code":"W7Y/SL-031","program":"sota","name":"Lost Eagle Peak","coordinates":[-109.7612,43.2605]},{"code":"W7Y/SL-039","program":"sota","name":"Three Waters Mountain","coordinates":[-109.7777,43.3816]},{"code":"W7Y/SL-041","program":"sota","name":"11645","coordinates":[-109.8784,43.2569]},{"code":"W7Y/SL-045","program":"sota","name":"Gypsum Mountain","coordinates":[-109.9062,43.2716]},{"code":"W7Y/SL-046","program":"sota","name":"Union Peak","coordinates":[-109.7876,43.4553]},{"code":"W7Y/SL-078","program":"sota","name":"Little Sheep Mountain","coordinates":[-109.9309,43.3198]}]}