{"lat":43.25,"lon":-72,"programs":["pota","sota"],"count":17,"references":[{"code":"US-2654","program":"pota","name":"Gardner Memorial Wayside State Park","coordinates":[-71.9756,43.4831]},{"code":"US-2676","program":"pota","name":"Rollins State Park","coordinates":[-71.8486,43.3472]},{"code":"US-2680","program":"pota","name":"Wadleigh State Park","coordinates":[-71.9434,43.3591]},{"code":"US-2685","program":"pota","name":"Winslow State Park","coordinates":[-71.868,43.39]},{"code":"US-4882","program":"pota","name":"Carroll State Forest","coordinates":[-71.8155,43.2873]},{"code":"US-4918","program":"pota","name":"Kearsarge Mountain State Forest","coordinates":[-71.8823,43.3802]},{"code":"US-4933","program":"pota","name":"Merrimack River State Forest","coordinates":[-71.9639,43.3331]},{"code":"US-4949","program":"pota","name":"Ragged Mountain State Forest","coordinates":[-71.8345,43.4432]},{"code":"US-4960","program":"pota","name":"Shadow Hill State Forest","coordinates":[-71.9454,43.3512]},{"code":"W1/HA-010","program":"sota","name":"Mount Kearsarge","coordinates":[-71.8572,43.3833]},{"code":"W1/HA-026","program":"sota","name":"Ragged Mountain","coordinates":[-71.8294,43.4683]},{"code":"W1/HA-052","program":"sota","name":"Stewarts Peak","coordinates":[-71.8675,43.2514]},{"code":"W1/HA-141","program":"sota","name":"Kings Hill","coordinates":[-71.9931,43.3706]},{"code":"W1/HA-191","program":"sota","name":"Bog Mountain","coordinates":[-71.9297,43.4689]},{"code":"W1/HA-195","program":"sota","name":"Tucker Mountain","coordinates":[-71.7603,43.4944]},{"code":"W1/HA-206","program":"sota","name":"Beech Hill","coordinates":[-71.8094,43.4131]},{"code":"W1/HA-220","program":"sota","name":"Raccoon Hill","coordinates":[-71.7536,43.4175]}]}