{"lat":43.25,"lon":2.25,"programs":["gma","pota","sota"],"count":29,"references":[{"code":"FA/MC-015","program":"gma","name":"Montagne Noire","coordinates":[2.26889992,43.45920181]},{"code":"FR-3481","program":"pota","name":"GORGES DE LA CLAMOUX  FR9101451 Natura 2000","coordinates":[2.45806,43.3578]},{"code":"FR-6008","program":"pota","name":"Montagne Noire versant Nord Biological Reserve","coordinates":[2.28842,43.4494]},{"code":"FR-12925","program":"pota","name":"Zone agricole du nord Carcassonnais Biological Reserve","coordinates":[2.319,43.259]},{"code":"FR-12926","program":"pota","name":"Cretes et piemonts de la Montagne Noire Biological Reserve","coordinates":[2.481,43.3554]},{"code":"FR-12948","program":"pota","name":"Foret de Montaud Biological Reserve","coordinates":[2.262,43.495]},{"code":"FR-12956","program":"pota","name":"Foret de la Loubatiere Biological Reserve","coordinates":[2.264,43.4]},{"code":"FR-12957","program":"pota","name":"Vallee de la Dure Biological Reserve","coordinates":[2.282,43.414]},{"code":"FR-12958","program":"pota","name":"Grande Sagne Biological Reserve","coordinates":[2.295,43.433]},{"code":"FR-12959","program":"pota","name":"Marais de Pignol Biological Reserve","coordinates":[2.314,43.449]},{"code":"FR-12960","program":"pota","name":"Sagnes de la Calmilhe et de la Belane Biological Reserve","coordinates":[2.318,43.451]},{"code":"FR-12961","program":"pota","name":"Prairie humide du lac des Montagnes Biological Reserve","coordinates":[2.337,43.463]},{"code":"FR-12962","program":"pota","name":"Gorges de l'Arnette, versants boises et landes des Yes Biological Reserve","coordinates":[2.369,43.48]},{"code":"FR-12963","program":"pota","name":"Sagnes de l'Arnette Biological Reserve","coordinates":[2.396,43.45]},{"code":"FR-12967","program":"pota","name":"Vallon du ruisseau de la Valette Biological Reserve","coordinates":[2.289,43.302]},{"code":"FR-12970","program":"pota","name":"Garrigues de Vallouviere Biological Reserve","coordinates":[2.317,43.303]},{"code":"FR-12971","program":"pota","name":"Vallee du Rieu Sec Biological Reserve","coordinates":[2.327,43.329]},{"code":"FR-12972","program":"pota","name":"Gorges de l'Orbiel aux Ilhes Biological Reserve","coordinates":[2.367,43.343]},{"code":"FR-12973","program":"pota","name":"Vallee de l'Orbiel Biological Reserve","coordinates":[2.374,43.34]},{"code":"FR-12974","program":"pota","name":"Gorges de l'Orbiel a Miraval-Cabardes Biological Reserve","coordinates":[2.345,43.38]},{"code":"FR-12975","program":"pota","name":"Cascade de Cubservies Biological Reserve","coordinates":[2.418,43.389]},{"code":"FR-12976","program":"pota","name":"Monts et grottes des soulanes de Nore Biological Reserve","coordinates":[2.429,43.372]},{"code":"FR-12977","program":"pota","name":"Crete rocheuse de Fount-Ferrouzo Biological Reserve","coordinates":[2.46,43.395]},{"code":"FR-12978","program":"pota","name":"Riviere de la Clamoux et ruisseau du Cros Biological Reserve","coordinates":[2.462,43.373]},{"code":"FR-12979","program":"pota","name":"Massif du Roc de l'Aigle Biological Reserve","coordinates":[2.455,43.367]},{"code":"FR-12980","program":"pota","name":"Garrigues de Saint-Martin Biological Reserve","coordinates":[2.478,43.347]},{"code":"F/MC-221","program":"sota","name":"Le Therme Noir","coordinates":[2.2927,43.4587]},{"code":"F/PE-186","program":"sota","name":"Pic de Nore","coordinates":[2.4619,43.4244]},{"code":"F/PE-223","program":"sota","name":"Plateau du Sambrès","coordinates":[2.3747,43.4231]}]}