{"lat":43.25,"lon":-95.25,"programs":["pota"],"count":8,"references":[{"code":"US-2286","program":"pota","name":"Elinor Bedell State Park","coordinates":[-95.0681,43.4121]},{"code":"US-2292","program":"pota","name":"Gull Point State Park","coordinates":[-95.1685,43.3714]},{"code":"US-2307","program":"pota","name":"Mini-Wakan State Park","coordinates":[-95.1033,43.4979]},{"code":"US-2312","program":"pota","name":"Pikes Point State Park","coordinates":[-95.1624,43.4159]},{"code":"US-5732","program":"pota","name":"Emerson Bay State Recreation Area","coordinates":[-95.176,43.3557]},{"code":"US-5735","program":"pota","name":"Lower Gar State Recreation Area","coordinates":[-95.1256,43.3428]},{"code":"US-5736","program":"pota","name":"Templar State Recreation Area","coordinates":[-95.1178,43.4557]},{"code":"US-10174","program":"pota","name":"Marble Beach State Recreation Area","coordinates":[-95.124,43.47]}]}