{"lat":43.25,"lon":22.25,"programs":["pota","sota"],"count":10,"references":[{"code":"RS-0112","program":"pota","name":"Dolina potoka Bigar Natural Monument","coordinates":[22.4408,43.3521]},{"code":"YU/IS-014","program":"sota","name":"Zeleni vrh","coordinates":[22.25297,43.33044]},{"code":"YU/IS-017","program":"sota","name":"Crni vrh","coordinates":[22.27898,43.34561]},{"code":"YU/IS-025","program":"sota","name":"Paješki kamen","coordinates":[22.41388,43.33448]},{"code":"YU/IS-029","program":"sota","name":"Velika Suligata","coordinates":[22.34367,43.30269]},{"code":"YU/IS-043","program":"sota","name":"Vrh","coordinates":[22.3977,43.3489]},{"code":"YU/IS-054","program":"sota","name":"Drenova glava","coordinates":[22.4863,43.37285]},{"code":"YU/IS-067","program":"sota","name":"Kumanovo","coordinates":[22.44665,43.37815]},{"code":"YU/IS-071","program":"sota","name":"Čukar","coordinates":[22.35685,43.43641]},{"code":"YU/IS-090","program":"sota","name":"Prisadnja","coordinates":[22.37553,43.4817]}]}