{"lat":43.25,"lon":21.75,"programs":["pota","sota"],"count":8,"references":[{"code":"RS-0134","program":"pota","name":"Cerjanska pećina Natural Monument","coordinates":[21.9398,43.43]},{"code":"RS-0142","program":"pota","name":"Kompleks pećina Samar Natural Monument","coordinates":[21.9761,43.4464]},{"code":"RS-0143","program":"pota","name":"Pecina Popšički pešter Natural Monument","coordinates":[21.9642,43.4561]},{"code":"RS-0201","program":"pota","name":"Bubanj Memorial Parkway","coordinates":[21.8726,43.3049]},{"code":"RS-0204","program":"pota","name":"Čegar Memorial Parkway","coordinates":[21.9427,43.3654]},{"code":"RS-0241","program":"pota","name":"Kamenički vis Nature Monument","coordinates":[21.9504,43.4012]},{"code":"RS-0259","program":"pota","name":"Niška tvrdjava State Historical Monument","coordinates":[21.8952,43.3254]},{"code":"YU/IS-069","program":"sota","name":"Kalafat","coordinates":[21.98504,43.39713]}]}