{"lat":43.25,"lon":-2.75,"programs":["gma","pota","sota"],"count":16,"references":[{"code":"EC/PV-009","program":"gma","name":"Galarregi","coordinates":[-2.57529998,43.33990097]},{"code":"ES-0230","program":"pota","name":"Urdaibai Natura 2000","coordinates":[-2.67469,43.3975]},{"code":"ES-1360","program":"pota","name":"Urdaibaiko ibai sarea / Red fluvial de Urdaibai Natura 2000","coordinates":[-2.6317,43.2858]},{"code":"ES-1361","program":"pota","name":"Urdaibaiko itsasertzak eta padurak / Zonas litorales y marismas de Urdaibai Natura 2000","coordinates":[-2.6768,43.3676]},{"code":"ES-1362","program":"pota","name":"Urdaibaiko artadi kantauriarrak / Encinares cantabricos de Urdaibai National Park","coordinates":[-2.6621,43.3816]},{"code":"ES-1363","program":"pota","name":"Lea ibaia / Rio Lea Natura 2000","coordinates":[-2.5124,43.3414]},{"code":"ES-2033","program":"pota","name":"Urdaibai Biosphere Reserve","coordinates":[-2.68887,43.3943]},{"code":"EA2/BI-029","program":"sota","name":"Illuntzar","coordinates":[-2.5672,43.3155]},{"code":"EA2/BI-031","program":"sota","name":"Urregarai","coordinates":[-2.5314,43.2787]},{"code":"EA2/BI-045","program":"sota","name":"Motrollo","coordinates":[-2.5754,43.2738]},{"code":"EA2/BI-049","program":"sota","name":"Bizkargi","coordinates":[-2.7351,43.2745]},{"code":"EA2/BI-053","program":"sota","name":"Arrola","coordinates":[-2.6022,43.3114]},{"code":"EA2/BI-057","program":"sota","name":"Ereñozar","coordinates":[-2.6367,43.3505]},{"code":"EA2/BI-059","program":"sota","name":"Otoio","coordinates":[-2.5293,43.3705]},{"code":"EA2/BI-068","program":"sota","name":"Ogoño","coordinates":[-2.6449,43.4087]},{"code":"EA2/BI-074","program":"sota","name":"Burretxagana","coordinates":[-2.6508,43.3765]}]}