{"lat":43.25,"lon":5.75,"programs":["pota","sota"],"count":17,"references":[{"code":"FR-4121","program":"pota","name":"Massif de la Sainte Baume Natura 2000","coordinates":[5.75306,43.34]},{"code":"FR-4824","program":"pota","name":"montagne du regagnas - pas de la couelle - mont olympe - mont aurelien Biological Reserve","coordinates":[5.76511,43.4335]},{"code":"FR-7037","program":"pota","name":"MOURRE D'AGNIS ET FORET DOMANIALE DE MAZAUGUE Biological Reserve","coordinates":[5.90491,43.3217]},{"code":"FR-13742","program":"pota","name":"MARE DE L'ETENDARD Biological Reserve","coordinates":[5.871,43.439]},{"code":"FR-13743","program":"pota","name":"LE CAURON ET SES AFFLUENTS Biological Reserve","coordinates":[5.879,43.428]},{"code":"FR-13744","program":"pota","name":"LAC DE TOURVES Biological Reserve","coordinates":[5.936,43.408]},{"code":"FR-13745","program":"pota","name":"GORGES DU CARAMY Biological Reserve","coordinates":[5.931,43.39]},{"code":"FR-13746","program":"pota","name":"RIPISYLVES ET ANNEXES DES VALLÉES DE L'ISSOLE ET DU CARAMY Biological Reserve","coordinates":[5.949,43.406]},{"code":"FR-13747","program":"pota","name":"FORETS DE VAUTRUITE ET DE SAINT-JULIEN - COLLINES DE TOURVES Biological Reserve","coordinates":[5.967,43.402]},{"code":"FR-13764","program":"pota","name":"CHAINE DE LA SAINTE-BAUME Biological Reserve","coordinates":[5.764,43.381]},{"code":"F/AM-578","program":"sota","name":"Croix des Béguines","coordinates":[5.7864,43.3337]},{"code":"F/AM-608","program":"sota","name":"Le Mourre d'Agnis","coordinates":[5.8695,43.3244]},{"code":"F/AM-613","program":"sota","name":"Mont Aurélien","coordinates":[5.7611,43.4451]},{"code":"F/AM-620","program":"sota","name":"Massif de la Loube","coordinates":[5.9921,43.3691]},{"code":"F/AM-635","program":"sota","name":"Les Friginiaires","coordinates":[5.9489,43.2514]},{"code":"F/AM-645","program":"sota","name":"Sainte Croix","coordinates":[5.7656,43.359]},{"code":"F/AM-664","program":"sota","name":"Coste Plane","coordinates":[5.9822,43.47]}]}