{"lat":43.25,"lon":12.25,"programs":["pota","sota"],"count":7,"references":[{"code":"IT-1100","program":"pota","name":"Fiume Tevere tra San Giustino e Pierantonio Natura 2000","coordinates":[12.2677,43.3629]},{"code":"IT-1172","program":"pota","name":"Boschi di Pietralunga Natura 2000","coordinates":[12.463,43.468]},{"code":"IT-1173","program":"pota","name":"Boschi di Monti di Sodolungo - Rosso (Città di Castello) Natura 2000","coordinates":[12.3667,43.4667]},{"code":"IT-1600","program":"pota","name":"Boschi di Montelovesco - Monte delle Portole Natura 2000","coordinates":[12.4458,43.2829]},{"code":"I/UM-066","program":"sota","name":"Monte Acuto","coordinates":[12.3068,43.2655]},{"code":"I/UM-072","program":"sota","name":"Il Monte","coordinates":[12.4918,43.2914]},{"code":"I/UM-084","program":"sota","name":"Monte Corona","coordinates":[12.3531,43.2647]}]}