{"lat":43.25,"lon":16.75,"programs":["pota","sota","wwbota"],"count":9,"references":[{"code":"HR-0297","program":"pota","name":"Rijeka Cetina - kanjonski dio Natura 2000","coordinates":[16.816,43.489]},{"code":"HR-0313","program":"pota","name":"U. Ramova; u. Krvavica Natura 2000","coordinates":[16.9926,43.3145]},{"code":"HR-0326","program":"pota","name":"Crni rat - o. Brač Natura 2000","coordinates":[16.819,43.349]},{"code":"9A/DH-003","program":"sota","name":"Sveti Ilija","coordinates":[16.997124,43.371487]},{"code":"9A/DH-036","program":"sota","name":"Lišnica","coordinates":[16.768301,43.46656]},{"code":"9A/DH-048","program":"sota","name":"Sidoč","coordinates":[16.990269,43.448414]},{"code":"9A/DH-052","program":"sota","name":"Kozji rat","coordinates":[16.830914,43.413757]},{"code":"B/9A-0118","program":"wwbota","name":"Radio Reley Kuk 1","coordinates":[16.87397,43.410626]},{"code":"B/9A-0119","program":"wwbota","name":"Radio Reley Kuk 0","coordinates":[16.935815,43.385586]}]}