{"lat":43.25,"lon":27,"programs":["gma","pota","sota"],"count":13,"references":[{"code":"LZM/AP-002","program":"gma","name":"Pekiolu","coordinates":[27.152613,43.277629]},{"code":"LZM/AP-008","program":"gma","name":"Mogilata","coordinates":[27.18031,43.282053]},{"code":"LZM/AP-011","program":"gma","name":"Gudzhatorat","coordinates":[27.139817,43.263322]},{"code":"LZM/AP-013","program":"gma","name":"Zanoga","coordinates":[27.174884,43.255302]},{"code":"LZM/AP-014","program":"gma","name":"Visokata polyana","coordinates":[27.217526,43.254714]},{"code":"LZM/AP-015","program":"gma","name":"Ravnishteto","coordinates":[27.160335,43.259418]},{"code":"LZM/NE-006","program":"gma","name":"Tepedyuzyu","coordinates":[27.087126,43.448018]},{"code":"LZM/NE-007","program":"gma","name":"Kodjayuk","coordinates":[27.048337,43.447693]},{"code":"LZM/NE-008","program":"gma","name":"Sarchala","coordinates":[27.016033,43.463626]},{"code":"LZM/NE-021","program":"gma","name":"Dyuzorman","coordinates":[27.24415,43.372507]},{"code":"BG-0098","program":"pota","name":"Pliska National Historic Site","coordinates":[27.1311,43.3878]},{"code":"LZ/EB-060","program":"sota","name":"Dvete mogili","coordinates":[27.1271,43.2821]},{"code":"LZ/EB-063","program":"sota","name":"Saraite","coordinates":[27.2423,43.282]}]}