{"lat":43.25,"lon":-1.5,"programs":["gma","pota","sota"],"count":25,"references":[{"code":"FA/PO-049","program":"gma","name":"Esteinumendi","coordinates":[-1.34169996,43.29579926]},{"code":"FA/PO-050","program":"gma","name":"Chuiko Mendi","coordinates":[-1.33389997,43.36500168]},{"code":"FR-2563","program":"pota","name":"LA NIVE FR7200786 Natura 2000","coordinates":[-1.37981,43.2642]},{"code":"FR-3732","program":"pota","name":"L ARDANAVY COURS D EAU FR7200787 Natura 2000","coordinates":[-1.35267,43.4704]},{"code":"FR-3733","program":"pota","name":"LA JOYEUSE COURS D'EAU  FR7200788 Natura 2000","coordinates":[-1.30027,43.3354]},{"code":"FR-3734","program":"pota","name":"MASSIF DU MONDARRAIN ET DE L ARTZAMENDI FR7200759 Natura 2000","coordinates":[-1.42379,43.291]},{"code":"FR-4218","program":"pota","name":"L Ardanavy - cours d eau Natura 2000","coordinates":[-1.35267,43.4704]},{"code":"FR-4225","program":"pota","name":"Massif du Baygoura Natura 2000","coordinates":[-1.29716,43.2781]},{"code":"FR-8578","program":"pota","name":"RESEAU HYDROGRAPHIQUE DES NIVES Biological Reserve","coordinates":[-1.37064,43.3009]},{"code":"FR-8580","program":"pota","name":"MONT BAIGURA ET CRETE D'HALTZAMENDI Biological Reserve","coordinates":[-1.2895,43.2822]},{"code":"FR-8582","program":"pota","name":"MASSIF DU BAIGURA Biological Reserve","coordinates":[-1.30383,43.2829]},{"code":"FR-8583","program":"pota","name":"LANDES DU MONT URSUYA Biological Reserve","coordinates":[-1.3419,43.3475]},{"code":"FR-8584","program":"pota","name":"Crete d'Iparla et Artzamendi Biological Reserve","coordinates":[-1.38459,43.2651]},{"code":"FR-8585","program":"pota","name":"BOIS ET LANDES DE FALDARACON-EGURALDE ET D'HASPARREN Biological Reserve","coordinates":[-1.36071,43.4207]},{"code":"FR-8586","program":"pota","name":"BARTHES DE QUARTIER-BAS Biological Reserve","coordinates":[-1.47067,43.4686]},{"code":"FR-8587","program":"pota","name":"RESEAU HYDROGRAPHIQUE ET VALLEE DE L'ARDANAVY Biological Reserve","coordinates":[-1.3561,43.4533]},{"code":"FR-8588","program":"pota","name":"RESEAU HYDROGRAPHIQUE ET VALLEE DE LA JOYEUSE Biological Reserve","coordinates":[-1.2708,43.4299]},{"code":"F/PO-213","program":"sota","name":"Mont Baïgoura","coordinates":[-1.2929,43.2904]},{"code":"F/PO-230","program":"sota","name":"Pic du Mondarrain","coordinates":[-1.4322,43.3018]},{"code":"F/PO-243","program":"sota","name":"Soporro","coordinates":[-1.4588,43.3006]},{"code":"F/PO-247","program":"sota","name":"Ihisu","coordinates":[-1.3396,43.2775]},{"code":"F/PO-251","program":"sota","name":"Mont Arrokagaray","coordinates":[-1.3892,43.3175]},{"code":"F/PO-264","program":"sota","name":"Mont Ursuya","coordinates":[-1.3339,43.3437]},{"code":"F/PO-265","program":"sota","name":"Gakoeta","coordinates":[-1.3741,43.2844]},{"code":"F/PO-289","program":"sota","name":"Artzamendi","coordinates":[-1.4075,43.2833]}]}