{"lat":43.25,"lon":22,"programs":["pota","sota"],"count":12,"references":[{"code":"RS-0005","program":"pota","name":"Sićevačka Klisura Nature Park","coordinates":[22.1215,43.3235]},{"code":"RS-0024","program":"pota","name":"Jelašnička klisura Nature Reserve","coordinates":[22.0664,43.2808]},{"code":"RS-0160","program":"pota","name":"Krupačko vrelo Natural Monument","coordinates":[22.2236,43.2988]},{"code":"RS-0167","program":"pota","name":"Prekonoška pećina Natural Monument","coordinates":[22.1021,43.3801]},{"code":"RS-0168","program":"pota","name":"Pećina Ravna peć Natural Monument","coordinates":[22.0982,43.384]},{"code":"YU/IS-018","program":"sota","name":"Pleš","coordinates":[22.16495,43.35403]},{"code":"YU/IS-076","program":"sota","name":"Bogdanica","coordinates":[22.12799,43.47491]},{"code":"YU/IS-084","program":"sota","name":"Visoka stena","coordinates":[22.05464,43.46076]},{"code":"YU/JS-086","program":"sota","name":"Oblik","coordinates":[22.14506,43.32236]},{"code":"YU/JS-091","program":"sota","name":"Presklan","coordinates":[22.03298,43.26666]},{"code":"YU/JS-093","program":"sota","name":"Vis (Kusača)","coordinates":[22.07955,43.32413]},{"code":"YU/JS-095","program":"sota","name":"Kunovički vrh","coordinates":[22.10932,43.29878]}]}