{"lat":43.25,"lon":-8.5,"programs":["pota","sota","wwbota"],"count":7,"references":[{"code":"ES-1139","program":"pota","name":"Encoro de Abegondo - Cecebre Natura 2000","coordinates":[-8.2628,43.2715]},{"code":"ES-1144","program":"pota","name":"Costa de Dexo Natura 2000","coordinates":[-8.3275,43.3991]},{"code":"ES-2178","program":"pota","name":"Tower of Hercules World Heritage Site","coordinates":[-8.4065,43.3861]},{"code":"EA1/CR-038","program":"sota","name":"Bailadora","coordinates":[-8.28519,43.45145]},{"code":"EA1/CR-047","program":"sota","name":"Monte das Arcas","coordinates":[-8.42731,43.30576]},{"code":"B/EA-0036","program":"wwbota","name":"Batería del Monte San Pedro","coordinates":[-8.437249,43.378383]},{"code":"B/EA-0037","program":"wwbota","name":"Parque de Montecaño","coordinates":[-8.470183,43.344555]}]}