{"lat":43.25,"lon":-8.25,"programs":["pota","sota"],"count":7,"references":[{"code":"ES-0195","program":"pota","name":"Fragas del Eume Nature Park","coordinates":[-8.12856,43.4299]},{"code":"ES-1142","program":"pota","name":"Betanzos - Mandeo Natura 2000","coordinates":[-8.1173,43.2519]},{"code":"ES-1148","program":"pota","name":"Xubia - Castro Natura 2000","coordinates":[-8.0241,43.4797]},{"code":"ES-1849","program":"pota","name":"Camino de Santiago-Inglés National Recreation Trail","coordinates":[-8.24391,43.4793]},{"code":"EA1/CR-002","program":"sota","name":"Pendella","coordinates":[-8.00116,43.33307]},{"code":"EA1/CR-018","program":"sota","name":"Monte do Oural","coordinates":[-8.07379,43.29387]},{"code":"EA1/CR-035","program":"sota","name":"Bréamo","coordinates":[-8.18352,43.39929]}]}