{"lat":43.25,"lon":-124.5,"programs":["pota","sota"],"count":7,"references":[{"code":"US-2817","program":"pota","name":"Cape Arago State Park","coordinates":[-124.399,43.3063]},{"code":"US-2851","program":"pota","name":"Shore Acres State Park","coordinates":[-124.385,43.3232]},{"code":"US-2856","program":"pota","name":"Sunset Bay State Park","coordinates":[-124.373,43.3306]},{"code":"US-12510","program":"pota","name":"South Slough Reserve State Park Preserve","coordinates":[-124.335,43.2955]},{"code":"US-12843","program":"pota","name":"The North Spit BLM Recreation Management Area","coordinates":[-124.28,43.4163]},{"code":"US-12844","program":"pota","name":"Bastendorff Beach BLM Recreation Management Area","coordinates":[-124.346,43.3469]},{"code":"W7O/SC-382","program":"sota","name":"740","coordinates":[-124.2538,43.2551]}]}