{"lat":43.25,"lon":-114.5,"programs":["pota","sota"],"count":9,"references":[{"code":"US-7821","program":"pota","name":"Magic Reservoir Airstrip State Recreation Area","coordinates":[-114.396,43.2807]},{"code":"US-11251","program":"pota","name":"Magic Reservoir BLM Recreation Management Area","coordinates":[-114.378,43.2888]},{"code":"W7I/BL-077","program":"sota","name":"Kelly Mountain","coordinates":[-114.467,43.4924]},{"code":"W7I/BL-124","program":"sota","name":"7174","coordinates":[-114.3343,43.4553]},{"code":"W7I/BL-135","program":"sota","name":"6629","coordinates":[-114.3397,43.4154]},{"code":"W7I/BL-138","program":"sota","name":"6492","coordinates":[-114.419,43.4553]},{"code":"W7I/BL-142","program":"sota","name":"6186","coordinates":[-114.3876,43.4535]},{"code":"W7I/BL-144","program":"sota","name":"Timmerman Hills","coordinates":[-114.2552,43.313]},{"code":"W7I/BL-147","program":"sota","name":"Mabelle Hill","coordinates":[-114.2975,43.3853]}]}