{"lat":43.25,"lon":20.75,"programs":["pota","sota"],"count":9,"references":[{"code":"RS-0003","program":"pota","name":"Kopaonik National Park","coordinates":[20.8099,43.287]},{"code":"RS-0109","program":"pota","name":"Željin - Pločka čuka Nature Reserve","coordinates":[20.805,43.4755]},{"code":"YU/CS-001","program":"sota","name":"Pančićev vrh","coordinates":[20.82346,43.26932]},{"code":"YU/CS-002","program":"sota","name":"Rogavska čuka","coordinates":[20.80499,43.47877]},{"code":"YU/CS-006","program":"sota","name":"Palež","coordinates":[20.90473,43.34932]},{"code":"YU/CS-008","program":"sota","name":"Ogledna","coordinates":[20.93404,43.30566]},{"code":"YU/CS-010","program":"sota","name":"Nerađe","coordinates":[20.90427,43.43462]},{"code":"YU/CS-011","program":"sota","name":"Jastrebac","coordinates":[20.8899,43.2934]},{"code":"YU/CS-012","program":"sota","name":"Banjska stena","coordinates":[20.77903,43.40995]}]}