{"lat":43.25,"lon":-1.75,"programs":["gma","pota","sota","wwbota"],"count":24,"references":[{"code":"EC/NV-001","program":"gma","name":"Ibantelli","coordinates":[-1.61919999,43.27259827]},{"code":"FA/PO-042","program":"gma","name":"La Rhune","coordinates":[-1.6336,43.30860138]},{"code":"FA/PO-043","program":"gma","name":"Pena Plata","coordinates":[-1.57029998,43.25690079]},{"code":"FA/PO-048","program":"gma","name":"Pointe de Mandale","coordinates":[-1.70220006,43.31000137]},{"code":"FR-2562","program":"pota","name":"Falaises de Saint Jean de Luz FR7200776 Natura 2000","coordinates":[-1.60827,43.4405]},{"code":"FR-2565","program":"pota","name":"ESTUAIRE DE LA BIDASSOA FR7212013 Natura 2000","coordinates":[-1.70656,43.4129]},{"code":"FR-2566","program":"pota","name":"LA NIVELLE FR7200785 Natura 2000","coordinates":[-1.64167,43.3708]},{"code":"FR-2567","program":"pota","name":"MASSIF DE LA RHUNE FR7200760 National Park","coordinates":[-1.62028,43.3167]},{"code":"FR-3727","program":"pota","name":"COTE BASQUE ROCHEUSE ET EXTENSION AU LARGE  FR7200813 Natura 2000","coordinates":[-1.63958,43.4569]},{"code":"FR-3728","program":"pota","name":"DOMAINE D ABBADIA ET CORNICHE BASQUE  FR7200775 Natura 2000","coordinates":[-1.72019,43.3883]},{"code":"FR-3729","program":"pota","name":"COL DE LIZARRIETA  FR7212011 Natura 2000","coordinates":[-1.59541,43.2668]},{"code":"FR-3730","program":"pota","name":"LAC DE MOURISCOT  FR7200777 Natura 2000","coordinates":[-1.5615,43.4557]},{"code":"FR-3731","program":"pota","name":"ROCHERS DE BIARRITZ LE BOUCCALOT ET LA ROCHE RONDE  FR7212002 Natura 2000","coordinates":[-1.56553,43.4905]},{"code":"FR-8764","program":"pota","name":"Massif de la Rhune et de Choldocogagna Biological Reserve","coordinates":[-1.62028,43.3167]},{"code":"FR-8765","program":"pota","name":"MONT CHOLDOKOGAGNA, LARRUN ET FOND DU BASSIN DE SARE Biological Reserve","coordinates":[-1.63983,43.3108]},{"code":"FR-8766","program":"pota","name":"Zones tourbeuses, landes et pelouses, du mont Xoldokocana au col d'Ibardin Biological Reserve","coordinates":[-1.70806,43.3196]},{"code":"ES-0254","program":"pota","name":"Labiaga Nature Reserve","coordinates":[-1.63303,43.2685]},{"code":"EA2/NV-118","program":"sota","name":"Larrun","coordinates":[-1.6356,43.309]},{"code":"EA2/NV-146","program":"sota","name":"Arxuria","coordinates":[-1.5696,43.2557]},{"code":"EA2/NV-162","program":"sota","name":"Manttale","coordinates":[-1.7034,43.3091]},{"code":"F/PO-235","program":"sota","name":"Ibanteli","coordinates":[-1.62,43.2717]},{"code":"F/PO-245","program":"sota","name":"Xoldoko Gaina","coordinates":[-1.7219,43.3258]},{"code":"B/F-6860","program":"wwbota","name":"Biarritz","coordinates":[-1.569818,43.470644]},{"code":"B/F-6861","program":"wwbota","name":"Saint-Jean-de-Luz","coordinates":[-1.661509,43.40133]}]}