{"lat":43.25,"lon":-75.25,"programs":["pota"],"count":5,"references":[{"code":"US-5059","program":"pota","name":"Hinckley State Forest","coordinates":[-75.0934,43.2895]},{"code":"US-5263","program":"pota","name":"Punkeyville State Forest","coordinates":[-75.2084,43.4519]},{"code":"US-5379","program":"pota","name":"Woodhull State Forest","coordinates":[-75.1633,43.4781]},{"code":"US-9141","program":"pota","name":"Hogsback (Oneida County) State Forest","coordinates":[-75.2194,43.4984]},{"code":"US-11790","program":"pota","name":"Steuben Memorial State Historic Site","coordinates":[-75.2329,43.3352]}]}