{"lat":43.25,"lon":0.5,"programs":["pota"],"count":15,"references":[{"code":"FR-3820","program":"pota","name":"COTES DE BIEIL ET DE MONTOUSSE FR7300887 Natura 2000","coordinates":[0.64333,43.3019]},{"code":"FR-2690","program":"pota","name":"VALLEE ET COTEAUX DE LA LAUZE FR7300897 Natura 2000","coordinates":[0.69733,43.4555]},{"code":"FR-3983","program":"pota","name":"Cotes de Bieil et de Montousse Natura 2000","coordinates":[0.64333,43.3019]},{"code":"FR-12558","program":"pota","name":"Cotes de Bieil et Montousse et queue du barrage de la Gimone Biological Reserve","coordinates":[0.668,43.327]},{"code":"FR-12559","program":"pota","name":"Bosquets de Lalanne-Arque Biological Reserve","coordinates":[0.645,43.339]},{"code":"FR-12560","program":"pota","name":"Bois de Saint-Blancard et mosaique de milieux adjacents Biological Reserve","coordinates":[0.674,43.358]},{"code":"FR-12561","program":"pota","name":"Plan d'eau de l'Astarac et coteau de l'Arrats Biological Reserve","coordinates":[0.631,43.383]},{"code":"FR-12562","program":"pota","name":"Coteaux de la Gimone a Monbardon Biological Reserve","coordinates":[0.726,43.385]},{"code":"FR-12563","program":"pota","name":"Prairies humides de la Gimone a Gaujan et Monbardon Biological Reserve","coordinates":[0.73,43.395]},{"code":"FR-12564","program":"pota","name":"Coteaux de Masseube Biological Reserve","coordinates":[0.595,43.429]},{"code":"FR-12565","program":"pota","name":"Coteaux de la Lauze Biological Reserve","coordinates":[0.717,43.472]},{"code":"FR-12566","program":"pota","name":"Unite bocagere entre la Lauze et l'Arrats Biological Reserve","coordinates":[0.7,43.474]},{"code":"FR-12603","program":"pota","name":"Bois de Samaran Biological Reserve","coordinates":[0.517,43.395]},{"code":"FR-12604","program":"pota","name":"Bois de Cassoulets Biological Reserve","coordinates":[0.543,43.39]},{"code":"FR-12605","program":"pota","name":"Bois et landes des Argudes, Techene et les Lannes Biological Reserve","coordinates":[0.527,43.332]}]}