{"lat":43.25,"lon":27.75,"programs":["gma","pota"],"count":5,"references":[{"code":"LZM/NE-043","program":"gma","name":"Kurudere","coordinates":[27.953046,43.279599]},{"code":"LZM/NE-048","program":"gma","name":"Karchalska","coordinates":[27.760944,43.339663]},{"code":"LZM/NE-135","program":"gma","name":"Piramidata","coordinates":[27.804079,43.344624]},{"code":"LZM/NE-146","program":"gma","name":"Kaleto","coordinates":[27.820879,43.278216]},{"code":"BG-0117","program":"pota","name":"Dolinata na reka Batova Habitat Protection Area","coordinates":[27.9686,43.4064]}]}