{"lat":43.25,"lon":141.5,"programs":["gma","sota"],"count":7,"references":[{"code":"XJA8/IS-020","program":"gma","name":"Betsukaridake","coordinates":[141.5556,43.474]},{"code":"JA8/IS-025","program":"sota","name":"Nibangawaoku","coordinates":[141.6681,43.4595]},{"code":"JA8/IS-031","program":"sota","name":"Asoiwayama","coordinates":[141.5207,43.3079]},{"code":"JA8/IS-034","program":"sota","name":"Nakagoya2","coordinates":[141.5816,43.301]},{"code":"JA8/IS-039","program":"sota","name":"Near Betsukaridake","coordinates":[141.5559,43.48]},{"code":"JA8/SC-007","program":"sota","name":"Pinneshiri","coordinates":[141.7067,43.4918]},{"code":"JA8/SC-012","program":"sota","name":"Kumaneshiriyama","coordinates":[141.7219,43.4595]}]}