{"lat":43.25,"lon":-115.75,"programs":["pota","sota"],"count":10,"references":[{"code":"US-7831","program":"pota","name":"Smith Prairie Airstrip State Recreation Area","coordinates":[-115.547,43.4984]},{"code":"US-11389","program":"pota","name":"Long Tom Reservoir State Fishing Lake","coordinates":[-115.569,43.2894]},{"code":"W7I/SR-091","program":"sota","name":"Danskin Peak","coordinates":[-115.6587,43.413]},{"code":"W7I/SR-095","program":"sota","name":"6591","coordinates":[-115.5217,43.4026]},{"code":"W7I/SR-123","program":"sota","name":"Devil's Hole Peak","coordinates":[-115.6804,43.4443]},{"code":"W7I/SR-127","program":"sota","name":"Little Fiddler","coordinates":[-115.7206,43.4834]},{"code":"W7I/SR-132","program":"sota","name":"Don Benchmark","coordinates":[-115.5111,43.2814]},{"code":"W7I/SR-133","program":"sota","name":"Long Tom Benchmark","coordinates":[-115.6373,43.3127]},{"code":"W7I/SR-135","program":"sota","name":"5580","coordinates":[-115.5558,43.3375]},{"code":"W7I/SR-151","program":"sota","name":"5235","coordinates":[-115.5677,43.388]}]}