{"lat":43.25,"lon":-121.75,"programs":["pota","sota"],"count":5,"references":[{"code":"US-5458","program":"pota","name":"Gilchrist State Forest","coordinates":[-121.681,43.472]},{"code":"W7O/CE-030","program":"sota","name":"Walker Mountain","coordinates":[-121.7169,43.3052]},{"code":"W7O/CE-066","program":"sota","name":"Marmot Butte","coordinates":[-121.6896,43.3384]},{"code":"W7O/CE-093","program":"sota","name":"Skookum Butte","coordinates":[-121.6563,43.2534]},{"code":"W7O/CE-170","program":"sota","name":"Crescent Butte","coordinates":[-121.6681,43.4629]}]}