{"lat":43.25,"lon":2.75,"programs":["pota","sota"],"count":25,"references":[{"code":"FR-1066","program":"pota","name":"Haut-Languedoc Regional Park","coordinates":[2.76056,43.4908]},{"code":"FR-3479","program":"pota","name":"LES CAUSSES DU MINERVOIS  FR9101444 Natura 2000","coordinates":[2.87972,43.3506]},{"code":"FR-3480","program":"pota","name":"MINERVOIS  FR9112003 Natura 2000","coordinates":[2.83528,43.3836]},{"code":"FR-3487","program":"pota","name":"GROTTE DE LA SOURCE DU JAUR  FR9101429 Natura 2000","coordinates":[2.75694,43.4847]},{"code":"FR-5785","program":"pota","name":"Maquis de St-Chinian Biological Reserve","coordinates":[2.934,43.4362]},{"code":"FR-5786","program":"pota","name":"Montagne noire centrale Biological Reserve","coordinates":[2.82646,43.4629]},{"code":"FR-5788","program":"pota","name":"Grotte de la source du Jaur Biological Reserve","coordinates":[2.75715,43.4844]},{"code":"FR-7945","program":"pota","name":"Gorges d'Aymes et de la Cesse Biological Reserve","coordinates":[2.87996,43.3502]},{"code":"FR-7953","program":"pota","name":"Coteau de Belveze Biological Reserve","coordinates":[2.86096,43.3013]},{"code":"FR-7965","program":"pota","name":"Coteaux marneux de Pech Laurier Biological Reserve","coordinates":[2.76638,43.2537]},{"code":"FR-9543","program":"pota","name":"Bois de Rabaniege Biological Reserve","coordinates":[2.83703,43.4624]},{"code":"FR-9567","program":"pota","name":"Serre d'Oupia Biological Reserve","coordinates":[2.79456,43.2912]},{"code":"FR-9568","program":"pota","name":"Pelouses du col de Landure Biological Reserve","coordinates":[2.857,43.317]},{"code":"FR-9569","program":"pota","name":"Plaine agricole d'Ouveillan Biological Reserve","coordinates":[2.96501,43.3005]},{"code":"FR-9578","program":"pota","name":"Vignes du Minervois Biological Reserve","coordinates":[2.96425,43.388]},{"code":"FR-10124","program":"pota","name":"Saint Jean De Minervois Biological Reserve","coordinates":[2.86417,43.3911]},{"code":"FR-11777","program":"pota","name":"Etang d'Ouveillan Biological Reserve","coordinates":[2.974,43.285]},{"code":"FR-11792","program":"pota","name":"Bois de Seriege Biological Reserve","coordinates":[2.956,43.34]},{"code":"FR-12988","program":"pota","name":"Gorges de la Cessiere et du Brahunal Biological Reserve","coordinates":[2.824,43.385]},{"code":"FR-12989","program":"pota","name":"Gorges de Barroubio Biological Reserve","coordinates":[2.863,43.398]},{"code":"FR-12990","program":"pota","name":"Pelouses et garrigues de Coulouma Biological Reserve","coordinates":[2.833,43.437]},{"code":"F/PE-241","program":"sota","name":"Avant Monts","coordinates":[2.8047,43.4519]},{"code":"F/PE-257","program":"sota","name":"Sommet des Avant-Monts","coordinates":[2.8277,43.4782]},{"code":"F/PE-383","program":"sota","name":"Calisso","coordinates":[2.99,43.4942]},{"code":"F/PE-387","program":"sota","name":"Mont Ségonne","coordinates":[2.7875,43.2917]}]}