{"lat":43.25,"lon":-2.5,"programs":["gma","iota","pota","sota"],"count":10,"references":[{"code":"EC/PV-013","program":"gma","name":"Tontorramendi","coordinates":[-2.42810011,43.3091011]},{"code":"EU-134","program":"iota","name":"BILBAO / SAN SEBASTIAN","coordinates":[-2.475000025,43.39999962]},{"code":"ES-1343","program":"pota","name":"Arno Natura 2000","coordinates":[-2.3968,43.2777]},{"code":"ES-1364","program":"pota","name":"Artibai ibaia / Rio Artibai Natura 2000","coordinates":[-2.4759,43.3023]},{"code":"ES-1960","program":"pota","name":"Geoparque de la Costa Vasca Geopark","coordinates":[-2.32002,43.2964]},{"code":"EA2/BI-058","program":"sota","name":"Ituiñomendi","coordinates":[-2.4983,43.2984]},{"code":"EA2/BI-075","program":"sota","name":"Kalamendi","coordinates":[-2.4669,43.3203]},{"code":"EA2/SS-039","program":"sota","name":"Kanpantzar","coordinates":[-2.3957,43.2705]},{"code":"EA2/SS-041","program":"sota","name":"Andutz","coordinates":[-2.3208,43.2661]},{"code":"EA2/SS-050","program":"sota","name":"Lizarreta","coordinates":[-2.3431,43.2645]}]}