{"lat":43.25,"lon":-72.25,"programs":["pota","sota"],"count":9,"references":[{"code":"US-0449","program":"pota","name":"John Hay National Wildlife Refuge","coordinates":[-72.0408,43.3516]},{"code":"US-2666","program":"pota","name":"Mount Sunapee State Park","coordinates":[-72.0618,43.3429]},{"code":"US-4905","program":"pota","name":"Gile State Forest","coordinates":[-72.0075,43.4846]},{"code":"W1/HA-016","program":"sota","name":"Croydon Peak","coordinates":[-72.2192,43.4819]},{"code":"W1/HA-025","program":"sota","name":"Sunapee Mountain HP","coordinates":[-72.0742,43.3136]},{"code":"W1/HA-076","program":"sota","name":"Bly Hill","coordinates":[-72.0167,43.3367]},{"code":"W1/HA-101","program":"sota","name":"Pt. 2011, 0.8 mi. SW of Wilcox Hill","coordinates":[-72.2303,43.3217]},{"code":"W1/HA-137","program":"sota","name":"Bald Sunapee","coordinates":[-72.0314,43.2856]},{"code":"W1/HA-185","program":"sota","name":"Baltimore Hill","coordinates":[-72.1525,43.4206]}]}