{"lat":43.5,"lon":-110,"programs":["sota"],"count":5,"references":[{"code":"W7Y/FT-097","program":"sota","name":"Pinnacle Buttes HP","coordinates":[-109.9574,43.7484]},{"code":"W7Y/FT-122","program":"sota","name":"Pinnacle Butte South","coordinates":[-109.9447,43.7368]},{"code":"W7Y/FT-135","program":"sota","name":"Fish Lake Mountain","coordinates":[-109.9644,43.5491]},{"code":"W7Y/FT-141","program":"sota","name":"Warm Spring Mountain","coordinates":[-109.7912,43.5571]},{"code":"W7Y/FT-153","program":"sota","name":"Elk Ridge","coordinates":[-109.8938,43.6394]}]}