{"lat":43.5,"lon":20.25,"programs":["sota"],"count":5,"references":[{"code":"YU/ZS-014","program":"sota","name":"Smrdljuč","coordinates":[20.42566,43.5826]},{"code":"YU/ZS-048","program":"sota","name":"Stojkovačka planina","coordinates":[20.37258,43.53443]},{"code":"YU/ZS-088","program":"sota","name":"Kom","coordinates":[20.48687,43.64073]},{"code":"YU/ZS-118","program":"sota","name":"Teprč","coordinates":[20.2649,43.58515]},{"code":"YU/ZS-151","program":"sota","name":"Turčinac","coordinates":[20.4213,43.54744]}]}