{"lat":43.5,"lon":1.5,"programs":["pota"],"count":5,"references":[{"code":"FR-4466","program":"pota","name":"Biotope Des Prairies a Orchis Lacte Biological Reserve","coordinates":[1.521,43.595]},{"code":"FR-4473","program":"pota","name":"Gisement fossilifere rupelien de Castelmaurou Biological Reserve","coordinates":[1.53247,43.6773]},{"code":"FR-5992","program":"pota","name":"Prairies humides des bords de la Saune Biological Reserve","coordinates":[1.5612,43.5683]},{"code":"FR-5993","program":"pota","name":"Bois et ruisseau du Grand Port de Mer Biological Reserve","coordinates":[1.54357,43.5907]},{"code":"FR-5995","program":"pota","name":"Marais de Beaupuy et prairies humides de la Sausse Biological Reserve","coordinates":[1.57477,43.6395]}]}