{"lat":43.5,"lon":-121,"programs":["pota","sota"],"count":7,"references":[{"code":"US-10026","program":"pota","name":"Devils Garden Lava Bed Wilderness Area","coordinates":[-120.866,43.5228]},{"code":"W7O/CE-078","program":"sota","name":"Quartz Mountain","coordinates":[-120.8994,43.6292]},{"code":"W7O/CE-091","program":"sota","name":"Fox Butte","coordinates":[-120.8428,43.6106]},{"code":"W7O/CE-113","program":"sota","name":"Long Butte","coordinates":[-120.8362,43.5593]},{"code":"W7O/CE-131","program":"sota","name":"Poly Top Butte","coordinates":[-120.9818,43.6094]},{"code":"W7O/CE-136","program":"sota","name":"Firestone Butte","coordinates":[-120.9692,43.6405]},{"code":"W7O/CE-317","program":"sota","name":"East Butte","coordinates":[-120.9959,43.6672]}]}