{"lat":43.5,"lon":17.75,"programs":["gma","pota","sota"],"count":29,"references":[{"code":"E7/BO-167","program":"gma","name":"Stigalj","coordinates":[17.8437,43.6356]},{"code":"E7/BO-190","program":"gma","name":"SnjeÅ¾nica","coordinates":[17.9572,43.7308]},{"code":"E7/BO-224","program":"gma","name":"Jasle","coordinates":[17.7689,43.7248]},{"code":"E7/BO-346","program":"gma","name":"Bukove Glave","coordinates":[17.9933,43.6135]},{"code":"E7/BO-357","program":"gma","name":"Gradac","coordinates":[17.8149,43.6641]},{"code":"E7/BO-397","program":"gma","name":"Zlatar","coordinates":[17.9871,43.6548]},{"code":"BA-0059","program":"pota","name":"Stari most Konjic National Monument","coordinates":[17.9627,43.6512]},{"code":"BA-0131","program":"pota","name":"Arheološki spomenici National Monument","coordinates":[17.9606,43.6537]},{"code":"BA-0176","program":"pota","name":"Lokomotiva Ćiro Management Area","coordinates":[17.7616,43.6546]},{"code":"E7/BO-167","program":"sota","name":"Stigalj","coordinates":[17.8437,43.6356]},{"code":"E7/BO-190","program":"sota","name":"Snježnica","coordinates":[17.9572,43.7308]},{"code":"E7/BO-224","program":"sota","name":"Jasle","coordinates":[17.7689,43.7248]},{"code":"E7/BO-346","program":"sota","name":"Bukove Glave","coordinates":[17.9933,43.6135]},{"code":"E7/BO-357","program":"sota","name":"Gradac","coordinates":[17.8149,43.6641]},{"code":"E7/BO-397","program":"sota","name":"Zlatar","coordinates":[17.9871,43.6548]},{"code":"E7/HA-055","program":"sota","name":"Zelena Glava","coordinates":[17.9043,43.549]},{"code":"E7/HA-056","program":"sota","name":"Lupoglav","coordinates":[17.8568,43.5429]},{"code":"E7/HA-059","program":"sota","name":"Osobac","coordinates":[17.94,43.549]},{"code":"E7/HA-060","program":"sota","name":"Ovča","coordinates":[17.858,43.5355]},{"code":"E7/HA-061","program":"sota","name":"Velika Kapa","coordinates":[17.9061,43.5782]},{"code":"E7/HA-062","program":"sota","name":"Cetina","coordinates":[17.8315,43.5975]},{"code":"E7/HA-064","program":"sota","name":"Sivadija","coordinates":[17.9497,43.52]},{"code":"E7/HA-066","program":"sota","name":"Veliki Kapljuć","coordinates":[17.8876,43.5285]},{"code":"E7/HA-067","program":"sota","name":"Plavac","coordinates":[17.9245,43.5074]},{"code":"E7/HA-068","program":"sota","name":"Zubci","coordinates":[17.9489,43.5593]},{"code":"E7/HA-072","program":"sota","name":"Kantar","coordinates":[17.8743,43.5704]},{"code":"E7/HA-075","program":"sota","name":"Visin","coordinates":[17.9943,43.5117]},{"code":"E7/HA-105","program":"sota","name":"Velika Vidova","coordinates":[17.7587,43.5714]},{"code":"E7/HA-115","program":"sota","name":"Jasenjanski Gvozd","coordinates":[17.7825,43.532]}]}