{"lat":43.5,"lon":-111,"programs":["pota","sota"],"count":25,"references":[{"code":"US-0613","program":"pota","name":"National Elk National Wildlife Refuge","coordinates":[-110.753,43.6351]},{"code":"W7Y/TT-001","program":"sota","name":"Grand Teton","coordinates":[-110.8024,43.7412]},{"code":"W7Y/TT-002","program":"sota","name":"Owen, Mount","coordinates":[-110.7973,43.7469]},{"code":"W7Y/TT-003","program":"sota","name":"Middle Teton","coordinates":[-110.8113,43.7298]},{"code":"W7Y/TT-005","program":"sota","name":"South Teton","coordinates":[-110.8185,43.7187]},{"code":"W7Y/TT-006","program":"sota","name":"Teewinot Mountain","coordinates":[-110.7799,43.7472]},{"code":"W7Y/TT-007","program":"sota","name":"Buck Mountain","coordinates":[-110.8203,43.6892]},{"code":"W7Y/TT-008","program":"sota","name":"Nez Perce","coordinates":[-110.7975,43.7193]},{"code":"W7Y/TT-012","program":"sota","name":"Wister, Mount","coordinates":[-110.8167,43.7017]},{"code":"W7Y/TT-019","program":"sota","name":"Prospectors Mountain","coordinates":[-110.8494,43.6492]},{"code":"W7Y/TT-027","program":"sota","name":"Table Mountain","coordinates":[-110.8517,43.7467]},{"code":"W7Y/TT-029","program":"sota","name":"11094","coordinates":[-110.8365,43.684]},{"code":"W7Y/TT-032","program":"sota","name":"Bannon, Mount","coordinates":[-110.9052,43.6721]},{"code":"W7Y/TT-035","program":"sota","name":"Rendezvous Peak","coordinates":[-110.9048,43.5672]},{"code":"W7Y/TT-038","program":"sota","name":"Fossil Mountain","coordinates":[-110.9186,43.6535]},{"code":"W7Y/TT-045","program":"sota","name":"Hunt, Mount","coordinates":[-110.8613,43.6307]},{"code":"W7Y/TT-047","program":"sota","name":"Meek, Mount","coordinates":[-110.8824,43.6856]},{"code":"W7Y/TT-051","program":"sota","name":"10643","coordinates":[-110.9162,43.7086]},{"code":"W7Y/TT-054","program":"sota","name":"Housetop Mountain","coordinates":[-110.947,43.6243]},{"code":"W7Y/TT-061","program":"sota","name":"10450","coordinates":[-110.8713,43.5973]},{"code":"W7Y/TT-063","program":"sota","name":"Taylor Mountain","coordinates":[-110.9808,43.531]},{"code":"W7Y/TT-078","program":"sota","name":"Glory, Mount","coordinates":[-110.9498,43.5071]},{"code":"W7Y/TT-094","program":"sota","name":"9814","coordinates":[-110.9169,43.6118]},{"code":"W7Y/TT-171","program":"sota","name":"West Gros Ventre Butte","coordinates":[-110.7998,43.5365]},{"code":"W7Y/TT-181","program":"sota","name":"7155","coordinates":[-110.7587,43.5141]}]}