{"lat":43.5,"lon":1,"programs":["pota"],"count":5,"references":[{"code":"FR-4472","program":"pota","name":"Haute terrasse quaternaire de la Garonne à Pujaudran National Ecological Reserve","coordinates":[1.144,43.586]},{"code":"FR-5749","program":"pota","name":"Garonne et milieux riverains, en aval de Montrejeau Biological Reserve","coordinates":[1.13832,43.6305]},{"code":"FR-5750","program":"pota","name":"La Garonne de Montrejeau jusqu'a Lamagistere Biological Reserve","coordinates":[1.1438,43.6882]},{"code":"FR-5988","program":"pota","name":"Foret de Bouconne Biological Reserve","coordinates":[1.21672,43.6351]},{"code":"FR-6007","program":"pota","name":"Bois des Arramous Biological Reserve","coordinates":[1.16344,43.5777]}]}