{"lat":43.5,"lon":4.25,"programs":["pota"],"count":10,"references":[{"code":"FR-3304","program":"pota","name":"PETITE CAMARGUE  FR9101406 Natura 2000","coordinates":[4.30778,43.6089]},{"code":"FR-3897","program":"pota","name":"Petite Camargue laguno-marine Natura 2000","coordinates":[4.25,43.5167]},{"code":"FR-4118","program":"pota","name":"Le petit rhone Natura 2000","coordinates":[4.43167,43.5856]},{"code":"FR-13018","program":"pota","name":"Costieres de Beauvoisin Biological Reserve","coordinates":[4.306,43.709]},{"code":"FR-13020","program":"pota","name":"Costieres de Generac Biological Reserve","coordinates":[4.386,43.741]},{"code":"FR-13021","program":"pota","name":"Puechs Lachet et de Dardaillon Biological Reserve","coordinates":[4.391,43.708]},{"code":"FR-4755","program":"pota","name":"marais du lairan Biological Reserve","coordinates":[4.28046,43.5437]},{"code":"FR-4760","program":"pota","name":"pinede du petit saint-jean Biological Reserve","coordinates":[4.28238,43.5755]},{"code":"FR-4761","program":"pota","name":"silve de montcalm Biological Reserve","coordinates":[4.30229,43.5826]},{"code":"FR-4772","program":"pota","name":"etangs du charnier et du scamandre Biological Reserve","coordinates":[4.32772,43.6246]}]}