{"lat":43.5,"lon":20.5,"programs":["pota","sota"],"count":7,"references":[{"code":"RS-0033","program":"pota","name":"Lojanik Nature Reserve","coordinates":[20.6174,43.6853]},{"code":"RS-0103","program":"pota","name":"Stolovi Area of Outstanding Natural Beauty","coordinates":[20.6196,43.6051]},{"code":"RS-0203","program":"pota","name":"Kraljevački oktobar Memorial Parkway","coordinates":[20.6918,43.7298]},{"code":"YU/CS-007","program":"sota","name":"Kamarište","coordinates":[20.6113,43.60918]},{"code":"YU/CS-009","program":"sota","name":"Kavgalija","coordinates":[20.67996,43.52566]},{"code":"YU/CS-020","program":"sota","name":"Čukar","coordinates":[20.67022,43.5746]},{"code":"YU/ZS-157","program":"sota","name":"Demeronja","coordinates":[20.56068,43.58823]}]}