{"lat":43.5,"lon":-6.25,"programs":["pota","wwbota"],"count":7,"references":[{"code":"ES-1379","program":"pota","name":"Rio Esqueiro Natura 2000","coordinates":[-6.2253,43.5644]},{"code":"ES-1396","program":"pota","name":"Turbera de Las Duenas Natura 2000","coordinates":[-6.1703,43.5617]},{"code":"ES-1406","program":"pota","name":"Cabo Busto-Luanco Natura 2000","coordinates":[-6.1276,43.5629]},{"code":"ES-2501","program":"pota","name":"Senda de los Miradores Coastal Park","coordinates":[-6.08165,43.5632]},{"code":"ES-2502","program":"pota","name":"Senda de las Trincheras Coastal & Marine Park","coordinates":[-6.06281,43.5666]},{"code":"ES-2503","program":"pota","name":"Senda del Agua State Trail","coordinates":[-6.07115,43.5293]},{"code":"B/EA-0005","program":"wwbota","name":"Línea del Nalón: Ranón","coordinates":[-6.065101,43.561067]}]}