{"lat":43.5,"lon":7.25,"programs":["pota","sota","wwbota"],"count":29,"references":[{"code":"FR-2469","program":"pota","name":"Parc de la Grande Corniche State Natural Reserve","coordinates":[7.36417,43.7394]},{"code":"FR-2475","program":"pota","name":"Parc du Vinaigrier Nature Reserve","coordinates":[7.30111,43.7151]},{"code":"FR-3874","program":"pota","name":"Cap Ferrat Natura 2000","coordinates":[7.35389,43.6608]},{"code":"FR-3879","program":"pota","name":"Corniche de la Riviera Natura 2000","coordinates":[7.32833,43.7275]},{"code":"FR-4477","program":"pota","name":"Falaises De La Riviera Biological Reserve","coordinates":[7.37453,43.7312]},{"code":"FR-4545","program":"pota","name":"MONT VINAIGRIER - OBSERVATOIRE Biological Reserve","coordinates":[7.29977,43.7224]},{"code":"FR-4546","program":"pota","name":"CAP FERRAT Biological Reserve","coordinates":[7.33464,43.683]},{"code":"FR-4547","program":"pota","name":"GRANDE CORNICHE ET PLATEAU DE LA JUSTICE Biological Reserve","coordinates":[7.35021,43.7323]},{"code":"FR-4720","program":"pota","name":"MONT ALBAN - MONT BORON Biosphere Reserve","coordinates":[7.30006,43.6988]},{"code":"FR-10578","program":"pota","name":"DU CAP DE NICE À LA POINTE MADAME Marine Conservation Area","coordinates":[7.29964,43.6879]},{"code":"FR-10579","program":"pota","name":"DE LA POINTE PILONE À LA POINTE CAUSINIERE Marine Conservation Area","coordinates":[7.32469,43.6801]},{"code":"FR-10580","program":"pota","name":"DE LA POINTE COLOMBIER A LA POINTE SAINTE-HOSPICE Marine Conservation Area","coordinates":[7.35041,43.6821]},{"code":"FR-10581","program":"pota","name":"MER D'EZE Marine Conservation Area","coordinates":[7.36245,43.7172]},{"code":"FR-10582","program":"pota","name":"POINTE MALA ET PLATEAU DU CAP D'AIL Marine Conservation Area","coordinates":[7.40332,43.7134]},{"code":"FR-10584","program":"pota","name":"CAP MARTIN 3 Marine Conservation Area","coordinates":[7.47753,43.7473]},{"code":"FR-11537","program":"pota","name":"Mont alban Conservation Park","coordinates":[7.30087,43.7]},{"code":"FR-11538","program":"pota","name":"Le mont vinaigrier Conservation Park","coordinates":[7.30409,43.7162]},{"code":"MC-0001","program":"pota","name":"Reserve du Larvotto Marine Protected Area","coordinates":[7.4,43.71]},{"code":"MC-0002","program":"pota","name":"Reserve du Tombant des Spélugues Marine Protected Area","coordinates":[7.43034,43.7386]},{"code":"MC-0003","program":"pota","name":"Jardin exotique de Monaco Botanical Gardens","coordinates":[7.4146,43.7314]},{"code":"F/AM-643","program":"sota","name":"Fort de la Revère","coordinates":[7.3663,43.7387]},{"code":"B/F-6398","program":"wwbota","name":"La TURBIE 1","coordinates":[7.397222,43.747213]},{"code":"B/F-6399","program":"wwbota","name":"La TURBIE 2","coordinates":[7.39834,43.747186]},{"code":"B/F-6400","program":"wwbota","name":"E3 - EZE MOYENNE CORNICHE","coordinates":[7.363913,43.731224]},{"code":"B/F-6401","program":"wwbota","name":"TETE de CHIEN","coordinates":[7.402439,43.730447]},{"code":"B/F-6402","program":"wwbota","name":"ISOLETTA","coordinates":[7.367667,43.72058]},{"code":"B/F-6403","program":"wwbota","name":"E2 - EZE VOIE FERREE","coordinates":[7.376686,43.720042]},{"code":"B/F-6404","program":"wwbota","name":"E1 - EZE BASSE CORNICHE","coordinates":[7.372761,43.718533]},{"code":"B/F-6901","program":"wwbota","name":"Nice","coordinates":[7.304298,43.685412]}]}