{"lat":43.5,"lon":-80,"programs":["pota","wwbota"],"count":10,"references":[{"code":"CA-0063","program":"pota","name":"Niagara Escarpment Biosphere Reserve","coordinates":[-79.979,43.6371]},{"code":"CA-1440","program":"pota","name":"Hilton Falls Conservation Area","coordinates":[-79.9618,43.5045]},{"code":"CA-5103","program":"pota","name":"Heart Lake Conservation Area","coordinates":[-79.7872,43.7409]},{"code":"CA-5105","program":"pota","name":"Kelso Conservation Area","coordinates":[-79.9373,43.5104]},{"code":"CA-5372","program":"pota","name":"Silver Creek Conservation Area","coordinates":[-79.9669,43.6921]},{"code":"CA-5373","program":"pota","name":"Terra Cotta Conservation Area","coordinates":[-79.9545,43.7236]},{"code":"CA-5563","program":"pota","name":"Limehouse Conservation Area","coordinates":[-79.9739,43.6321]},{"code":"CA-5564","program":"pota","name":"Area 8 Conservation Area","coordinates":[-79.9198,43.501]},{"code":"B/CA-1042","program":"wwbota","name":"FRP LP11","coordinates":[-79.757828,43.686813]},{"code":"B/CA-1052","program":"wwbota","name":"FRP LP13","coordinates":[-79.8819846,43.517328]}]}