{"lat":43.5,"lon":-1.5,"programs":["pota","wwbota"],"count":30,"references":[{"code":"FR-2957","program":"pota","name":"DUNES MODERNES DU LITTORAL LANDAIS DE VIEUX BOUCAU À HOSSEGOR FR7200712 Natura 2000","coordinates":[-1.42639,43.7344]},{"code":"FR-2958","program":"pota","name":"BARTHES DE L ADOUR FR7210077 Natura 2000","coordinates":[-1.29966,43.5268]},{"code":"FR-2960","program":"pota","name":"ZONES HUMIDES ASSOCIEES AU MARAIS D ORX  FR7200719 Natura 2000","coordinates":[-1.39417,43.5883]},{"code":"FR-3771","program":"pota","name":"Marais d Orx National Nature Reserve","coordinates":[-1.3917,43.5997]},{"code":"FR-3925","program":"pota","name":"Etang Noir National Nature Reserve","coordinates":[-1.36825,43.6959]},{"code":"FR-4194","program":"pota","name":"Domaine d Orx Natura 2000","coordinates":[-1.39772,43.6003]},{"code":"FR-4293","program":"pota","name":"Zone humide du Metro Natura 2000","coordinates":[-1.48461,43.5596]},{"code":"FR-8624","program":"pota","name":"Le metro Conservation Area","coordinates":[-1.48936,43.5565]},{"code":"FR-8627","program":"pota","name":"ZONE HUMIDE DU SECTEUR DU METRO Biological Reserve","coordinates":[-1.48577,43.5624]},{"code":"FR-8628","program":"pota","name":"Aboukir - la montagne Biological Reserve","coordinates":[-1.47576,43.583]},{"code":"FR-8629","program":"pota","name":"Pointe de capbreton – dunes du boudigau Biological Reserve","coordinates":[-1.45449,43.6181]},{"code":"FR-8630","program":"pota","name":"Lac d'Hossegor Biological Reserve","coordinates":[-1.42991,43.6713]},{"code":"FR-8631","program":"pota","name":"La cote sauvage Conservation Park","coordinates":[-1.43969,43.6763]},{"code":"FR-8632","program":"pota","name":"Dunes des casernes Biological Reserve","coordinates":[-1.42845,43.7189]},{"code":"FR-8633","program":"pota","name":"STATION BOTANIQUE DE LA LAGUNE DE MAILLOQUES Biological Reserve","coordinates":[-1.39967,43.7166]},{"code":"FR-8767","program":"pota","name":"Bois Guilhou Recreation Park","coordinates":[-1.481,43.519]},{"code":"B/F-6835","program":"wwbota","name":"Seignosse1","coordinates":[-1.431915,43.723536]},{"code":"B/F-6836","program":"wwbota","name":"Seignosse2","coordinates":[-1.432237,43.723277]},{"code":"B/F-6837","program":"wwbota","name":"Seignosse3","coordinates":[-1.432924,43.722766]},{"code":"B/F-6838","program":"wwbota","name":"Capbreton1","coordinates":[-1.446577,43.644495]},{"code":"B/F-6839","program":"wwbota","name":"Capbreton2","coordinates":[-1.446714,43.643959]},{"code":"B/F-6840","program":"wwbota","name":"Capbreton3","coordinates":[-1.446811,43.643468]},{"code":"B/F-6841","program":"wwbota","name":"Capbreton4","coordinates":[-1.447373,43.643134]},{"code":"B/F-6842","program":"wwbota","name":"Capbreton5","coordinates":[-1.447264,43.641598]},{"code":"B/F-6843","program":"wwbota","name":"Labenne1","coordinates":[-1.473491,43.59913]},{"code":"B/F-6844","program":"wwbota","name":"Labenne2","coordinates":[-1.473706,43.598802]},{"code":"B/F-6845","program":"wwbota","name":"Labenne3","coordinates":[-1.474306,43.598374]},{"code":"B/F-6846","program":"wwbota","name":"Labenne4","coordinates":[-1.478575,43.590512]},{"code":"B/F-6847","program":"wwbota","name":"Labenne5","coordinates":[-1.480409,43.588766]},{"code":"B/F-6848","program":"wwbota","name":"Ondres","coordinates":[-1.484995,43.581955]}]}