{"lat":43.5,"lon":142.75,"programs":["pota","sota"],"count":9,"references":[{"code":"JP-0005","program":"pota","name":"Daisetsuzan National Park","coordinates":[142.907,43.6717]},{"code":"JA8/KK-001","program":"sota","name":"Taisetsuzan (Asahidake)","coordinates":[142.8541,43.6636]},{"code":"JA8/KK-002","program":"sota","name":"Taisetsuzan (Hokuchindake)","coordinates":[142.8799,43.6928]},{"code":"JA8/KK-003","program":"sota","name":"Taisetsuzan (Hakuundake)","coordinates":[142.9059,43.6612]},{"code":"JA8/KK-004","program":"sota","name":"Taisetsuzan (Ryouundake)","coordinates":[142.897,43.6982]},{"code":"JA8/KK-008","program":"sota","name":"Chuubetsudake","coordinates":[142.8945,43.5911]},{"code":"JA8/KK-009","program":"sota","name":"Kaundake","coordinates":[142.8614,43.5653]},{"code":"JA8/TC-001","program":"sota","name":"Tomuraushiyama","coordinates":[142.8488,43.5271]},{"code":"JA8/TC-017","program":"sota","name":"Tsuriganeyama","coordinates":[142.8107,43.5102]}]}