{"lat":43.5,"lon":19.25,"programs":["gma","sota"],"count":20,"references":[{"code":"E7/BO-193","program":"gma","name":"ResiÄ‡a Varda","coordinates":[19.3945,43.6599]},{"code":"E7/BO-267","program":"gma","name":"Prizren","coordinates":[19.2795,43.6929]},{"code":"E7/BO-304","program":"gma","name":"Suva Gora","coordinates":[19.3387,43.7418]},{"code":"E7/BO-317","program":"gma","name":"Vihra","coordinates":[19.3141,43.6903]},{"code":"E7/BO-323","program":"gma","name":"Tavnica","coordinates":[19.4488,43.7148]},{"code":"E7/BO-347","program":"gma","name":"Ä†eten","coordinates":[19.4305,43.7077]},{"code":"E7/BO-356","program":"gma","name":"GoleÅ¡","coordinates":[19.4742,43.6757]},{"code":"E7/BO-425","program":"gma","name":"Gradina","coordinates":[19.2749,43.7419]},{"code":"E7/BO-193","program":"sota","name":"Resića Varda","coordinates":[19.3945,43.6599]},{"code":"E7/BO-267","program":"sota","name":"Prizren","coordinates":[19.2795,43.6929]},{"code":"E7/BO-304","program":"sota","name":"Suva Gora","coordinates":[19.3387,43.7418]},{"code":"E7/BO-317","program":"sota","name":"Vihra","coordinates":[19.3141,43.6903]},{"code":"E7/BO-323","program":"sota","name":"Tavnica","coordinates":[19.4488,43.7148]},{"code":"E7/BO-347","program":"sota","name":"Ćeten","coordinates":[19.4305,43.7077]},{"code":"E7/BO-356","program":"sota","name":"Goleš","coordinates":[19.4742,43.6757]},{"code":"E7/BO-425","program":"sota","name":"Gradina","coordinates":[19.2749,43.7419]},{"code":"YU/ZS-026","program":"sota","name":"Ober","coordinates":[19.29986,43.54337]},{"code":"YU/ZS-041","program":"sota","name":"Golet","coordinates":[19.4849,43.57043]},{"code":"YU/ZS-056","program":"sota","name":"Veliki vis","coordinates":[19.34819,43.54621]},{"code":"YU/ZS-066","program":"sota","name":"Veliki Tmor","coordinates":[19.3323,43.59053]}]}