{"lat":43.5,"lon":5,"programs":["pota","sota"],"count":16,"references":[{"code":"FR-3312","program":"pota","name":"GARRIGUES DE LANCON ET CHAINES ALENTOUR  FR9310069 Natura 2000","coordinates":[5.21694,43.6125]},{"code":"FR-4783","program":"pota","name":"plateau des quatre termes - gorges de la touloubre - la barben Biological Reserve","coordinates":[5.24307,43.5904]},{"code":"FR-4861","program":"pota","name":"la basse durance, de la roque hauturiere au barrage de mallemort Biological Reserve","coordinates":[5.24374,43.7483]},{"code":"FR-7016","program":"pota","name":"PALOUS DE SAINT-CHAMAS - EMBOUCHURE DE LA TOULOUBRE - PETITE CAMARGUE - LA POINTE Biological Reserve","coordinates":[5.04687,43.5291]},{"code":"FR-7017","program":"pota","name":"CHAINE DE LA FARE - MASSIF DE LANCON Biological Reserve","coordinates":[5.13313,43.5587]},{"code":"FR-7018","program":"pota","name":"EMBOUCHURES DE L'ARC ET DE LA DURANCOLE - MARAIS DU SAGNAS - MARAIS DE BERRE Biological Reserve","coordinates":[5.12274,43.5038]},{"code":"FR-7025","program":"pota","name":"PLATEAUX DE VERNEGUES ET DE ROQUEROUSSE Biological Reserve","coordinates":[5.16041,43.6738]},{"code":"FR-14790","program":"pota","name":"COLLINES D'ISTRES, MIRAMAS, SULAUZE, MONTEAU, LA QUINSANE Biological Reserve","coordinates":[5.003,43.543]},{"code":"FR-14792","program":"pota","name":"POUDRERIE DE SAINT-CHAMAS Biological Reserve","coordinates":[5.023,43.556]},{"code":"FR-14793","program":"pota","name":"LA TOULOUBRE Biological Reserve","coordinates":[5.052,43.547]},{"code":"FR-14805","program":"pota","name":"MARAIS DU SAGNAS Biological Reserve","coordinates":[5.124,43.51]},{"code":"FR-14806","program":"pota","name":"CRAU DE BERRE-L'ETANG Biological Reserve","coordinates":[5.181,43.536]},{"code":"FR-14813","program":"pota","name":"GORGES DE LA TOULOUBRE - RAVIN DE LAVALDENAN - SUFFERCHOIX - VALLON DE MAUREL Biological Reserve","coordinates":[5.221,43.632]},{"code":"F/CR-262","program":"sota","name":"Montagne du Défens","coordinates":[5.0564,43.6997]},{"code":"F/CR-328","program":"sota","name":"Les Clèdes","coordinates":[5.1712,43.6957]},{"code":"F/CR-332","program":"sota","name":"Mont Menu","coordinates":[5.0108,43.7098]}]}