{"lat":43.5,"lon":0.5,"programs":["pota"],"count":13,"references":[{"code":"FR-8679","program":"pota","name":"Ancienne carrière de Saint-Cricq Biological Reserve","coordinates":[0.6375,43.6661]},{"code":"FR-8680","program":"pota","name":"Prairies et mares de bord de l'Arcon Biological Reserve","coordinates":[0.61946,43.6897]},{"code":"FR-8681","program":"pota","name":"Heronniere de Le Baron Biological Reserve","coordinates":[0.60083,43.7123]},{"code":"FR-12541","program":"pota","name":"Coteaux du Gers d'Aries-Espenan a Auch Biological Reserve","coordinates":[0.554,43.51]},{"code":"FR-12568","program":"pota","name":"Landes et coteaux d'Ornezan a Traverseres Biological Reserve","coordinates":[0.631,43.525]},{"code":"FR-12570","program":"pota","name":"Coteaux d´Arcagnac Biological Reserve","coordinates":[0.661,43.553]},{"code":"FR-12571","program":"pota","name":"Landes d'En Mouneou Biological Reserve","coordinates":[0.693,43.551]},{"code":"FR-12572","program":"pota","name":"Coteaux de Boucagneres, Auterive et Haulies Biological Reserve","coordinates":[0.619,43.565]},{"code":"FR-12574","program":"pota","name":"Pelouses, landes et champs extensifs de Pavie Biological Reserve","coordinates":[0.578,43.603]},{"code":"FR-12575","program":"pota","name":"Landes de Hounsorbes Biological Reserve","coordinates":[0.648,43.614]},{"code":"FR-12576","program":"pota","name":"Coteaux et prairies de Montegut et de Lahitte Biological Reserve","coordinates":[0.664,43.657]},{"code":"FR-12577","program":"pota","name":"Ancienne carriere de Saint-Cricq Biological Reserve","coordinates":[0.634,43.665]},{"code":"FR-12578","program":"pota","name":"Prairies et mares de bord de l'Arcon Biological Reserve","coordinates":[0.618,43.683]}]}