{"lat":43.5,"lon":7,"programs":["iota","pota","sota","wwbota"],"count":47,"references":[{"code":"EU-058","program":"iota","name":"PROVENCE-COTE D&#039;AZUR","coordinates":[7.23000002,43.62999916]},{"code":"FR-2467","program":"pota","name":"Parc de la Brague State Nature Preserve","coordinates":[7.06292,43.631]},{"code":"FR-2470","program":"pota","name":"Parc naturel departemental d'Estienne d'Orves Recreation Park","coordinates":[7.24407,43.699]},{"code":"FR-2477","program":"pota","name":"Parc du Paradou Nature Reserve","coordinates":[7.05834,43.561]},{"code":"FR-2478","program":"pota","name":"Riviere et gorges du Loup Nature Reserve","coordinates":[7.1112,43.667]},{"code":"FR-2480","program":"pota","name":"Parc de Vaugrenier Biological Reserve","coordinates":[7.12386,43.6254]},{"code":"FR-2484","program":"pota","name":"Parc des Rives du Var Nature Reserve","coordinates":[7.19603,43.674]},{"code":"FR-2485","program":"pota","name":"Parc du Sinodon Nature Reserve","coordinates":[7.03673,43.6658]},{"code":"FR-2486","program":"pota","name":"Parc de la Valmasque Nature Reserve","coordinates":[7.04566,43.6188]},{"code":"FR-3134","program":"pota","name":"BAIE ET CAP D ANTIBES  ILES DE LERINS FR9301573 Natura 2000","coordinates":[7.09944,43.5689]},{"code":"FR-3135","program":"pota","name":"DOME DE BIOT FR9301572 Natura 2000","coordinates":[7.09778,43.6417]},{"code":"FR-4106","program":"pota","name":"basse vallee du Var Natura 2000","coordinates":[7.19361,43.6769]},{"code":"FR-4479","program":"pota","name":"Embouchure du fleuve Var Partie terrestre Biological Reserve","coordinates":[7.201,43.657]},{"code":"FR-4480","program":"pota","name":"Massif Du Terme Blanc Biological Reserve","coordinates":[7.10276,43.6367]},{"code":"FR-4481","program":"pota","name":"Ile Sainte Marguerite Biological Reserve","coordinates":[7.05005,43.5189]},{"code":"FR-4549","program":"pota","name":"LE VAR ET SES PRINCIPAUX AFFLUENTS Biological Reserve","coordinates":[7.19587,43.674]},{"code":"FR-4551","program":"pota","name":"Le Loup Biological Reserve","coordinates":[7.12894,43.6571]},{"code":"FR-4552","program":"pota","name":"MASSIF DE BIOT Biological Reserve","coordinates":[7.09966,43.6549]},{"code":"FR-4554","program":"pota","name":"ETANG DE VAUGRENIER Biological Reserve","coordinates":[7.12273,43.6255]},{"code":"FR-4555","program":"pota","name":"PRAIRIES ET COURS DE LA BRAGUE ET DE SES PRINCIPAUX AFFLUENTS Biological Reserve","coordinates":[7.10907,43.6154]},{"code":"FR-4556","program":"pota","name":"Foret DE LA BRAGUE, DE SARTOUX ET DE LA VALMASQUE Biological Reserve","coordinates":[7.03967,43.604]},{"code":"FR-4707","program":"pota","name":"VALLONS DE MAGNAN, DE VALLIERES ET DE SAINT-ROMAN Biological Reserve","coordinates":[7.22841,43.7475]},{"code":"FR-4708","program":"pota","name":"VALLON DE SAINT-SAUVEUR Biological Reserve","coordinates":[7.19872,43.7474]},{"code":"FR-4709","program":"pota","name":"VALLON DE LINGOSTIERE Biological Reserve","coordinates":[7.19887,43.7278]},{"code":"FR-7086","program":"pota","name":"ETANG DE FONTMERLE Biological Reserve","coordinates":[7.01128,43.5973]},{"code":"FR-7087","program":"pota","name":"BASSES GORGES DU LOUP Biological Reserve","coordinates":[7.09475,43.6757]},{"code":"FR-7088","program":"pota","name":"L'UBAC DU PIC DE COURMETTES Biological Reserve","coordinates":[7.01922,43.729]},{"code":"FR-10568","program":"pota","name":"EST DU GOLFE DE LA NAPOULE Biological Reserve","coordinates":[7.00674,43.5402]},{"code":"FR-10569","program":"pota","name":"ILES DE LERINS (SUD SAINT-HONORAT) Biological Reserve","coordinates":[7.04911,43.5014]},{"code":"FR-10570","program":"pota","name":"ILES DE LERINS 2 Biological Reserve","coordinates":[7.05085,43.5128]},{"code":"FR-10571","program":"pota","name":"DE LA POINTE FOURCADE À LA POINTE CROISETTE Biological Reserve","coordinates":[7.0447,43.5402]},{"code":"FR-10572","program":"pota","name":"OUEST DU PORT DE GOLFE JUAN Biological Reserve","coordinates":[7.07193,43.5602]},{"code":"FR-10573","program":"pota","name":"GOLFE JUAN ET ANSE DU CROUTON Biological Reserve","coordinates":[7.09716,43.5623]},{"code":"FR-10574","program":"pota","name":"L'ANSE DU CROUTON Biological Reserve","coordinates":[7.11945,43.5574]},{"code":"FR-10575","program":"pota","name":"BASSES DE LA FOURMIGUE Biological Reserve","coordinates":[7.09512,43.541]},{"code":"FR-10576","program":"pota","name":"CAP GROS ET RAVENTURIER Marine Conservation Area","coordinates":[7.15833,43.5505]},{"code":"FR-10577","program":"pota","name":"DU CAP D'ANTIBES A LA POINTE BACON Marine Conservation Area","coordinates":[7.14515,43.5531]},{"code":"FR-11531","program":"pota","name":"Massif du paradou Conservation Park","coordinates":[7.05781,43.5597]},{"code":"FR-11532","program":"pota","name":"Batterie du graillon Conservation Park","coordinates":[7.12937,43.5468]},{"code":"FR-11533","program":"pota","name":"Bois de la garoupe Conservation Park","coordinates":[7.13108,43.5653]},{"code":"FR-11534","program":"pota","name":"Bois de la garoupe Conservation Park","coordinates":[7.13108,43.5653]},{"code":"FR-11535","program":"pota","name":"Fort carre Conservation Park","coordinates":[7.12786,43.5912]},{"code":"FR-11536","program":"pota","name":"Vallee de la brague Conservation Park","coordinates":[7.11078,43.6118]},{"code":"F/AM-541","program":"sota","name":"Puy de Tourrettes","coordinates":[7.0289,43.7417]},{"code":"B/F-6405","program":"wwbota","name":"BELLET (Tunnel de)","coordinates":[7.212144,43.711825]},{"code":"B/F-6899","program":"wwbota","name":"Cannes1","coordinates":[7.070109,43.517387]},{"code":"B/F-6900","program":"wwbota","name":"Cannes2","coordinates":[7.032158,43.521349]}]}