{"lat":43.75,"lon":-124,"programs":["pota","sota"],"count":7,"references":[{"code":"US-12839","program":"pota","name":"Vincent Creek BLM Recreation Management Area","coordinates":[-123.777,43.7926]},{"code":"US-12840","program":"pota","name":"Smith River BLM Recreation Management Area","coordinates":[-123.814,43.7906]},{"code":"US-12841","program":"pota","name":"Fawn Creek BLM Recreation Management Area","coordinates":[-123.831,43.7845]},{"code":"W7O/CC-035","program":"sota","name":"Mount Grayback","coordinates":[-123.859,43.9124]},{"code":"W7O/CC-063","program":"sota","name":"Mount Peter","coordinates":[-123.9295,43.9565]},{"code":"W7O/CC-083","program":"sota","name":"Island, The","coordinates":[-123.806,43.7778]},{"code":"W7O/CC-141","program":"sota","name":"830","coordinates":[-123.9276,43.7784]}]}