{"lat":43.75,"lon":-80.25,"programs":["pota","wwbota"],"count":7,"references":[{"code":"CA-0214","program":"pota","name":"Forks of the Credit Provincial Park","coordinates":[-80.0114,43.833]},{"code":"CA-0229","program":"pota","name":"Hockley Valley Provincial Park","coordinates":[-80.0626,43.9865]},{"code":"CA-5353","program":"pota","name":"Belfountain Conservation Area","coordinates":[-80.0133,43.7957]},{"code":"CA-5366","program":"pota","name":"Island Lake Conservation Area","coordinates":[-80.0804,43.934]},{"code":"CA-5374","program":"pota","name":"Upper Credit Conservation Area","coordinates":[-80.0619,43.8733]},{"code":"CA-6511","program":"pota","name":"Humber River National Wild & Scenic River","coordinates":[-80.0039,43.9435]},{"code":"B/CA-1058","program":"wwbota","name":"FRP KP2","coordinates":[-80.0943113,43.9199788]}]}