{"lat":43.75,"lon":10.25,"programs":["gma","pota","sota","wwbota"],"count":29,"references":[{"code":"IT/TO-1012","program":"gma","name":"Montecatino","coordinates":[10.4821,43.9056]},{"code":"IT/TO-1015","program":"gma","name":"Monte Piglione Sud","coordinates":[10.380208,43.9653168]},{"code":"IT-0059","program":"pota","name":"A.N.P.I.L. Valle delle Fonti Other Conservation Area","coordinates":[10.4856,43.7548]},{"code":"IT-0736","program":"pota","name":"Parco naturale di Migliarino, San Rossore e Massaciuccoli Regional Park","coordinates":[10.3213,43.7531]},{"code":"IT-0895","program":"pota","name":"Lago e Padule di Massaciuccoli Natura 2000","coordinates":[10.3299,43.8356]},{"code":"IT-1065","program":"pota","name":"Macchia Lucchese Natura 2000","coordinates":[10.2575,43.8383]},{"code":"IT-1116","program":"pota","name":"Dune Litoranee di Torre del Lago Natura 2000","coordinates":[10.2539,43.8286]},{"code":"IT-1429","program":"pota","name":"A.N.P.I.L. Monte Castellare Other Conservation Area","coordinates":[10.4499,43.7612]},{"code":"I/TO-039","program":"sota","name":"Monte Piglione","coordinates":[10.3712,43.9714]},{"code":"I/TO-043","program":"sota","name":"Monte Prana","coordinates":[10.3552,43.9526]},{"code":"I/TO-064","program":"sota","name":"Monte Gabberi","coordinates":[10.2947,43.9666]},{"code":"I/TO-078","program":"sota","name":"Monte Poraglio","coordinates":[10.3907,43.9911]},{"code":"I/TO-082","program":"sota","name":"Foce di Colognora – Quota 1008","coordinates":[10.4528,43.991]},{"code":"I/TO-088","program":"sota","name":"Monte Caciarli","coordinates":[10.4194,43.9803]},{"code":"I/TO-110","program":"sota","name":"Monte Faeta","coordinates":[10.4957,43.758]},{"code":"I/TO-113","program":"sota","name":"Monte Vallimona","coordinates":[10.3897,43.9351]},{"code":"I/TO-154","program":"sota","name":"Monte dei Landi","coordinates":[10.4863,43.9594]},{"code":"I/TO-168","program":"sota","name":"Monte Moriglion di Penna","coordinates":[10.4547,43.7928]},{"code":"I/TO-175","program":"sota","name":"Monte Romagna","coordinates":[10.4415,43.8132]},{"code":"I/TO-182","program":"sota","name":"Monte Ghilardona","coordinates":[10.3619,43.8894]},{"code":"I/TO-184","program":"sota","name":"Il Monte – Quota 456","coordinates":[10.3946,43.8646]},{"code":"I/TO-186","program":"sota","name":"Monte Castellaccio","coordinates":[10.4527,43.8929]},{"code":"I/TO-196","program":"sota","name":"Castellaccio","coordinates":[10.3928,43.8483]},{"code":"I/TO-205","program":"sota","name":"Monte dell'Elto","coordinates":[10.4969,43.9333]},{"code":"I/TO-217","program":"sota","name":"Conca – Quota 203","coordinates":[10.3947,43.7955]},{"code":"I/TO-320","program":"sota","name":"Monte Nona","coordinates":[10.339,43.9952]},{"code":"I/TO-321","program":"sota","name":"Monte Matanna","coordinates":[10.3359,43.9839]},{"code":"B/IT-0091","program":"wwbota","name":"Bunker (SS12 / Toscana )","coordinates":[10.44676,43.76556]},{"code":"B/IT-0092","program":"wwbota","name":"Bunker (La Rena  / Toscana )","coordinates":[10.35489,43.90387]}]}