{"lat":43.75,"lon":17.25,"programs":["gma","pota","sota"],"count":20,"references":[{"code":"E7/BO-022","program":"gma","name":"Stozer","coordinates":[17.32099915,43.99069977]},{"code":"E7/BO-094","program":"gma","name":"Idovac","coordinates":[17.4494,43.8672]},{"code":"E7/BO-129","program":"gma","name":"Veliki Siver","coordinates":[17.3942,43.9315]},{"code":"E7/BO-133","program":"gma","name":"Brdo","coordinates":[17.4267,43.8948]},{"code":"E7/BO-137","program":"gma","name":"OglaviÄ‡","coordinates":[17.4812,43.9164]},{"code":"E7/BO-142","program":"gma","name":"Crni Vrh","coordinates":[17.3078,43.9454]},{"code":"E7/BO-151","program":"gma","name":"Ogledala","coordinates":[17.3369,43.941]},{"code":"E7/BO-240","program":"gma","name":"TiÄja Glava","coordinates":[17.4164,43.947]},{"code":"BA-0135","program":"pota","name":"Nekropola Ravanjska vrata National Monument","coordinates":[17.3132,43.8635]},{"code":"E7/BO-022","program":"sota","name":"Vrana","coordinates":[17.3208,43.9916]},{"code":"E7/BO-094","program":"sota","name":"Idovac","coordinates":[17.4494,43.8672]},{"code":"E7/BO-129","program":"sota","name":"Veliki Siver","coordinates":[17.3942,43.9315]},{"code":"E7/BO-133","program":"sota","name":"Brdo","coordinates":[17.4267,43.8948]},{"code":"E7/BO-137","program":"sota","name":"Oglavić","coordinates":[17.4812,43.9164]},{"code":"E7/BO-142","program":"sota","name":"Crni Vrh","coordinates":[17.3078,43.9454]},{"code":"E7/BO-151","program":"sota","name":"Ogledala","coordinates":[17.3369,43.941]},{"code":"E7/BO-240","program":"sota","name":"Tičja Glava","coordinates":[17.4164,43.947]},{"code":"E7/HA-080","program":"sota","name":"Velika Ljubuša","coordinates":[17.3871,43.7532]},{"code":"E7/HA-094","program":"sota","name":"Mali Crni Vrh","coordinates":[17.3501,43.7735]},{"code":"E7/HA-097","program":"sota","name":"Razvršće","coordinates":[17.3858,43.8447]}]}