{"lat":43.75,"lon":6.5,"programs":["gma","pota","sota"],"count":42,"references":[{"code":"FA/AM-027","program":"gma","name":"Pic de Chabran","coordinates":[6.73969984,43.8993988]},{"code":"FR-4793","program":"pota","name":"ubacs de chateauvieux - marais de la font de buis et des demueyes Biological Reserve","coordinates":[6.5952,43.7903]},{"code":"FR-4795","program":"pota","name":"l'artuby Biological Reserve","coordinates":[6.67521,43.8108]},{"code":"FR-4796","program":"pota","name":"massif de cremon - la bernarde - vauplane - crete du teillon - col des portes - la faye - trebec - plan de moustiret Biological Reserve","coordinates":[6.63953,43.8019]},{"code":"FR-4797","program":"pota","name":"cretes et ubac du pensier jusqu'au col des portes Biological Reserve","coordinates":[6.66671,43.8379]},{"code":"FR-4798","program":"pota","name":"plaine de soleilhas Biological Reserve","coordinates":[6.64998,43.8498]},{"code":"FR-4799","program":"pota","name":"montagnes de robion et de destourbes - taloire Biological Reserve","coordinates":[6.52451,43.8259]},{"code":"FR-4800","program":"pota","name":"retenues de castillon et de chaudanne - le moyen verdon entre vauclause et le grand canyon Biological Reserve","coordinates":[6.55004,43.8561]},{"code":"FR-7113","program":"pota","name":"CLUE ET FORET DOMANIALE DE SAINT-AUBAN Biological Reserve","coordinates":[6.72958,43.8481]},{"code":"FR-7624","program":"pota","name":"clue de vergons - barre de pinadoux Biological Reserve","coordinates":[6.55036,43.9231]},{"code":"FR-7625","program":"pota","name":"vallee d'allons - crete des serres - crete et foret domaniale de chamatte - crete des traverses - puy de rent - bois de la colle baudet Biological Reserve","coordinates":[6.59534,43.9768]},{"code":"FR-7626","program":"pota","name":"clue de rouaine - la lare - roche rousse - gorges de la galange - ravin de saint-jean Biological Reserve","coordinates":[6.6882,43.9372]},{"code":"FR-11705","program":"pota","name":"barre de cendrouelles Biological Reserve","coordinates":[6.52661,43.9334]},{"code":"FR-13223","program":"pota","name":"PLAINE DE SERANON Biological Reserve","coordinates":[6.703,43.77]},{"code":"FR-13224","program":"pota","name":"PLAN DE FINIELS Biological Reserve","coordinates":[6.647,43.761]},{"code":"F/AM-354","program":"sota","name":"Sommet de la Bernarde","coordinates":[6.6372,43.8953]},{"code":"F/AM-363","program":"sota","name":"Crête du Teillon","coordinates":[6.602,43.8447]},{"code":"F/AM-368","program":"sota","name":"Pic de Chamatte","coordinates":[6.6016,43.9277]},{"code":"F/AM-369","program":"sota","name":"Picogu","coordinates":[6.65,43.8833]},{"code":"F/AM-384","program":"sota","name":"Le Serre Gros","coordinates":[6.5582,43.9638]},{"code":"F/AM-398","program":"sota","name":"La Faye","coordinates":[6.662,43.8313]},{"code":"F/AM-415","program":"sota","name":"Bauroux","coordinates":[6.7178,43.7812]},{"code":"F/AM-443","program":"sota","name":"Le Content","coordinates":[6.7227,43.9206]},{"code":"F/AM-449","program":"sota","name":"Les Gros Roucas","coordinates":[6.7268,43.8765]},{"code":"F/AM-456","program":"sota","name":"La Berque","coordinates":[6.6779,43.7564]},{"code":"F/AM-463","program":"sota","name":"Destourbes","coordinates":[6.5365,43.8221]},{"code":"F/AM-482","program":"sota","name":"Ubac de Tra Castel","coordinates":[6.7044,43.8462]},{"code":"F/AM-483","program":"sota","name":"Crête de Rus","coordinates":[6.5743,43.8519]},{"code":"F/AM-495","program":"sota","name":"La Tour","coordinates":[6.5078,43.9307]},{"code":"F/AM-511","program":"sota","name":"Plateau d'Educh","coordinates":[6.7168,43.945]},{"code":"F/AM-516","program":"sota","name":"La Pène","coordinates":[6.6937,43.9283]},{"code":"F/AM-529","program":"sota","name":"Sommet des Blaches","coordinates":[6.5312,43.8641]},{"code":"F/AM-542","program":"sota","name":"Colline de Clare","coordinates":[6.5357,43.7573]},{"code":"F/AM-546","program":"sota","name":"Colline de Sébet","coordinates":[6.5676,43.8071]},{"code":"F/AM-551","program":"sota","name":"Le Ribit","coordinates":[6.7493,43.8281]},{"code":"F/AM-553","program":"sota","name":"Basse de Pidanoux","coordinates":[6.5533,43.9263]},{"code":"F/AM-785","program":"sota","name":"Colle Durand","coordinates":[6.6426,43.9466]},{"code":"F/AM-789","program":"sota","name":"Crête du Vieil Artaud","coordinates":[6.6504,43.914]},{"code":"F/AM-799","program":"sota","name":"Pierrien","coordinates":[6.5832,43.9061]},{"code":"F/AM-804","program":"sota","name":"Crête de Blachette","coordinates":[6.6238,43.8047]},{"code":"F/AM-805","program":"sota","name":"La Garduère","coordinates":[6.6192,43.7911]},{"code":"F/AM-817","program":"sota","name":"La Lare","coordinates":[6.7436,43.9749]}]}