{"lat":43.75,"lon":15,"programs":["pota","sota"],"count":7,"references":[{"code":"HR-0259","program":"pota","name":"J. Molat-Dugi-Kornat-Žirje-Zlarin-Murter-Pašman-Ugljan-Rivanj-Sestrunj-Molat Natura 2000","coordinates":[15.199,43.983]},{"code":"HR-0014","program":"pota","name":"Telašćica Nature Park","coordinates":[15.155,43.9206]},{"code":"HR-0043","program":"pota","name":"Saljsko polje Reserve","coordinates":[15.1639,43.9314]},{"code":"HR-0044","program":"pota","name":"Fort Grpašćak Historic Site","coordinates":[15.1353,43.9052]},{"code":"HR-0116","program":"pota","name":"Tematski park Ribarstva i Maslina - Sali Park","coordinates":[15.1648,43.9318]},{"code":"HR-0206","program":"pota","name":"Sali-Zaglav (Hiking route) Recreation Site","coordinates":[15.1667,43.9402]},{"code":"9A/DH-138","program":"sota","name":"Vela Straža","coordinates":[15.05903,43.990303]}]}