{"lat":43.75,"lon":-0.5,"programs":["pota"],"count":7,"references":[{"code":"FR-2952","program":"pota","name":"RESEAU HYDROGRAPHIQUE DES AFFLUENTS DE LA MIDOUZE FR7200722 Natura 2000","coordinates":[-0.43639,43.9839]},{"code":"FR-2962","program":"pota","name":"RESEAU HYDROGRAPHIQUE DU MIDOU ET DU LUDON FR7200806 Natura 2000","coordinates":[-0.25242,43.8532]},{"code":"FR-12643","program":"pota","name":"ETANGS DE LAMARQUE ET DE LUZAN Biological Reserve","coordinates":[-0.279,43.831]},{"code":"FR-12645","program":"pota","name":"Les bras morts et gravieres de l'Adour entre Aire sur l'Adour et Borderes Biological Reserve","coordinates":[-0.314,43.751]},{"code":"FR-14788","program":"pota","name":"Parc animalier de Nahuques Recreation Park","coordinates":[-0.471,43.89]},{"code":"FR-14789","program":"pota","name":"Parc Jean Rameau Recreation Park","coordinates":[-0.499,43.895]},{"code":"FR-12644","program":"pota","name":"Colonies d'ardeides de Lapoque et de Labarthe Biological Reserve","coordinates":[-0.447,43.843]}]}