{"lat":43.75,"lon":22.75,"programs":["gma","pota"],"count":7,"references":[{"code":"LZM/NW-045","program":"gma","name":"Lilov vrah","coordinates":[22.893974,43.787524]},{"code":"LZM/NW-051","program":"gma","name":"Archarski vrah","coordinates":[22.929239,43.793774]},{"code":"LZM/NW-052","program":"gma","name":"Varha","coordinates":[22.921278,43.793356]},{"code":"LZM/NW-090","program":"gma","name":"Sinagovski rid","coordinates":[22.783542,43.917325]},{"code":"LZM/NW-097","program":"gma","name":"Tashli bair","coordinates":[22.888223,43.817556]},{"code":"LZM/NW-109","program":"gma","name":"Konyarnikat","coordinates":[22.766421,43.937029]},{"code":"BG-0089","program":"pota","name":"Dunavska Gradina Recreation Park","coordinates":[22.8805,43.9861]}]}