{"lat":43.75,"lon":11.25,"programs":["pota","sota"],"count":12,"references":[{"code":"IT-1379","program":"pota","name":"A.N.P.I.L. Torrente Mensola Other Conservation Area","coordinates":[11.3115,43.7888]},{"code":"IT-1388","program":"pota","name":"Poggio Ripaghera - Santa Brigida Natura 2000","coordinates":[11.3847,43.8664]},{"code":"IT-1396","program":"pota","name":"A.N.P.I.L. Montececeri Other Conservation Area","coordinates":[11.3046,43.8005]},{"code":"IT-1397","program":"pota","name":"A.N.P.I.L. Torrente Terzolle Other Conservation Area","coordinates":[11.2615,43.8282]},{"code":"IT-1407","program":"pota","name":"A.N.P.I.L. Gabbianello - Bosco Rotondo Other Conservation Area","coordinates":[11.2841,43.9934]},{"code":"IT-1473","program":"pota","name":"Bosco ai Frati Natura 2000","coordinates":[11.302,43.984]},{"code":"I/TO-084","program":"sota","name":"Monte Giovi","coordinates":[11.4475,43.8768]},{"code":"I/TO-112","program":"sota","name":"Monte Senario","coordinates":[11.3334,43.8954]},{"code":"I/TO-125","program":"sota","name":"Il Pratone","coordinates":[11.3441,43.8331]},{"code":"I/TO-149","program":"sota","name":"Poggio di Cupo","coordinates":[11.2522,43.9468]},{"code":"I/TO-159","program":"sota","name":"Poggio dell'Incontro","coordinates":[11.3779,43.7523]},{"code":"I/TO-317","program":"sota","name":"Monte Calvana","coordinates":[11.3754,43.8779]}]}