{"lat":43.75,"lon":26.75,"programs":["gma"],"count":5,"references":[{"code":"LZM/NE-092","program":"gma","name":"Kodjaekinlik","coordinates":[26.955841,43.759538]},{"code":"LZM/NE-097","program":"gma","name":"Ekliekenlik","coordinates":[26.923448,43.767403]},{"code":"LZM/NE-104","program":"gma","name":"Kashikoru","coordinates":[26.771579,43.75629]},{"code":"LZM/NE-109","program":"gma","name":"Koru_orman","coordinates":[26.991429,43.796343]},{"code":"LZM/NE-115","program":"gma","name":"Okchilar","coordinates":[26.875783,43.816902]}]}