{"lat":43.75,"lon":141.5,"programs":["sota"],"count":6,"references":[{"code":"JA8/RM-020","program":"sota","name":"JA8/RM-020","coordinates":[141.7007,43.8654]},{"code":"JA8/RM-022","program":"sota","name":"Kikuokayama","coordinates":[141.7369,43.9349]},{"code":"JA8/SC-013","program":"sota","name":"Kanosawa","coordinates":[141.6229,43.7543]},{"code":"JA8/SC-052","program":"sota","name":"Higashijinnara","coordinates":[141.7048,43.757]},{"code":"JA8/SC-059","program":"sota","name":"Jihabari","coordinates":[141.7188,43.7953]},{"code":"JA8/SC-061","program":"sota","name":"Etaibetsu1","coordinates":[141.7403,43.7602]}]}