{"lat":43.75,"lon":4.25,"programs":["pota"],"count":11,"references":[{"code":"FR-3322","program":"pota","name":"COSTIERES NIMOISES  FR9112015 Natura 2000","coordinates":[4.36667,43.7778]},{"code":"FR-3325","program":"pota","name":"LE GARDON ET SES GORGES  FR9101395 Natura 2000","coordinates":[4.42417,43.9347]},{"code":"FR-3898","program":"pota","name":"Camp des Garrigues Natura 2000","coordinates":[4.34167,43.9167]},{"code":"FR-13019","program":"pota","name":"Plaines de Caissargues et Aubord Biological Reserve","coordinates":[4.367,43.784]},{"code":"FR-13153","program":"pota","name":"Plateau Saint-Nicolas Biological Reserve","coordinates":[4.351,43.86]},{"code":"FR-13154","program":"pota","name":"Gorges du Gardon Biological Reserve","coordinates":[4.414,43.927]},{"code":"FR-13155","program":"pota","name":"Riviere du Gardon entre Moussac et Russan Biological Reserve","coordinates":[4.322,43.928]},{"code":"FR-13156","program":"pota","name":"Plaine de Saint-Chaptes Biological Reserve","coordinates":[4.337,43.963]},{"code":"FR-14007","program":"pota","name":"Plaine de Manduel et Meynes Biological Reserve","coordinates":[4.478,43.868]},{"code":"FR-3323","program":"pota","name":"CAMP DES GARRIGUES FR9112031 Natura 2000","coordinates":[4.34167,43.9167]},{"code":"FR-3326","program":"pota","name":"GORGES DU GARDON  FR9110081 Natura 2000","coordinates":[4.41667,43.9333]}]}