{"lat":43.75,"lon":-65.5,"programs":["pota","wwbota"],"count":6,"references":[{"code":"CA-0482","program":"pota","name":"The Islands Provincial Park","coordinates":[-65.3401,43.7647]},{"code":"CA-1765","program":"pota","name":"Ghost Antler Nature Reserve","coordinates":[-65.3223,43.8906]},{"code":"CA-1834","program":"pota","name":"Roseway River Wilderness Area","coordinates":[-65.413,43.903]},{"code":"CA-6225","program":"pota","name":"Harpers Lake Nature Reserve","coordinates":[-65.457,43.8045]},{"code":"B/CA-0820","program":"wwbota","name":"FRP HJKP2","coordinates":[-65.405931,43.92604403]},{"code":"B/CA-0821","program":"wwbota","name":"FRP HJKP22","coordinates":[-65.3205212,43.76254583]}]}