{"lat":43.75,"lon":19.25,"programs":["gma","pota","sota"],"count":15,"references":[{"code":"E7/BO-046","program":"gma","name":"Gostilja","coordinates":[19.3321991,43.85509872]},{"code":"E7/BO-114","program":"gma","name":"Veliki Stolac","coordinates":[19.2853,43.9136]},{"code":"BA-0053","program":"pota","name":"Most Mehmed Paša Sokolović World Heritage Site","coordinates":[19.288,43.7825]},{"code":"RS-0004","program":"pota","name":"Tara National Park","coordinates":[19.4194,43.8869]},{"code":"RS-0006","program":"pota","name":"Šargan-Mokra Gora Nature Park","coordinates":[19.485,43.8141]},{"code":"E7/BO-046","program":"sota","name":"Kula","coordinates":[19.3322,43.8553]},{"code":"E7/BO-114","program":"sota","name":"Veliki Stolac","coordinates":[19.2853,43.9136]},{"code":"YU/ZS-015","program":"sota","name":"Zborište","coordinates":[19.45973,43.84875]},{"code":"YU/ZS-032","program":"sota","name":"Smiljevac","coordinates":[19.30844,43.97198]},{"code":"YU/ZS-057","program":"sota","name":"Veliki kraj","coordinates":[19.25399,43.99386]},{"code":"YU/ZS-059","program":"sota","name":"Detelin","coordinates":[19.38873,43.9216]},{"code":"YU/ZS-060","program":"sota","name":"Galinik","coordinates":[19.29196,43.95274]},{"code":"YU/ZS-085","program":"sota","name":"Stolac","coordinates":[19.39441,43.79858]},{"code":"YU/ZS-091","program":"sota","name":"Tusto brdo","coordinates":[19.46739,43.79212]},{"code":"YU/ZS-152","program":"sota","name":"Pasak vis","coordinates":[19.38261,43.8365]}]}