{"lat":43.75,"lon":143,"programs":["sota"],"count":9,"references":[{"code":"JA8/KK-016","program":"sota","name":"JA8/KK-016","coordinates":[143.1605,43.7616]},{"code":"JA8/OH-002","program":"sota","name":"Ariakesan","coordinates":[143.0467,43.8126]},{"code":"JA8/OH-006","program":"sota","name":"Chitokaniushiyama","coordinates":[143.0485,43.9068]},{"code":"JA8/OH-011","program":"sota","name":"Mikasayama","coordinates":[143.1826,43.8237]},{"code":"JA8/OH-013","program":"sota","name":"Yuuhakuzan","coordinates":[143.102,43.9554]},{"code":"JA8/OH-016","program":"sota","name":"JA8/OH-016","coordinates":[143.2207,43.8218]},{"code":"JA8/OH-018","program":"sota","name":"Kanoya","coordinates":[143.1377,43.9182]},{"code":"JA8/OH-023","program":"sota","name":"Takinokamioku","coordinates":[143.0153,43.9654]},{"code":"JA8/OH-059","program":"sota","name":"JA8/OH-059","coordinates":[143.1556,43.8894]}]}