{"lat":43.75,"lon":5.75,"programs":["pota","sota"],"count":8,"references":[{"code":"FR-4813","program":"pota","name":"la moyenne durance, de sisteron a la confluence avec le verdon Biological Reserve","coordinates":[5.87464,43.8692]},{"code":"FR-4847","program":"pota","name":"collines a l'ouest de villeneuve - bois d'asson - costebelle - la roche - saint-jean Biological Reserve","coordinates":[5.83803,43.9046]},{"code":"FR-11701","program":"pota","name":"plateau d'astardan Biological Reserve","coordinates":[5.81117,43.9881]},{"code":"FR-11709","program":"pota","name":"les dounelles - les demoiselles Biological Reserve","coordinates":[5.76927,43.7541]},{"code":"FR-11729","program":"pota","name":"l'asse, ses principaux affluents et leurs ripislves Biological Reserve","coordinates":[5.91806,43.8803]},{"code":"FR-11730","program":"pota","name":"le lauzon et ses ripislves Biological Reserve","coordinates":[5.86636,43.935]},{"code":"FR-11731","program":"pota","name":"le largue et ses ripislves Biological Reserve","coordinates":[5.84874,43.8847]},{"code":"F/AM-634","program":"sota","name":"Bellevue","coordinates":[5.8103,43.8801]}]}