{"lat":43.75,"lon":-73.5,"programs":["pota","sota"],"count":5,"references":[{"code":"US-9116","program":"pota","name":"Putts Creek Wildlife Management Area","coordinates":[-73.4151,43.9626]},{"code":"US-11966","program":"pota","name":"Mount Independence State Historic Site","coordinates":[-73.3848,43.8182]},{"code":"W1/GM-174","program":"sota","name":"The Pinnacle","coordinates":[-73.2672,43.7739]},{"code":"W2/GA-170","program":"sota","name":"Record Hill","coordinates":[-73.4572,43.7739]},{"code":"W2/GA-462","program":"sota","name":"Bear Mountain","coordinates":[-73.4565,43.827]}]}