{"lat":43.75,"lon":-122,"programs":["sota"],"count":9,"references":[{"code":"W7O/CM-024","program":"sota","name":"Irish Mountain","coordinates":[-121.975,43.8512]},{"code":"W7O/CM-027","program":"sota","name":"Cultus Mountain","coordinates":[-121.8704,43.819]},{"code":"W7O/CM-029","program":"sota","name":"Charlton Butte","coordinates":[-121.9608,43.7637]},{"code":"W7O/CM-036","program":"sota","name":"Williamson Mountain","coordinates":[-121.8255,43.924]},{"code":"W7O/CM-040","program":"sota","name":"Horse Mountain","coordinates":[-121.897,43.9878]},{"code":"W7O/CM-047","program":"sota","name":"Packsaddle Mountain","coordinates":[-121.9298,43.9148]},{"code":"W7O/CM-049","program":"sota","name":"Little Roundtop Mtn","coordinates":[-121.9396,43.9009]},{"code":"W7O/CM-088","program":"sota","name":"Shukash Butte","coordinates":[-121.7638,43.7599]},{"code":"W7O/CM-124","program":"sota","name":"6242","coordinates":[-121.86,43.9583]}]}