{"lat":43.75,"lon":142,"programs":["sota"],"count":10,"references":[{"code":"JA8/KK-095","program":"sota","name":"Takadomari","coordinates":[142.1493,43.9052]},{"code":"JA8/KK-097","program":"sota","name":"JA8/KK-097","coordinates":[142.2106,43.9491]},{"code":"JA8/KK-108","program":"sota","name":"Tokiwayama","coordinates":[142.2049,43.7617]},{"code":"JA8/KK-110","program":"sota","name":"Horonaiyama","coordinates":[142.1686,43.87]},{"code":"JA8/KK-114","program":"sota","name":"Minamiasabayama","coordinates":[142.1222,43.9326]},{"code":"JA8/KK-115","program":"sota","name":"Wassamutouge","coordinates":[142.2486,43.9832]},{"code":"JA8/SC-032","program":"sota","name":"Bozuyama","coordinates":[142.0288,43.9678]},{"code":"JA8/SC-041","program":"sota","name":"Yappuyama","coordinates":[142.0398,43.9148]},{"code":"JA8/SC-048","program":"sota","name":"JA8/SC-048","coordinates":[142.2086,43.8379]},{"code":"JA8/SC-050","program":"sota","name":"JA8/SC-050","coordinates":[142.0805,43.9876]}]}