{"lat":43.75,"lon":-111,"programs":["sota"],"count":22,"references":[{"code":"W7Y/TT-004","program":"sota","name":"Moran, Mount","coordinates":[-110.7765,43.835]},{"code":"W7Y/TT-011","program":"sota","name":"Woodring, Mount","coordinates":[-110.7942,43.8028]},{"code":"W7Y/TT-013","program":"sota","name":"Saint John, Mount","coordinates":[-110.773,43.7819]},{"code":"W7Y/TT-015","program":"sota","name":"Doane Peak","coordinates":[-110.779,43.9113]},{"code":"W7Y/TT-016","program":"sota","name":"Ranger Peak","coordinates":[-110.7635,43.9286]},{"code":"W7Y/TT-017","program":"sota","name":"11270","coordinates":[-110.815,43.7875]},{"code":"W7Y/TT-024","program":"sota","name":"Maidenform Peak","coordinates":[-110.8512,43.8249]},{"code":"W7Y/TT-030","program":"sota","name":"Traverse Peak","coordinates":[-110.7949,43.8679]},{"code":"W7Y/TT-033","program":"sota","name":"10952","coordinates":[-110.8228,43.8356]},{"code":"W7Y/TT-034","program":"sota","name":"Glacier Benchmark","coordinates":[-110.8459,43.9026]},{"code":"W7Y/TT-037","program":"sota","name":"10920","coordinates":[-110.8254,43.895]},{"code":"W7Y/TT-039","program":"sota","name":"Raynolds Peak","coordinates":[-110.8257,43.8708]},{"code":"W7Y/TT-041","program":"sota","name":"10855","coordinates":[-110.8475,43.7754]},{"code":"W7Y/TT-043","program":"sota","name":"Elk Mountain","coordinates":[-110.8023,43.9771]},{"code":"W7Y/TT-057","program":"sota","name":"Window Peak","coordinates":[-110.8534,43.8565]},{"code":"W7Y/TT-060","program":"sota","name":"10484","coordinates":[-110.8763,43.8487]},{"code":"W7Y/TT-062","program":"sota","name":"10422","coordinates":[-110.8524,43.956]},{"code":"W7Y/TT-065","program":"sota","name":"10333","coordinates":[-110.8308,43.9626]},{"code":"W7Y/TT-075","program":"sota","name":"Rammel Mountain","coordinates":[-110.9016,43.9029]},{"code":"W7Y/TT-086","program":"sota","name":"9943","coordinates":[-110.9172,43.7782]},{"code":"W7Y/TT-176","program":"sota","name":"Eagles Rest Peak","coordinates":[-110.7589,43.8985]},{"code":"W7Y/TT-177","program":"sota","name":"Rockchuck Peak","coordinates":[-110.7679,43.7882]}]}