{"lat":43.75,"lon":-71.5,"programs":["sota"],"count":12,"references":[{"code":"W1/HA-033","program":"sota","name":"North Peak on Mount Tripyramid","coordinates":[-71.4428,43.9731]},{"code":"W1/HA-040","program":"sota","name":"Mount Chocorua","coordinates":[-71.2731,43.9544]},{"code":"W1/HA-049","program":"sota","name":"Mount Israel","coordinates":[-71.4719,43.8456]},{"code":"W1/HA-050","program":"sota","name":"Sandwich Mountain","coordinates":[-71.4983,43.9003]},{"code":"W1/HA-066","program":"sota","name":"Mount Paugus","coordinates":[-71.3289,43.9511]},{"code":"W1/HA-105","program":"sota","name":"Mount Passaconaway","coordinates":[-71.3806,43.9547]},{"code":"W1/HA-108","program":"sota","name":"Young Mountain","coordinates":[-71.4414,43.875]},{"code":"W1/HA-167","program":"sota","name":"Flat Mountain","coordinates":[-71.4447,43.9039]},{"code":"W1/HA-172","program":"sota","name":"Mount Whiteface","coordinates":[-71.4078,43.9364]},{"code":"W1/HA-201","program":"sota","name":"Flat Mountain","coordinates":[-71.4619,43.9283]},{"code":"W1/NL-003","program":"sota","name":"Red Hill","coordinates":[-71.4578,43.7556]},{"code":"W1/NL-018","program":"sota","name":"Bald Mountain","coordinates":[-71.2661,43.8008]}]}