{"lat":43.75,"lon":-79.5,"programs":["pota","wwbota"],"count":9,"references":[{"code":"CA-1519","program":"pota","name":"Milne Dam Conservation Park","coordinates":[-79.2691,43.8646]},{"code":"CA-1668","program":"pota","name":"Toogood Pond Park Conservation Reserve","coordinates":[-79.3181,43.8755]},{"code":"CA-5093","program":"pota","name":"Bruce's Mill Conservation Area","coordinates":[-79.3458,43.9492]},{"code":"CA-5111","program":"pota","name":"Oak Ridges Corridor Conservation Reserve","coordinates":[-79.4528,43.9348]},{"code":"CA-5301","program":"pota","name":"David Dunlap Observatory National Historic Site","coordinates":[-79.4227,43.863]},{"code":"CA-5550","program":"pota","name":"Bathurst Glen Golf Course Conservation Area","coordinates":[-79.4777,43.9263]},{"code":"CA-5553","program":"pota","name":"Bond Lake Conservation Area","coordinates":[-79.4529,43.9349]},{"code":"B/CA-1050","program":"wwbota","name":"FRP LP2","coordinates":[-79.2670382,43.8821417]},{"code":"B/CA-1327","program":"wwbota","name":"Siren, Bayview and Princess","coordinates":[-79.38932,43.77353303]}]}