{"lat":43.75,"lon":-73,"programs":["pota","sota"],"count":14,"references":[{"code":"US-5543","program":"pota","name":"Mount Carmel State Forest","coordinates":[-72.9161,43.7692]},{"code":"W1/GM-029","program":"sota","name":"Farr Peak","coordinates":[-72.9442,43.8092]},{"code":"W1/GM-040","program":"sota","name":"Gillespie Peak","coordinates":[-72.9775,43.8714]},{"code":"W1/GM-052","program":"sota","name":"Mount Nickwaket","coordinates":[-72.9942,43.7789]},{"code":"W1/GM-064","program":"sota","name":"Round Mountain","coordinates":[-72.8844,43.8156]},{"code":"W1/GM-079","program":"sota","name":"Monastery Mountain","coordinates":[-72.9381,43.9072]},{"code":"W1/GM-093","program":"sota","name":"Worth Mountain","coordinates":[-72.9636,43.91]},{"code":"W1/GM-101","program":"sota","name":"Gillespie Mountain","coordinates":[-72.8758,43.9561]},{"code":"W1/GM-105","program":"sota","name":"Mount Carmel","coordinates":[-72.9203,43.7742]},{"code":"W1/GM-121","program":"sota","name":"Pt. 3022","coordinates":[-72.8881,43.7511]},{"code":"W1/GM-151","program":"sota","name":"Pt. 3030","coordinates":[-72.7853,43.9531]},{"code":"W1/GM-155","program":"sota","name":"Philadelphia Peak","coordinates":[-72.8864,43.9]},{"code":"W1/GM-164","program":"sota","name":"Hancock Mountain","coordinates":[-72.8278,43.9389]},{"code":"W1/GM-186","program":"sota","name":"Pt. 3230","coordinates":[-72.8522,43.8061]}]}