{"lat":43.75,"lon":-109.5,"programs":["sota"],"count":16,"references":[{"code":"W7Y/FT-047","program":"sota","name":"Dollar Mountain","coordinates":[-109.3752,43.8654]},{"code":"W7Y/FT-050","program":"sota","name":"Burwell, Mount","coordinates":[-109.4404,43.9273]},{"code":"W7Y/FT-066","program":"sota","name":"Wiggins Peak","coordinates":[-109.419,43.8205]},{"code":"W7Y/FT-070","program":"sota","name":"12155","coordinates":[-109.4252,43.8742]},{"code":"W7Y/FT-088","program":"sota","name":"11734","coordinates":[-109.3084,43.805]},{"code":"W7Y/FT-091","program":"sota","name":"11689","coordinates":[-109.3855,43.8432]},{"code":"W7Y/FT-104","program":"sota","name":"Steamboat Rock","coordinates":[-109.3724,43.7584]},{"code":"W7Y/PA-001","program":"sota","name":"Francs Peak","coordinates":[-109.3393,43.9613]},{"code":"W7Y/PA-002","program":"sota","name":"12635","coordinates":[-109.4751,43.9515]},{"code":"W7Y/PA-003","program":"sota","name":"Jojo Mountain","coordinates":[-109.2786,43.9626]},{"code":"W7Y/PA-004","program":"sota","name":"Crosby, Mount","coordinates":[-109.3334,43.8769]},{"code":"W7Y/PA-012","program":"sota","name":"Cascade Benchmark","coordinates":[-109.2898,43.8405]},{"code":"W7Y/PA-017","program":"sota","name":"Spar Mountain","coordinates":[-109.2781,43.8564]},{"code":"W7Y/PA-021","program":"sota","name":"11962","coordinates":[-109.3155,43.8448]},{"code":"W7Y/PA-026","program":"sota","name":"11888","coordinates":[-109.4037,43.9177]},{"code":"W7Y/PA-038","program":"sota","name":"Pyramid Peak","coordinates":[-109.381,43.9371]}]}