{"lat":43.75,"lon":11.5,"programs":["gma","pota","sota"],"count":8,"references":[{"code":"IT/TO-1010","program":"gma","name":"Monte Faltrona","coordinates":[11.6967001,43.87279892]},{"code":"IT-0663","program":"pota","name":"Foreste Casentinesi, Monte Falterona e Campigna National Park","coordinates":[11.7159,43.9243]},{"code":"IT-1476","program":"pota","name":"Muraglione - Acqua Cheta Natura 2000","coordinates":[11.6592,43.9625]},{"code":"I/ER-033","program":"sota","name":"Monte Gemelli","coordinates":[11.7284,43.9725]},{"code":"I/TO-014","program":"sota","name":"Monte Falco","coordinates":[11.7092,43.8776]},{"code":"I/TO-037","program":"sota","name":"Monte Lavane","coordinates":[11.6189,43.9992]},{"code":"I/TO-045","program":"sota","name":"Monte Peschiena","coordinates":[11.6019,43.9721]},{"code":"I/TO-058","program":"sota","name":"Monte Cucco","coordinates":[11.6232,43.8152]}]}