{"lat":43.75,"lon":-116.25,"programs":["pota","sota"],"count":12,"references":[{"code":"US-10419","program":"pota","name":"Payette River National Scenic Byway National Parkway","coordinates":[-116.22,43.8563]},{"code":"US-12232","program":"pota","name":"Horseshoe Bend Mill Pond State Fishing Lake","coordinates":[-116.184,43.9351]},{"code":"W7I/BC-064","program":"sota","name":"Shafer Butte","coordinates":[-116.0888,43.7716]},{"code":"W7I/BC-069","program":"sota","name":"Hawley Mountain","coordinates":[-116.0306,43.9923]},{"code":"W7I/BC-070","program":"sota","name":"Mores Mountain","coordinates":[-116.093,43.7906]},{"code":"W7I/BC-074","program":"sota","name":"7057","coordinates":[-116.0495,43.9293]},{"code":"W7I/BC-077","program":"sota","name":"6624","coordinates":[-116.0406,43.8294]},{"code":"W7I/BC-089","program":"sota","name":"Stack Rock","coordinates":[-116.1638,43.7521]},{"code":"W7I/BC-091","program":"sota","name":"5179","coordinates":[-116.204,43.8089]},{"code":"W7I/BC-094","program":"sota","name":"4727","coordinates":[-116.2345,43.9511]},{"code":"W7I/BC-097","program":"sota","name":"4602","coordinates":[-116.192,43.8636]},{"code":"W7I/BC-098","program":"sota","name":"Mount Maria","coordinates":[-116.188,43.9569]}]}