{"lat":43.75,"lon":10.5,"programs":["gma","pota","sota"],"count":19,"references":[{"code":"IT/TO-1011","program":"gma","name":"Col di Pozzo","coordinates":[10.57005998,43.92637525]},{"code":"IT/TO-1013","program":"gma","name":"Croce di Brancoli","coordinates":[10.525,43.948]},{"code":"IT/TO-1020","program":"gma","name":"Montechiari (Area verde I Comunali)","coordinates":[10.658787,43.854452]},{"code":"IT/TO-1021","program":"gma","name":"Monte Scarpiglione","coordinates":[10.607745,43.917305]},{"code":"IT/TO-1022","program":"gma","name":"Monte Quercia del Papa","coordinates":[10.614547,43.913812]},{"code":"IT-0069","program":"pota","name":"Bonifica della Gherardesca Natura 2000","coordinates":[10.6111,43.7803]},{"code":"IT-0241","program":"pota","name":"Lago di Sibolla Natura 2000","coordinates":[10.7011,43.8264]},{"code":"IT-0595","program":"pota","name":"Monte Pisano Natura 2000","coordinates":[10.5233,43.7692]},{"code":"IT-0999","program":"pota","name":"Ex alveo del Lago di Bientina Natura 2000","coordinates":[10.6228,43.7717]},{"code":"IT-1181","program":"pota","name":"Padule di Verciano, Prati alle Fontane e Padule delle Monache Natura 2000","coordinates":[10.5252,43.8207]},{"code":"IT-1204","program":"pota","name":"Alta Valle del Torrente Pescia di Pescia Natura 2000","coordinates":[10.7157,43.9972]},{"code":"IT-1403","program":"pota","name":"A.N.P.I.L. Il Bottaccio Other Conservation Area","coordinates":[10.6298,43.7696]},{"code":"IT-1418","program":"pota","name":"A.N.P.I.L. Bosco di Tanali Regional Reserve","coordinates":[10.6253,43.7536]},{"code":"IT-1428","program":"pota","name":"Area verde i Comunali Recreation Site","coordinates":[10.6577,43.8544]},{"code":"I/TO-065","program":"sota","name":"Monte Battifolle","coordinates":[10.6773,43.9846]},{"code":"I/TO-079","program":"sota","name":"Crocione","coordinates":[10.6103,43.9615]},{"code":"I/TO-103","program":"sota","name":"Monte Perdoni – La Croce","coordinates":[10.7311,43.985]},{"code":"I/TO-166","program":"sota","name":"Monte Ventoso","coordinates":[10.5638,43.9879]},{"code":"I/TO-193","program":"sota","name":"Monte Castellaccio","coordinates":[10.5093,43.9241]}]}