{"lat":43.75,"lon":7.75,"programs":["gma","pota","sota"],"count":11,"references":[{"code":"IT/LG-1005","program":"gma","name":"Monte Grande","coordinates":[7.85389996,43.98669815]},{"code":"IT/LG-1007","program":"gma","name":"Monte Fenaira","coordinates":[7.85750008,43.99000168]},{"code":"IT/LG-1019","program":"gma","name":"Croce di Praesto","coordinates":[7.78030014,43.94279861]},{"code":"IT-0992","program":"pota","name":"Pompeiana Natura 2000","coordinates":[7.8938,43.8662]},{"code":"IT-1046","program":"pota","name":"Monte Carpasina Natura 2000","coordinates":[7.85361,43.9689]},{"code":"IT-1187","program":"pota","name":"Bassa Valle Armea Natura 2000","coordinates":[7.80833,43.8714]},{"code":"IT-1667","program":"pota","name":"Monte Ceppo Natura 2000","coordinates":[7.76222,43.9381]},{"code":"I/LG-002","program":"sota","name":"Monte Ceppo","coordinates":[7.7593,43.9381]},{"code":"I/LG-016","program":"sota","name":"Monte Faudo","coordinates":[7.8753,43.9082]},{"code":"I/LG-050","program":"sota","name":"Monte Carmo","coordinates":[7.8269,43.9156]},{"code":"I/LG-311","program":"sota","name":"Monte Moro","coordinates":[7.8812,43.9428]}]}