{"lat":43.75,"lon":0,"programs":["pota"],"count":23,"references":[{"code":"FR-2949","program":"pota","name":"LA GELISE FR7200741 Natura 2000","coordinates":[0.02242,43.921]},{"code":"FR-8659","program":"pota","name":"Bois de chenes-lièges des environs de Montreal Biological Reserve","coordinates":[0.1863,43.9797]},{"code":"FR-8701","program":"pota","name":"Etang, perte et resurgence de l'Oeil et du Trou du diable Biological Reserve","coordinates":[0.22519,43.8148]},{"code":"FR-8702","program":"pota","name":"Foret de Gondrin Biological Reserve","coordinates":[0.19947,43.862]},{"code":"FR-8703","program":"pota","name":"Lande du Broc Blanc Biological Reserve","coordinates":[0.18282,43.9032]},{"code":"FR-8705","program":"pota","name":"Tunnel de la Tenareze ou de Pomiro Biological Reserve","coordinates":[0.16154,43.9122]},{"code":"FR-8706","program":"pota","name":"Mare de Bazeilles Biological Reserve","coordinates":[0.22369,43.9173]},{"code":"FR-8707","program":"pota","name":"Mares temporaires de l´ancienne carriere de Cachiquet Biological Reserve","coordinates":[0.21957,43.9289]},{"code":"FR-12620","program":"pota","name":"Etangs et bois de Bordes et Seignebon Biological Reserve","coordinates":[0.136,43.774]},{"code":"FR-12621","program":"pota","name":"etang du Soucaret Biological Reserve","coordinates":[0.086,43.772]},{"code":"FR-12622","program":"pota","name":"Etang et bois du Loc Biological Reserve","coordinates":[0.077,43.779]},{"code":"FR-12623","program":"pota","name":"Etang du Moura et milieux bocagers environnant la Douze Biological Reserve","coordinates":[0.058,43.777]},{"code":"FR-12624","program":"pota","name":"Etangs et bois de Soules Biological Reserve","coordinates":[0.005,43.786]},{"code":"FR-12626","program":"pota","name":"Etangs et bois de La Hitaire Biological Reserve","coordinates":[0.139,43.869]},{"code":"FR-12627","program":"pota","name":"Etangs de Guerre et milieux annexes Biological Reserve","coordinates":[0.108,43.838]},{"code":"FR-12628","program":"pota","name":"Etangs et bois de la Castagnole et de la Bergeyre Biological Reserve","coordinates":[0.133,43.832]},{"code":"FR-12629","program":"pota","name":"Etang et bois de Lesquirle Biological Reserve","coordinates":[0.109,43.826]},{"code":"FR-12630","program":"pota","name":"Etangs du Gaillon, d'Enjoie, de PourquecEbes et du Chinan Biological Reserve","coordinates":[0.08,43.82]},{"code":"FR-12631","program":"pota","name":"Etangs du Pouy et de Porte Biological Reserve","coordinates":[0.038,43.816]},{"code":"FR-12632","program":"pota","name":"Etangs du Juge et du Rechou Biological Reserve","coordinates":[0.036,43.855]},{"code":"FR-12633","program":"pota","name":"Etang de la Hitere et bois de Trianon Biological Reserve","coordinates":[0.032,43.849]},{"code":"FR-12654","program":"pota","name":"Ensemble d'etangs du ruisseau de Castillon Biological Reserve","coordinates":[0.099,43.961]},{"code":"FR-12655","program":"pota","name":"Etangs, bois et landes de Mayrosse, Barran, Chiro et Marin Biological Reserve","coordinates":[0.101,43.933]}]}