{"lat":44,"lon":10.5,"programs":["gma","pota","sota"],"count":28,"references":[{"code":"IT/ER-1012","program":"gma","name":"Monte Cimoncino","coordinates":[10.70499992,44.19169998]},{"code":"IT/TO-1000","program":"gma","name":"Libro Aperto","coordinates":[10.71329975,44.1568985]},{"code":"IT/TO-1008","program":"gma","name":"Monte Rondinaio","coordinates":[10.59389973,44.11610031]},{"code":"IT/TO-1017","program":"gma","name":"Cima dell Omo","coordinates":[10.5534,44.1428]},{"code":"IT-0639","program":"pota","name":"Alto Appennino Modenese o Parco del Frignano Provincial Park Reserve","coordinates":[10.5474,44.1647]},{"code":"IT-1044","program":"pota","name":"Monte Cimone, Libro Aperto, Lago di Pratignano Natura 2000","coordinates":[10.7189,44.1742]},{"code":"IT-1535","program":"pota","name":"Alpesigola, Sasso Tignoso e Monte Cantiere Natura 2000","coordinates":[10.5783,44.2456]},{"code":"IT-0265","program":"pota","name":"Pian degli Ontani Natura 2000","coordinates":[10.6997,44.101]},{"code":"IT-0288","program":"pota","name":"Orrido di Botri Natura 2000","coordinates":[10.6247,44.0897]},{"code":"IT-0571","program":"pota","name":"Campolino Natura 2000","coordinates":[10.6631,44.1121]},{"code":"IT-0599","program":"pota","name":"Abetone Natura 2000","coordinates":[10.6757,44.1389]},{"code":"IT-1024","program":"pota","name":"Monte Romecchio - Monte Rondinaio - Poggione Natura 2000","coordinates":[10.5941,44.1134]},{"code":"IT-1459","program":"pota","name":"Zone calcaree della Val di Lima e del Balzo Nero Natura 2000","coordinates":[10.7081,44.069]},{"code":"IT-1460","program":"pota","name":"Monte Prato Fiorito - Monte Coronato - Valle dello Scesta Natura 2000","coordinates":[10.6445,44.0661]},{"code":"IT-1534","program":"pota","name":"Alta Valle del Sestaione Natura 2000","coordinates":[10.655,44.1189]},{"code":"IT-1864","program":"pota","name":"Libro Aperto - Cima Tauffi Natura 2000","coordinates":[10.7397,44.1514]},{"code":"I/ER-008","program":"sota","name":"Monte Nuda","coordinates":[10.579,44.1607]},{"code":"I/ER-015","program":"sota","name":"Alpesigola","coordinates":[10.5742,44.2361]},{"code":"I/ER-017","program":"sota","name":"Monte Modino","coordinates":[10.6239,44.1702]},{"code":"I/ER-315","program":"sota","name":"Monte Cimone","coordinates":[10.699,44.1937]},{"code":"I/TO-002","program":"sota","name":"Alpe Tre Potenze","coordinates":[10.6317,44.1159]},{"code":"I/TO-021","program":"sota","name":"Monte Mosca","coordinates":[10.6348,44.0799]},{"code":"I/TO-040","program":"sota","name":"Monte di Limano","coordinates":[10.6716,44.0658]},{"code":"I/TO-052","program":"sota","name":"Penna di Lucchio","coordinates":[10.7055,44.0243]},{"code":"I/TO-061","program":"sota","name":"Case Nencini – Quota 1131","coordinates":[10.7005,44.0114]},{"code":"I/TO-067","program":"sota","name":"La Bastia","coordinates":[10.741,44.0063]},{"code":"I/TO-310","program":"sota","name":"Monte Giovo","coordinates":[10.5758,44.132]},{"code":"I/TO-312","program":"sota","name":"Monte Prato Fiorito","coordinates":[10.6248,44.0521]}]}