{"lat":44,"lon":-110.75,"programs":["pota","sota"],"count":7,"references":[{"code":"US-0698","program":"pota","name":"John D. Rockefeller Jr. National Parkway","coordinates":[-110.688,44.1325]},{"code":"US-6226","program":"pota","name":"Jedediah Smith Wilderness Area","coordinates":[-110.53,44.04]},{"code":"W7Y/TT-102","program":"sota","name":"Wildcat Peak","coordinates":[-110.5674,44.0457]},{"code":"W7Y/TT-109","program":"sota","name":"Huckleberry Mountain","coordinates":[-110.6004,44.0879]},{"code":"W7Y/TT-112","program":"sota","name":"9525","coordinates":[-110.5894,44.0331]},{"code":"W7Y/TT-148","program":"sota","name":"8413","coordinates":[-110.5273,44.1759]},{"code":"W7Y/TT-157","program":"sota","name":"Steamboat Mountain","coordinates":[-110.7032,44.0477]}]}