{"lat":44,"lon":-66.25,"programs":["pota","wwbota"],"count":5,"references":[{"code":"CA-0467","program":"pota","name":"Mavillette Beach Provincial Park","coordinates":[-66.1811,44.0816]},{"code":"CA-0950","program":"pota","name":"Smuggler's Cove Provincial Park","coordinates":[-66.1819,44.1707]},{"code":"CA-1739","program":"pota","name":"Cedar Lake Nature Reserve","coordinates":[-66.1137,44.0138]},{"code":"CA-6179","program":"pota","name":"Cape St. Mary's Lighthouse National Heritage Site","coordinates":[-66.2107,44.0857]},{"code":"B/CA-0810","program":"wwbota","name":"FRP HJJQ4","coordinates":[-66.1623348,44.18746743]}]}