{"lat":44,"lon":-73.25,"programs":["sota"],"count":7,"references":[{"code":"W1/GM-041","program":"sota","name":"Hogback Mountains","coordinates":[-73.0608,44.1375]},{"code":"W1/GM-049","program":"sota","name":"Robert Frost Mountain","coordinates":[-73.0486,44.0206]},{"code":"W1/GM-095","program":"sota","name":"Hogback","coordinates":[-73.1286,44.2186]},{"code":"W1/GM-120","program":"sota","name":"Pt. 2325","coordinates":[-73.05,44.0994]},{"code":"W1/GM-165","program":"sota","name":"Pt. 1663","coordinates":[-73.0794,44.1994]},{"code":"W1/GM-180","program":"sota","name":"Buck Mountain","coordinates":[-73.2339,44.1258]},{"code":"W1/GM-226","program":"sota","name":"Mount Fuller","coordinates":[-73.1878,44.2458]}]}