{"lat":44,"lon":17.5,"programs":["gma","pota","sota"],"count":20,"references":[{"code":"E7/BO-138","program":"gma","name":"Kalin","coordinates":[17.5324,44.0984]},{"code":"E7/BO-147","program":"gma","name":"KamenjaÅ¡","coordinates":[17.5321,44.1657]},{"code":"E7/BO-165","program":"gma","name":"BrezovaÄa","coordinates":[17.6338,44.025]},{"code":"E7/BO-171","program":"gma","name":"Humska Gradina","coordinates":[17.5674,44.0444]},{"code":"E7/BO-215","program":"gma","name":"Tikvina","coordinates":[17.6059,44.0004]},{"code":"E7/BO-235","program":"gma","name":"Vihorac","coordinates":[17.5884,44.1142]},{"code":"E7/BO-255","program":"gma","name":"Kicelj","coordinates":[17.6249,44.2007]},{"code":"E7/BO-372","program":"gma","name":"Gradina","coordinates":[17.7191,44.1636]},{"code":"BA-0112","program":"pota","name":"Kula National Monument","coordinates":[17.5123,44.0159]},{"code":"BA-0114","program":"pota","name":"Stari grad Travnik National Monument","coordinates":[17.6702,44.2296]},{"code":"BA-0152","program":"pota","name":"Nekropola Bistro National Monument","coordinates":[17.651,44.1099]},{"code":"BA-0161","program":"pota","name":"Plava voda National Monument","coordinates":[17.6722,44.23]},{"code":"E7/BO-138","program":"sota","name":"Kalin","coordinates":[17.5324,44.0984]},{"code":"E7/BO-147","program":"sota","name":"Kamenjaš","coordinates":[17.5321,44.1657]},{"code":"E7/BO-165","program":"sota","name":"Brezovača","coordinates":[17.6338,44.025]},{"code":"E7/BO-171","program":"sota","name":"Humska Gradina","coordinates":[17.5674,44.0444]},{"code":"E7/BO-215","program":"sota","name":"Tikvina","coordinates":[17.6059,44.0004]},{"code":"E7/BO-235","program":"sota","name":"Vihorac","coordinates":[17.5884,44.1142]},{"code":"E7/BO-255","program":"sota","name":"Kicelj","coordinates":[17.6249,44.2007]},{"code":"E7/BO-372","program":"sota","name":"Gradina","coordinates":[17.7191,44.1636]}]}