{"lat":44,"lon":-79.25,"programs":["pota","sota"],"count":6,"references":[{"code":"CA-5557","program":"pota","name":"East Duffins Headwaters Conservation Area","coordinates":[-79.1018,44.0061]},{"code":"CA-5560","program":"pota","name":"West Duffins Headwaters Conservation Area","coordinates":[-79.184,44.0081]},{"code":"CA-5988","program":"pota","name":"Crow's Pass Conservation Area","coordinates":[-79.0375,44.0319]},{"code":"CA-5997","program":"pota","name":"Beaver River Wetland Conservation Area","coordinates":[-79.0519,44.2397]},{"code":"CA-6329","program":"pota","name":"Uxbridge Urban Provincial Park","coordinates":[-79.1403,44.0782]},{"code":"VE3/SO-101","program":"sota","name":"VE3/SO-101","coordinates":[-79.0747,44.0309]}]}