{"lat":44,"lon":28.5,"programs":["pota","wwbota"],"count":12,"references":[{"code":"RO-0046","program":"pota","name":"Tăbăcărie Park","coordinates":[28.631,44.2104]},{"code":"RO-0047","program":"pota","name":"Carol I Park","coordinates":[28.658,44.1729]},{"code":"RO-0048","program":"pota","name":"Cazinoului Park","coordinates":[28.6622,44.1706]},{"code":"RO-0361","program":"pota","name":"Dunele marine de la Agigea Marine Park","coordinates":[28.6427,44.0883]},{"code":"RO-0362","program":"pota","name":"Plaja submersa Eforie Nord National Park","coordinates":[28.6499,44.04]},{"code":"RO-0364","program":"pota","name":"Techirghiol National Lakeshore","coordinates":[28.6153,44.0392]},{"code":"RO-1266","program":"pota","name":"Marea Neagră Biological Reserve","coordinates":[28.7133,44.1001]},{"code":"B/YO-0007","program":"wwbota","name":"Constanta Casino Bunker","coordinates":[28.6634,44.1704]},{"code":"B/YO-0012","program":"wwbota","name":"Eforie 1950-1955 Bunker","coordinates":[28.6474,44.0431]},{"code":"B/YO-0210","program":"wwbota","name":"Tuzla Bunker","coordinates":[28.6529,44.00638]},{"code":"B/YO-0241","program":"wwbota","name":"Constanta Casino Bunker 1","coordinates":[28.665562,44.171999]},{"code":"B/YO-0242","program":"wwbota","name":"Constanta Casino Bunker 2","coordinates":[28.665592,44.172101]}]}