{"lat":44,"lon":19.5,"programs":["gma","pota","sota"],"count":10,"references":[{"code":"E7/BO-459","program":"gma","name":"Bandera","coordinates":[19.5951,44.0481]},{"code":"RS-0028","program":"pota","name":"Kanjon reke Trešnjice Nature Reserve","coordinates":[19.5404,44.1455]},{"code":"E7/BO-459","program":"sota","name":"Bandera","coordinates":[19.5951,44.0481]},{"code":"YU/ZS-053","program":"sota","name":"Mali Povlen","coordinates":[19.74028,44.13059]},{"code":"YU/ZS-067","program":"sota","name":"Jablanik","coordinates":[19.66684,44.17646]},{"code":"YU/ZS-068","program":"sota","name":"Tornička Bobija","coordinates":[19.55446,44.19688]},{"code":"YU/ZS-076","program":"sota","name":"Medvednik","coordinates":[19.63641,44.21045]},{"code":"YU/ZS-078","program":"sota","name":"Svilena stena","coordinates":[19.6311,44.10077]},{"code":"YU/ZS-102","program":"sota","name":"Pajkovača","coordinates":[19.61884,44.22919]},{"code":"YU/ZS-111","program":"sota","name":"Ozrim","coordinates":[19.53198,44.17591]}]}