{"lat":44,"lon":16.75,"programs":["gma","pota","sota"],"count":15,"references":[{"code":"E7/BO-120","program":"gma","name":"Smiljevac","coordinates":[16.9957,44.193]},{"code":"E7/BO-121","program":"gma","name":"Skale","coordinates":[16.8844,44.1858]},{"code":"E7/BO-127","program":"gma","name":"Kurozeb","coordinates":[16.8861,44.2241]},{"code":"E7/BO-130","program":"gma","name":"Jastrebnjak","coordinates":[16.9439,44.2015]},{"code":"E7/BO-154","program":"gma","name":"Ä†uleglava","coordinates":[16.8351,44.2496]},{"code":"E7/BO-298","program":"gma","name":"Obljaj","coordinates":[16.7501,44.1809]},{"code":"BA-0026","program":"pota","name":"Cicelj Protected Landscape Area","coordinates":[16.9352,44.0026]},{"code":"BA-0120","program":"pota","name":"Stari grad Glamoč National Monument","coordinates":[16.8437,44.0416]},{"code":"E7/BO-120","program":"sota","name":"Smiljevac","coordinates":[16.9957,44.193]},{"code":"E7/BO-121","program":"sota","name":"Skale","coordinates":[16.8844,44.1858]},{"code":"E7/BO-127","program":"sota","name":"Kurozeb","coordinates":[16.8861,44.2241]},{"code":"E7/BO-130","program":"sota","name":"Jastrebnjak","coordinates":[16.9439,44.2015]},{"code":"E7/BO-154","program":"sota","name":"Ćuleglava","coordinates":[16.8351,44.2496]},{"code":"E7/BO-298","program":"sota","name":"Obljaj","coordinates":[16.7501,44.1809]},{"code":"E7/HA-120","program":"sota","name":"Veliki Rajan","coordinates":[16.8558,44.0295]}]}