{"lat":44,"lon":5.5,"programs":["pota","sota"],"count":17,"references":[{"code":"FR-3362","program":"pota","name":"PELOUSES FOURRES ET FORETS DE LARRAN DU PIED DU MULET ET DE LA MONTAGNE DE CHABRE  FR8201694 Natura 2000","coordinates":[5.65694,44.1569]},{"code":"F/AM-423","program":"sota","name":"Combe Saint Barthelemy","coordinates":[5.7257,44.1194]},{"code":"F/AM-424","program":"sota","name":"Montagne de Mare","coordinates":[5.7375,44.201]},{"code":"F/AM-459","program":"sota","name":"Sommet de Fléossier","coordinates":[5.7425,44.226]},{"code":"F/AM-469","program":"sota","name":"Le Treboux","coordinates":[5.6787,44.1462]},{"code":"F/AM-470","program":"sota","name":"Montagne du Pied du Mulet","coordinates":[5.6865,44.1952]},{"code":"F/AM-505","program":"sota","name":"Le Jambard","coordinates":[5.5693,44.1671]},{"code":"F/AM-569","program":"sota","name":"Crête des Blaches de Paillar","coordinates":[5.6914,44.1614]},{"code":"F/AM-597","program":"sota","name":"Pic Bouine","coordinates":[5.685,44.07]},{"code":"F/CR-038","program":"sota","name":"Montagne de Palle","coordinates":[5.5994,44.1944]},{"code":"F/CR-051","program":"sota","name":"Montagne d’Albion","coordinates":[5.5447,44.1657]},{"code":"F/CR-063","program":"sota","name":"Montagne de Bergies","coordinates":[5.5125,44.2039]},{"code":"F/CR-091","program":"sota","name":"Crête de Serrière","coordinates":[5.5731,44.2012]},{"code":"F/CR-104","program":"sota","name":"Chassenaye","coordinates":[5.5222,44.2347]},{"code":"F/CR-116","program":"sota","name":"Gonson","coordinates":[5.5561,44.2322]},{"code":"F/CR-133","program":"sota","name":"Le Défens","coordinates":[5.6639,44.2314]},{"code":"F/CR-149","program":"sota","name":"Montagne d'Ozeron","coordinates":[5.6217,44.235]}]}