{"lat":44,"lon":-115,"programs":["gma","pota","sota"],"count":16,"references":[{"code":"XW7I/CU-099","program":"gma","name":"Heyburn Mountain","coordinates":[-114.97669983,44.10100174]},{"code":"US-7362","program":"pota","name":"Sawtooth National Recreation Area","coordinates":[-114.935,44.2158]},{"code":"US-7832","program":"pota","name":"Stanley Airstrip State Recreation Area","coordinates":[-114.935,44.2086]},{"code":"US-10443","program":"pota","name":"Sawtooth State Fish Hatchery","coordinates":[-114.884,44.15]},{"code":"W7I/BC-001","program":"sota","name":"Mount Cramer","coordinates":[-114.9826,44.0112]},{"code":"W7I/BC-003","program":"sota","name":"Braxon Peak","coordinates":[-114.9969,44.0934]},{"code":"W7I/CU-071","program":"sota","name":"Decker Peak","coordinates":[-114.9676,44.0428]},{"code":"W7I/CU-121","program":"sota","name":"Lookout Mountain","coordinates":[-114.7589,44.1926]},{"code":"W7I/CU-127","program":"sota","name":"Little Decker","coordinates":[-114.9561,44.0662]},{"code":"W7I/CU-128","program":"sota","name":"Prospect Point","coordinates":[-114.7556,44.2197]},{"code":"W7I/CU-142","program":"sota","name":"9780","coordinates":[-114.8178,44.1627]},{"code":"W7I/CU-158","program":"sota","name":"Rough","coordinates":[-114.8085,44.1802]},{"code":"W7I/CU-211","program":"sota","name":"Pigtail Benchmark","coordinates":[-114.7892,44.1167]},{"code":"W7I/CU-279","program":"sota","name":"8533","coordinates":[-114.758,44.0803]},{"code":"W7I/CU-339","program":"sota","name":"7183","coordinates":[-114.9895,44.2403]},{"code":"W7I/CU-350","program":"sota","name":"Heyburn Mountain","coordinates":[-114.9783,44.1009]}]}