{"lat":44,"lon":12,"programs":["pota","sota"],"count":6,"references":[{"code":"IT-0344","program":"pota","name":"Bosco di Scardavilla, Ravaldino Natura 2000","coordinates":[12.0136,44.1397]},{"code":"IT-1061","program":"pota","name":"Meandri del Fiume Ronco Natura 2000","coordinates":[12.0919,44.1731]},{"code":"IT-1567","program":"pota","name":"Fiordinano, Monte Velbe Natura 2000","coordinates":[12.015,44.0793]},{"code":"IT-1568","program":"pota","name":"Rio Mattero e Rio Cuneo Natura 2000","coordinates":[12.2039,44.0564]},{"code":"I/ER-092","program":"sota","name":"Monte Cavallo","coordinates":[12.1293,44.069]},{"code":"I/ER-095","program":"sota","name":"Montecodruzzo","coordinates":[12.2408,44.03]}]}