{"lat":44,"lon":-70,"programs":["pota"],"count":6,"references":[{"code":"US-2400","program":"pota","name":"Peacock Beach State Park","coordinates":[-69.8648,44.1598]},{"code":"US-8288","program":"pota","name":"Colburn House State Historic Site","coordinates":[-69.7538,44.1981]},{"code":"US-8450","program":"pota","name":"Merrymeeting Bay Wildlife Management Area","coordinates":[-69.8345,44.0336]},{"code":"US-8458","program":"pota","name":"Caesar Pond Wildlife Management Area","coordinates":[-69.9942,44.065]},{"code":"US-8466","program":"pota","name":"Steve Powell (Swan Island) Wildlife Management Area","coordinates":[-69.7948,44.0872]},{"code":"US-13146","program":"pota","name":"Green Point Wildlife Management Area","coordinates":[-69.7729,44.0575]}]}