{"lat":44,"lon":4.5,"programs":["pota","sota"],"count":13,"references":[{"code":"FR-2777","program":"pota","name":"ETANG ET MARES DE LA CAPELLE FR9101402 NATURA 2000 Natura 2000","coordinates":[4.54028,44.0408]},{"code":"FR-3896","program":"pota","name":"Marais de l'Ile Vieille et alentour Natura 2000","coordinates":[4.69,44.2189]},{"code":"FR-14000","program":"pota","name":"Pelouses de Pougnadoresse Biological Reserve","coordinates":[4.518,44.085]},{"code":"FR-14001","program":"pota","name":"Mares de la Capelle-et-Masmolene Biological Reserve","coordinates":[4.522,44.047]},{"code":"FR-14002","program":"pota","name":"Etang de la Capelle Biological Reserve","coordinates":[4.536,44.048]},{"code":"FR-14003","program":"pota","name":"Etang de Valliguieres Biological Reserve","coordinates":[4.592,44.009]},{"code":"FR-14017","program":"pota","name":"Vallee aval de la Ceze Flora and Fauna Reserve","coordinates":[4.644,44.179]},{"code":"FR-4749","program":"pota","name":"Le Rhone Biological Reserve","coordinates":[4.72595,44.0795]},{"code":"FR-4826","program":"pota","name":"le vieux rhone de l'ile vieille et des casiers de lamiat Biological Reserve","coordinates":[4.68606,44.2236]},{"code":"FR-4857","program":"pota","name":"le vieux rhone de la piboulette et des broteaux Biological Reserve","coordinates":[4.743,44.0904]},{"code":"F/CR-264","program":"sota","name":"Roc Durand","coordinates":[4.6606,44.1811]},{"code":"F/CR-267","program":"sota","name":"Plateau de Lacau","coordinates":[4.6439,44.1197]},{"code":"F/CR-330","program":"sota","name":"Sal Del Micou","coordinates":[4.546,44.2409]}]}