{"lat":44,"lon":3,"programs":["gma","pota","sota"],"count":12,"references":[{"code":"FA/MC-020","program":"gma","name":"Camp du Larzac","coordinates":[3.23530006,44.03030014]},{"code":"FR-2970","program":"pota","name":"CIRQUE ET GROTTE DU BOUNDOULAOU  FR7300859 Natura 2000","coordinates":[3.04139,44.0711]},{"code":"FR-3340","program":"pota","name":"CAUSSE NOIR ET SES CORNICHES  FR7300855 Natura 2000","coordinates":[3.23722,44.1611]},{"code":"FR-3345","program":"pota","name":"BUTTES TEMOINS DES AVANT CAUSSES  FR7300854 Natura 2000","coordinates":[3.11444,44.1847]},{"code":"FR-3989","program":"pota","name":"Gorges du Tarn et de la Jonte Natura 2000","coordinates":[3.23528,44.1689]},{"code":"FR-4138","program":"pota","name":"Chaos ruiniforme du Rajal Del Gorp Natura 2000","coordinates":[3.11778,44.0578]},{"code":"FR-4148","program":"pota","name":"Gorges du Tarn Natura 2000","coordinates":[3.21722,44.2164]},{"code":"FR-4157","program":"pota","name":"Les Alasses Natura 2000","coordinates":[3.18278,44.0675]},{"code":"F/MC-114","program":"sota","name":"Puech d'Andan","coordinates":[3.0556,44.1372]},{"code":"F/MC-121","program":"sota","name":"Puech de Suège","coordinates":[3.1129,44.2096]},{"code":"F/MC-124","program":"sota","name":"Luzergue","coordinates":[3.1064,44.1817]},{"code":"F/MC-130","program":"sota","name":"Puech de Fontaneilles","coordinates":[3.1338,44.2066]}]}