{"lat":44,"lon":-74.75,"programs":["sota"],"count":8,"references":[{"code":"W2/GA-093","program":"sota","name":"Long Tom Mountain","coordinates":[-74.6996,44.1383]},{"code":"W2/GA-094","program":"sota","name":"Silver Lake Mountain","coordinates":[-74.6946,44.1215]},{"code":"W2/GA-095","program":"sota","name":"Arab Mountain","coordinates":[-74.585,44.2039]},{"code":"W2/GA-096","program":"sota","name":"Dog Pond Mountain","coordinates":[-74.7233,44.1685]},{"code":"W2/GA-097","program":"sota","name":"2372","coordinates":[-74.5637,44.126]},{"code":"W2/GA-098","program":"sota","name":"Buck Mountain","coordinates":[-74.6458,44.1764]},{"code":"W2/GA-328","program":"sota","name":"Buck Mountain D","coordinates":[-74.5328,44.0526]},{"code":"W2/GA-333","program":"sota","name":"2329","coordinates":[-74.6757,44.0509]}]}