{"lat":44,"lon":16.5,"programs":["gma","sota"],"count":9,"references":[{"code":"E7/BO-017","program":"gma","name":"Veliki Å ator","coordinates":[16.5897007,44.15639877]},{"code":"E7/BO-020","program":"gma","name":"Veliki Å ator","coordinates":[16.62100029,44.17129898]},{"code":"E7/BO-115","program":"gma","name":"Bundina Kosa","coordinates":[16.6992,44.1063]},{"code":"E7/BO-017","program":"sota","name":"Veliki Šator","coordinates":[16.5894,44.1564]},{"code":"E7/BO-020","program":"sota","name":"Babina Greda","coordinates":[16.6205,44.1713]},{"code":"E7/BO-115","program":"sota","name":"Bundina Kosa","coordinates":[16.6992,44.1063]},{"code":"E7/HA-073","program":"sota","name":"Bunjevačko Brdo","coordinates":[16.5366,44.0632]},{"code":"E7/HA-074","program":"sota","name":"Klečari","coordinates":[16.5405,44.0037]},{"code":"E7/HA-091","program":"sota","name":"Vrhovi","coordinates":[16.7202,44.0341]}]}