{"lat":44,"lon":9.5,"programs":["gma","pota","sota","wwbota"],"count":18,"references":[{"code":"IT/LG-1024","program":"gma","name":"Monte Rossola","coordinates":[9.6019001,44.18579865]},{"code":"IT-0665","program":"pota","name":"Parco Nazionale delle Cinque Terre National Park","coordinates":[9.71256,44.1233]},{"code":"IT-1088","program":"pota","name":"Guaitarola Natura 2000","coordinates":[9.58056,44.2211]},{"code":"IT-1122","program":"pota","name":"Costa Riomaggiore - Monterosso Natura 2000","coordinates":[9.69361,44.1289]},{"code":"IT-1532","program":"pota","name":"Punta Mesco Natura 2000","coordinates":[9.62722,44.1542]},{"code":"IT-1729","program":"pota","name":"Monte Serro Natura 2000","coordinates":[9.53278,44.2153]},{"code":"IT-1730","program":"pota","name":"Costa di Bonassola - Framura Natura 2000","coordinates":[9.57472,44.19]},{"code":"IT-1731","program":"pota","name":"Zona Carsica Pignone Natura 2000","coordinates":[9.72444,44.1739]},{"code":"IT-1732","program":"pota","name":"Zona Carsica Cassana Natura 2000","coordinates":[9.69472,44.2069]},{"code":"I/LG-045","program":"sota","name":"Monte Malpertuso","coordinates":[9.705,44.1564]},{"code":"I/LG-049","program":"sota","name":"Monte Capri","coordinates":[9.7425,44.1269]},{"code":"I/LG-052","program":"sota","name":"Monte Guaitarola","coordinates":[9.5918,44.2141]},{"code":"I/LG-056","program":"sota","name":"Monte Pistone","coordinates":[9.6507,44.207]},{"code":"I/LG-058","program":"sota","name":"Monte Pizzolo","coordinates":[9.675,44.1731]},{"code":"I/LG-074","program":"sota","name":"Monte Vè / Focone","coordinates":[9.6247,44.1526]},{"code":"B/IT-0095","program":"wwbota","name":"Bunker (Punta Corone / Liguria )","coordinates":[9.65946,44.14332]},{"code":"B/IT-0096","program":"wwbota","name":"Bunker (Liguria )","coordinates":[9.58453,44.18044]},{"code":"B/IT-0097","program":"wwbota","name":"Bunker (Piazzale Cannoni  / Liguria )","coordinates":[9.56913,44.18365]}]}