{"lat":44,"lon":9.75,"programs":["pota","sota","wwbota"],"count":18,"references":[{"code":"IT-0695","program":"pota","name":"Isola Palmaria Natura 2000","coordinates":[9.84444,44.0419]},{"code":"IT-0699","program":"pota","name":"Montemarcello Natura 2000","coordinates":[9.94556,44.0739]},{"code":"IT-0926","program":"pota","name":"Parco della Magra - Vara Natura 2000","coordinates":[9.86444,44.1722]},{"code":"IT-0989","program":"pota","name":"Portovenere - Riomaggiore - S. Benedetto Natura 2000","coordinates":[9.77194,44.1028]},{"code":"IT-1005","program":"pota","name":"Piana del Magra Natura 2000","coordinates":[9.99167,44.0611]},{"code":"IT-1123","program":"pota","name":"Costa di Maralunga Natura 2000","coordinates":[9.9158,44.0672]},{"code":"IT-1148","program":"pota","name":"Brina e Nuda di Ponzano Natura 2000","coordinates":[9.93611,44.1475]},{"code":"IT-1410","program":"pota","name":"A.N.P.I.L. Fiume Magra in Lunigiana Other Conservation Area","coordinates":[9.96002,44.2245]},{"code":"I/LG-063","program":"sota","name":"Monte Croce","coordinates":[9.8138,44.1661]},{"code":"I/LG-077","program":"sota","name":"Monte Rocchetta","coordinates":[9.9372,44.0717]},{"code":"I/LG-080","program":"sota","name":"Monte Penna","coordinates":[9.7535,44.2]},{"code":"I/LG-081","program":"sota","name":"Monte Albano","coordinates":[9.8313,44.1416]},{"code":"I/LG-082","program":"sota","name":"Forte Canarbino","coordinates":[9.9106,44.0963]},{"code":"I/LG-083","program":"sota","name":"Forte Bastia","coordinates":[9.87,44.1397]},{"code":"I/LG-085","program":"sota","name":"Sommità dell'Isola Palmaria","coordinates":[9.8451,44.042]},{"code":"I/TO-151","program":"sota","name":"Monte Frascaro","coordinates":[9.9185,44.2267]},{"code":"I/TO-155","program":"sota","name":"Monte Croce del Bastione","coordinates":[9.9383,44.213]},{"code":"B/IT-0094","program":"wwbota","name":"Bunker (Puntabianca  / Liguria)","coordinates":[9.97774,44.03598]}]}