{"lat":44,"lon":-75.5,"programs":["pota"],"count":8,"references":[{"code":"US-5022","program":"pota","name":"Frank E. Jadwin State Forest","coordinates":[-75.3454,44.0581]},{"code":"US-5060","program":"pota","name":"Hogsback (Lewis County) State Forest","coordinates":[-75.4087,44.0959]},{"code":"US-5109","program":"pota","name":"Beartown State Forest","coordinates":[-75.4879,44.0126]},{"code":"US-5129","program":"pota","name":"Bonaparte's Cave State Forest","coordinates":[-75.3628,44.1529]},{"code":"US-5152","program":"pota","name":"California Road State Forest","coordinates":[-75.3703,44.2098]},{"code":"US-5225","program":"pota","name":"Onjebonge State Forest","coordinates":[-75.4639,44.0914]},{"code":"US-5287","program":"pota","name":"Sand Bay State Forest","coordinates":[-75.4037,44.1653]},{"code":"US-5341","program":"pota","name":"Toothaker Creek State Forest","coordinates":[-75.3027,44.2]}]}