{"lat":44,"lon":27.25,"programs":["pota"],"count":8,"references":[{"code":"BG-0175","program":"pota","name":"Medjit tabia National Historical Site","coordinates":[27.2567,44.1033]},{"code":"BG-0176","program":"pota","name":"Dunavska gradina Recreation Park","coordinates":[27.2595,44.1199]},{"code":"RO-0427","program":"pota","name":"Iezerul Călărași Reserve","coordinates":[27.2579,44.2361]},{"code":"RO-0436","program":"pota","name":"Plaja Mare Calarași Recreation Site","coordinates":[27.3301,44.1863]},{"code":"RO-0437","program":"pota","name":"Plaja Podul 4 Recreation Site","coordinates":[27.3198,44.1578]},{"code":"RO-0438","program":"pota","name":"Central Călărași Park","coordinates":[27.333,44.1891]},{"code":"RO-0439","program":"pota","name":"Dumbrava Călărași Park","coordinates":[27.3209,44.1948]},{"code":"RO-0440","program":"pota","name":"Tonea Park","coordinates":[27.4093,44.2027]}]}