{"lat":44,"lon":4.75,"programs":["pota","sota"],"count":7,"references":[{"code":"FR-4117","program":"pota","name":"L Aigues ou Eygues ou Aygues Natura 2000","coordinates":[4.91667,44.2406]},{"code":"FR-3370","program":"pota","name":"LA SORGUE ET L AUZON  FR9301578 Natura 2000","coordinates":[4.94806,44.0339]},{"code":"FR-4750","program":"pota","name":"le vieux rhone des armeniers Biological Reserve","coordinates":[4.84438,44.0215]},{"code":"FR-4827","program":"pota","name":"massif de bollene-uchaux Biological Reserve","coordinates":[4.82266,44.2141]},{"code":"FR-4828","program":"pota","name":"l'ouveze Biological Reserve","coordinates":[4.95243,44.1305]},{"code":"FR-4858","program":"pota","name":"l'aygues Biological Reserve","coordinates":[4.92153,44.2169]},{"code":"F/CR-266","program":"sota","name":"La Roquette","coordinates":[4.8139,44.2311]}]}