{"lat":44,"lon":142.75,"programs":["sota"],"count":16,"references":[{"code":"JA8/KK-032","program":"sota","name":"Osatsutou","coordinates":[142.8781,44.0487]},{"code":"JA8/KK-039","program":"sota","name":"Oketodake","coordinates":[142.7702,44.0096]},{"code":"JA8/KK-050","program":"sota","name":"Iwaodake","coordinates":[142.7512,44.1377]},{"code":"JA8/KK-062","program":"sota","name":"JA8/KK-062","coordinates":[142.7828,44.1702]},{"code":"JA8/KK-071","program":"sota","name":"JA8/KK-071","coordinates":[142.765,44.2069]},{"code":"JA8/KK-086","program":"sota","name":"Nisamadake","coordinates":[142.784,44.1017]},{"code":"JA8/KK-089","program":"sota","name":"JA8/KK-089","coordinates":[142.7751,44.122]},{"code":"JA8/OH-008","program":"sota","name":"Shokotsudake","coordinates":[142.9174,44.0404]},{"code":"JA8/OH-021","program":"sota","name":"Wenshiridake","coordinates":[142.8763,44.2288]},{"code":"JA8/OH-030","program":"sota","name":"JA8/OH-030","coordinates":[142.8986,44.1881]},{"code":"JA8/OH-031","program":"sota","name":"JA8/OH-031","coordinates":[142.9534,44]},{"code":"JA8/OH-040","program":"sota","name":"JA8/OH-040","coordinates":[142.9503,44.0317]},{"code":"JA8/OH-052","program":"sota","name":"Nakanomine","coordinates":[142.9983,44.0571]},{"code":"JA8/OH-071","program":"sota","name":"JA8/OH-071","coordinates":[142.9227,44.2154]},{"code":"JA8/OH-072","program":"sota","name":"Okusakuru","coordinates":[142.9382,44.179]},{"code":"JA8/OH-079","program":"sota","name":"JA8/OH-079","coordinates":[142.9821,44.1594]}]}