{"lat":44,"lon":3.75,"programs":["gma","pota","sota"],"count":31,"references":[{"code":"FA/MC-021","program":"gma","name":"Signal Saint Michel","coordinates":[3.8994,44.22669983]},{"code":"FR-3004","program":"pota","name":"VALLEE DU GARDON DE MIALET  FR9101367 Natura 2000","coordinates":[3.795,44.1956]},{"code":"FR-3992","program":"pota","name":"Vallee du Galeizon Natura 2000","coordinates":[3.95806,44.1792]},{"code":"FR-4167","program":"pota","name":"Vallee du Gardon de Saint-Jean Natura 2000","coordinates":[3.76917,44.1083]},{"code":"FR-13177","program":"pota","name":"Lacan et Grand Bosc Biological Reserve","coordinates":[3.987,44.033]},{"code":"FR-13179","program":"pota","name":"Ruisseau du vidourle a Finiel Biological Reserve","coordinates":[3.817,44.004]},{"code":"FR-13216","program":"pota","name":"Vallee du Gardon de Saint-Jean entre Saumane et Saint-Jean-du-Gard Biological Reserve","coordinates":[3.767,44.114]},{"code":"FR-13217","program":"pota","name":"Riviere de la Salindrenque a Lasalle Biological Reserve","coordinates":[3.86,44.037]},{"code":"FR-13218","program":"pota","name":"Hautes vallees des Gardons Biological Reserve","coordinates":[3.933,44.085]},{"code":"FR-13219","program":"pota","name":"Rocher du Mas du Pont Biological Reserve","coordinates":[3.97,44.076]},{"code":"FR-13220","program":"pota","name":"Vallons autour du ruisseau de Roquefeuil Biological Reserve","coordinates":[3.971,44.089]},{"code":"FR-13810","program":"pota","name":"Vallee du Galeizon à St-Paul-la-Coste Biological Reserve","coordinates":[3.992,44.161]},{"code":"FR-13811","program":"pota","name":"Massif du Bois Negre et de Bois de Rouville Biological Reserve","coordinates":[3.942,44.086]},{"code":"FR-13812","program":"pota","name":"Cretes du col Saint-Pierre Biological Reserve","coordinates":[3.833,44.134]},{"code":"FR-13813","program":"pota","name":"Versant de Cabrespic Biological Reserve","coordinates":[3.856,44.158]},{"code":"FR-13814","program":"pota","name":"Ruisseau du Merlet Biological Reserve","coordinates":[3.848,44.192]},{"code":"FR-13815","program":"pota","name":"Vallee du Gardon de Saint-Martin Biological Reserve","coordinates":[3.821,44.187]},{"code":"FR-13816","program":"pota","name":"Vallee du Gardon de Saint-Germain a Saint-Germain-de-Calberte Biological Reserve","coordinates":[3.832,44.213]},{"code":"FR-13817","program":"pota","name":"Vallee du Gardon de Saint-Germain a la Broussarede Biological Reserve","coordinates":[3.804,44.228]},{"code":"FR-13820","program":"pota","name":"Ruisseaux du Lauzas et des Pradasses Biological Reserve","coordinates":[3.937,44.239]},{"code":"FR-13821","program":"pota","name":"Gardon d'Ales a la Grand-Combe Biological Reserve","coordinates":[3.979,44.243]},{"code":"FR-13986","program":"pota","name":"Versant sud du Gardon de Sainte-Croix Biological Reserve","coordinates":[3.752,44.187]},{"code":"FR-13988","program":"pota","name":"Vallon de Salt Biological Reserve","coordinates":[3.821,44.149]},{"code":"F/CR-102","program":"sota","name":"Le Fageas","coordinates":[3.7569,44.0744]},{"code":"F/CR-175","program":"sota","name":"Signal de Lichère","coordinates":[3.9508,44.217]},{"code":"F/CR-189","program":"sota","name":"Mont Brion","coordinates":[3.8415,44.08]},{"code":"F/CR-212","program":"sota","name":"Sommet de Combe Mâle","coordinates":[3.9413,44.1413]},{"code":"F/CR-238","program":"sota","name":"Burgas","coordinates":[3.9203,44.1104]},{"code":"F/MC-064","program":"sota","name":"Mont Mars","coordinates":[3.765,44.2447]},{"code":"F/MC-092","program":"sota","name":"Moncamp","coordinates":[3.8467,44.231]},{"code":"F/MC-105","program":"sota","name":"Montagne de la Vieille Morte","coordinates":[3.8899,44.1894]}]}