{"lat":44,"lon":-72.5,"programs":["pota","sota"],"count":11,"references":[{"code":"US-3139","program":"pota","name":"Ricker Pond State Park","coordinates":[-72.2535,44.2458]},{"code":"US-3142","program":"pota","name":"Seyon Lodge State Park","coordinates":[-72.3038,44.2271]},{"code":"US-5548","program":"pota","name":"Washington State Forest","coordinates":[-72.3805,44.0403]},{"code":"US-5551","program":"pota","name":"Jones State Forest","coordinates":[-72.3721,44.2275]},{"code":"W1/GM-012","program":"sota","name":"Signal Mountain","coordinates":[-72.325,44.2061]},{"code":"W1/GM-077","program":"sota","name":"Spruce Mountain","coordinates":[-72.355,44.2347]},{"code":"W1/GM-096","program":"sota","name":"Butterfield Mountain","coordinates":[-72.3392,44.1833]},{"code":"W1/GM-129","program":"sota","name":"Knox Mountain","coordinates":[-72.3561,44.1656]},{"code":"W1/GM-130","program":"sota","name":"Pt. 2444","coordinates":[-72.3714,44.1303]},{"code":"W1/GM-208","program":"sota","name":"Pt. 2702","coordinates":[-72.3142,44.2425]},{"code":"W1/GM-251","program":"sota","name":"Pt. 1900+","coordinates":[-72.4225,44.2181]}]}