{"lat":44,"lon":-1.5,"programs":["pota"],"count":6,"references":[{"code":"FR-2944","program":"pota","name":"ZONES HUMIDES DE L ANCIEN ETANG DE LIT ET MIXE FR7200715 Natura 2000","coordinates":[-1.26352,44.0495]},{"code":"FR-2945","program":"pota","name":"DUNES MODERNES DU LITTORAL LANDAIS DE MIMIZAN PLAGE AU VIEUX BOUCAU FR7200711 Natura 2000","coordinates":[-1.32472,44.0756]},{"code":"FR-8625","program":"pota","name":"DUNES LITTORALES DU BANC DE PINEAU A L'ADOUR Biological Reserve","coordinates":[-1.33599,44.0917]},{"code":"FR-10097","program":"pota","name":"ETANGS DE LA MAILLOUEYRE ET ZONE HUMIDE DE L'ARRIERE DUNE Biological Reserve","coordinates":[-1.29902,44.1925]},{"code":"FR-10098","program":"pota","name":"Pres sales du courant de Mimizan Biological Reserve","coordinates":[-1.28256,44.2079]},{"code":"FR-10109","program":"pota","name":"LA PLAINE DU PIGEON ET LE MARAIS DU MAHOURAT Biological Reserve","coordinates":[-1.25626,44.055]}]}