{"lat":44.25,"lon":6.25,"programs":["pota","sota"],"count":37,"references":[{"code":"FR-3277","program":"pota","name":"BOIS DE MORGON  FORET DE BOSCODON BRAGOUSSE  FR9301523 Natura 2000","coordinates":[6.41889,44.495]},{"code":"FR-3280","program":"pota","name":"COSTE PLANE CHAMPEROUS  FR9301525 Natura 2000","coordinates":[6.43667,44.4544]},{"code":"FR-3883","program":"pota","name":"Montagne de Val-Haut - Indices de Barles - Indices de Verdaches Natura 2000","coordinates":[6.28167,44.2686]},{"code":"FR-4116","program":"pota","name":"Lac st leger Natura 2000","coordinates":[6.33528,44.4203]},{"code":"FR-7641","program":"pota","name":"massif de la montagne de la blanche - vallon de la blanche de laverq - tete de l'estrop - montagne de l'ubac - haute vallee de la bleone Biological Reserve","coordinates":[6.46509,44.3372]},{"code":"FR-7642","program":"pota","name":"plateau et lacs de la montagne du col bas - vallons du loup, de provence et de l'ambouin Biological Reserve","coordinates":[6.40765,44.3885]},{"code":"FR-7644","program":"pota","name":"lac-tourbiere de saint-leger Biological Reserve","coordinates":[6.33461,44.42]},{"code":"FR-7645","program":"pota","name":"bassins de seyne-les-alpes et de sel Biological Reserve","coordinates":[6.32346,44.3642]},{"code":"FR-7646","program":"pota","name":"clue de verdaches - partie nord Biological Reserve","coordinates":[6.28798,44.2727]},{"code":"FR-7661","program":"pota","name":"plan d'eau de la retenue d'espinasses - chaussetive Biological Reserve","coordinates":[6.25172,44.4644]},{"code":"FR-11662","program":"pota","name":"foret domaniale de boscodon - cirque et foret de morgon - bois de bragousse - versant ouest de la crete du lauzet et du pouzenc Biological Reserve","coordinates":[6.44829,44.4845]},{"code":"FR-11691","program":"pota","name":"pic de morgon - le morgonnet Biological Reserve","coordinates":[6.38494,44.4926]},{"code":"FR-11692","program":"pota","name":"bas du versant adret de la vallee de l'ubaye entre roche rousse et le lauzet-ubaye Biological Reserve","coordinates":[6.4367,44.4524]},{"code":"FR-11693","program":"pota","name":"barjavel - clot des roux Biological Reserve","coordinates":[6.26869,44.4572]},{"code":"FR-11694","program":"pota","name":"sagnes de seyne Biological Reserve","coordinates":[6.25843,44.4412]},{"code":"FR-11695","program":"pota","name":"plateau d'iroire - vallon de negron Biological Reserve","coordinates":[6.30682,44.3259]},{"code":"FR-11721","program":"pota","name":"certes de chabanon - tete grosse - sauvegrous Biological Reserve","coordinates":[6.27851,44.3369]},{"code":"F/AM-201","program":"sota","name":"Sommet de Vautreuil","coordinates":[6.4892,44.2999]},{"code":"F/AM-220","program":"sota","name":"Roche Close","coordinates":[6.4611,44.3156]},{"code":"F/AM-265","program":"sota","name":"L'Aiguillette","coordinates":[6.4522,44.3352]},{"code":"F/AM-267","program":"sota","name":"La Moutière","coordinates":[6.4563,44.3304]},{"code":"F/AM-284","program":"sota","name":"Dormillouse","coordinates":[6.3866,44.4095]},{"code":"F/AM-287","program":"sota","name":"Sommet du Tromas","coordinates":[6.4822,44.2622]},{"code":"F/AM-298","program":"sota","name":"Tête de Louis XVI","coordinates":[6.4879,44.4174]},{"code":"F/AM-306","program":"sota","name":"Tête de la Vieille","coordinates":[6.4164,44.4693]},{"code":"F/AM-343","program":"sota","name":"Tête Grosse","coordinates":[6.2739,44.3314]},{"code":"F/AM-344","program":"sota","name":"Tourtourel","coordinates":[6.4295,44.3135]},{"code":"F/AM-347","program":"sota","name":"Sommet de Grisonnière","coordinates":[6.4136,44.2606]},{"code":"F/AM-353","program":"sota","name":"Clot de Bouc","coordinates":[6.3048,44.3072]},{"code":"F/AM-383","program":"sota","name":"Le Grand Puy","coordinates":[6.3807,44.3144]},{"code":"F/AM-397","program":"sota","name":"Charche","coordinates":[6.3394,44.2906]},{"code":"F/AM-411","program":"sota","name":"Cuguret","coordinates":[6.3752,44.286]},{"code":"F/AM-438","program":"sota","name":"Clot la Cime","coordinates":[6.2782,44.4439]},{"code":"F/AM-466","program":"sota","name":"La Montagne","coordinates":[6.3152,44.4185]},{"code":"F/AM-484","program":"sota","name":"Sansenu","coordinates":[6.3149,44.2779]},{"code":"F/AM-508","program":"sota","name":"Le Château","coordinates":[6.2957,44.374]},{"code":"F/AM-781","program":"sota","name":"Le Marzenc","coordinates":[6.2693,44.299]}]}