{"lat":44.25,"lon":18.75,"programs":["gma","pota","sota"],"count":20,"references":[{"code":"E7/BO-327","program":"gma","name":"Bandijerka","coordinates":[18.7684,44.2848]},{"code":"E7/BO-352","program":"gma","name":"Ravno Brdo","coordinates":[18.7887,44.3486]},{"code":"E7/BO-371","program":"gma","name":"BaÄkovac","coordinates":[18.8674,44.2736]},{"code":"E7/BO-389","program":"gma","name":"JeleÄ","coordinates":[18.9952,44.2943]},{"code":"E7/BO-390","program":"gma","name":"Borogovo","coordinates":[18.8613,44.3383]},{"code":"E7/BO-453","program":"gma","name":"Njivice","coordinates":[18.955,44.4683]},{"code":"E7/BO-461","program":"gma","name":"Ä†etino Brdo","coordinates":[18.9933,44.4225]},{"code":"E7/BO-479","program":"gma","name":"Vis","coordinates":[18.8544,44.4282]},{"code":"BA-0080","program":"pota","name":"Mramorje National Monument","coordinates":[18.9483,44.4237]},{"code":"BA-0081","program":"pota","name":"Nekropola Jasik National Monument","coordinates":[18.7672,44.3899]},{"code":"BA-0156","program":"pota","name":"Nekropola stećaka Bečani UNESCO Geopark","coordinates":[18.8449,44.3278]},{"code":"BA-0128","program":"pota","name":"Nekropola Mramorje National Monument","coordinates":[18.9483,44.4235]},{"code":"E7/BO-327","program":"sota","name":"Bandijerka","coordinates":[18.7684,44.2848]},{"code":"E7/BO-352","program":"sota","name":"Ravno Brdo","coordinates":[18.7887,44.3486]},{"code":"E7/BO-371","program":"sota","name":"Bačkovac","coordinates":[18.8674,44.2736]},{"code":"E7/BO-389","program":"sota","name":"Jeleč","coordinates":[18.9952,44.2943]},{"code":"E7/BO-390","program":"sota","name":"Borogovo","coordinates":[18.8613,44.3383]},{"code":"E7/BO-453","program":"sota","name":"Njivice","coordinates":[18.955,44.4683]},{"code":"E7/BO-461","program":"sota","name":"Ćetino Brdo","coordinates":[18.9933,44.4225]},{"code":"E7/BO-479","program":"sota","name":"Vis","coordinates":[18.8544,44.4282]}]}