{"lat":44.25,"lon":21.75,"programs":["pota","sota"],"count":8,"references":[{"code":"RS-0195","program":"pota","name":"Feljesana Nature Reserve","coordinates":[21.8874,44.3435]},{"code":"RS-0198","program":"pota","name":"Prerast Šuplja stena Natural Monument","coordinates":[21.9907,44.3621]},{"code":"RS-0200","program":"pota","name":"Mustafa Nature Reserve","coordinates":[21.8832,44.3766]},{"code":"RS-0133","program":"pota","name":"Homoljska potajnica Natural Monument","coordinates":[21.8114,44.2797]},{"code":"YU/IS-055","program":"sota","name":"Čoka Fantina (Kupinova glava)","coordinates":[21.80172,44.3141]},{"code":"YU/IS-079","program":"sota","name":"Starica","coordinates":[21.92833,44.43781]},{"code":"YU/IS-085","program":"sota","name":"Konjska glava","coordinates":[21.9665,44.43209]},{"code":"YU/IS-119","program":"sota","name":"Tilva Uroša (Tilva roš)","coordinates":[21.80066,44.36741]}]}