{"lat":44.25,"lon":17.75,"programs":["gma","pota","sota"],"count":19,"references":[{"code":"E7/BO-040","program":"gma","name":"Gorcevica","coordinates":[17.80330086,44.29460144]},{"code":"E7/BO-207","program":"gma","name":"Velika ManjaÄa","coordinates":[17.887,44.4161]},{"code":"E7/BO-216","program":"gma","name":"PalaÅ¡nica","coordinates":[17.8961,44.3883]},{"code":"E7/BO-281","program":"gma","name":"KikiÄ‡","coordinates":[17.8171,44.3909]},{"code":"E7/BO-293","program":"gma","name":"Ilinska Njivica","coordinates":[17.8306,44.3714]},{"code":"E7/BO-310","program":"gma","name":"Sokolina","coordinates":[17.7972,44.418]},{"code":"E7/BO-311","program":"gma","name":"Paline","coordinates":[17.9658,44.2999]},{"code":"E7/BO-329","program":"gma","name":"Kica","coordinates":[17.8954,44.2748]},{"code":"E7/BO-379","program":"gma","name":"Martinski Vrh","coordinates":[17.9688,44.4679]},{"code":"BA-0095","program":"pota","name":"Stari grad Vranduk National Monument","coordinates":[17.9038,44.292]},{"code":"E7/BO-040","program":"sota","name":"Kapak","coordinates":[17.8036,44.2943]},{"code":"E7/BO-207","program":"sota","name":"Velika Manjača","coordinates":[17.887,44.4161]},{"code":"E7/BO-216","program":"sota","name":"Palašnica","coordinates":[17.8961,44.3883]},{"code":"E7/BO-281","program":"sota","name":"Kikić","coordinates":[17.8171,44.3909]},{"code":"E7/BO-293","program":"sota","name":"Ilinska Njivica","coordinates":[17.8306,44.3714]},{"code":"E7/BO-310","program":"sota","name":"Sokolina","coordinates":[17.7972,44.418]},{"code":"E7/BO-311","program":"sota","name":"Paline","coordinates":[17.9658,44.2999]},{"code":"E7/BO-329","program":"sota","name":"Kica","coordinates":[17.8954,44.2748]},{"code":"E7/BO-379","program":"sota","name":"Martinski Vrh","coordinates":[17.9688,44.4679]}]}