{"lat":44.25,"lon":-0.75,"programs":["pota"],"count":6,"references":[{"code":"FR-4193","program":"pota","name":"Domaine départemental d Hostens Natura 2000","coordinates":[-0.63923,44.4993]},{"code":"FR-4259","program":"pota","name":"Site du Griffoul confluence de l Automne Natura 2000","coordinates":[-0.55639,44.3903]},{"code":"FR-11264","program":"pota","name":"ZONES TOURBEUSES ET GÎTES DE CHIROPTERES DE L'AMONT DE LA LEYRE, DE LA PETITE ET DE LA GRANDE LEYRE Biological Reserve","coordinates":[-0.68955,44.3419]},{"code":"FR-11266","program":"pota","name":"ZONES TOURBEUSES ET GITES DE CHIROPTERES DE L'AMONT DE LA LEYRE, DE LA PETITE ET DE LA GRANDE LEYRE Biological Reserve","coordinates":[-0.68955,44.3419]},{"code":"FR-11309","program":"pota","name":"DOMAINE DEPARTEMENTAL D'HOSTENS Biological Reserve","coordinates":[-0.63547,44.4998]},{"code":"FR-11310","program":"pota","name":"LAC DE CURTON ET ZONES HUMIDES ASSOCIEES Biological Reserve","coordinates":[-0.59288,44.4726]}]}