{"lat":44.25,"lon":-68.5,"programs":["pota","sota"],"count":5,"references":[{"code":"US-2393","program":"pota","name":"Lamoine State Park","coordinates":[-68.2988,44.4511]},{"code":"W1/DI-002","program":"sota","name":"Western Mtn.","coordinates":[-68.3697,44.3044]},{"code":"W1/DI-003","program":"sota","name":"Sargent Mtn.","coordinates":[-68.2736,44.3428]},{"code":"W1/DI-006","program":"sota","name":"Beech Mtn.","coordinates":[-68.3461,44.3117]},{"code":"W1/DI-007","program":"sota","name":"Saint Sauveur Mtn.","coordinates":[-68.3233,44.3106]}]}