{"lat":44.25,"lon":-1.25,"programs":["pota","wwbota"],"count":7,"references":[{"code":"FR-2943","program":"pota","name":"ZONES HUMIDES DE L ARRIERE DUNE DES PAYS DE BORN ET DE BUCH FR7200714 Natura 2000","coordinates":[-1.172,44.3275]},{"code":"FR-10101","program":"pota","name":"Rives marecageuses de l'etang de Cazaux-Sanguinet Biological Reserve","coordinates":[-1.13435,44.483]},{"code":"FR-10102","program":"pota","name":"ZONES HUMIDES D'ARRIERE-DUNE DU PAYS DE BORN Biological Reserve","coordinates":[-1.15015,44.3961]},{"code":"FR-10103","program":"pota","name":"PETIT ETANG DE BISCARROSSE, MARAIS ASSOCIES ET LETTE DES HOURTIQUETS Biological Reserve","coordinates":[-1.1815,44.4067]},{"code":"FR-10104","program":"pota","name":"RIVES MARECAGEUSES DE L'ETANG DE BISCARROSSE-PARENTIS Biological Reserve","coordinates":[-1.14658,44.3445]},{"code":"FR-10105","program":"pota","name":"LE COURANT DE SAINTE-EULALIE Biological Reserve","coordinates":[-1.19475,44.2878]},{"code":"B/F-6833","program":"wwbota","name":"La Teste-de-Buch5","coordinates":[-1.249769,44.495123]}]}