{"lat":44.25,"lon":-107.25,"programs":["sota"],"count":11,"references":[{"code":"W7Y/NW-001","program":"sota","name":"Cloud Peak","coordinates":[-107.1739,44.3822]},{"code":"W7Y/NW-002","program":"sota","name":"Black Tooth Mountain","coordinates":[-107.1795,44.4032]},{"code":"W7Y/NW-003","program":"sota","name":"Bomber Mountain","coordinates":[-107.1552,44.3703]},{"code":"W7Y/NW-004","program":"sota","name":"12644","coordinates":[-107.1509,44.4045]},{"code":"W7Y/NW-006","program":"sota","name":"12473","coordinates":[-107.2078,44.3947]},{"code":"W7Y/NW-008","program":"sota","name":"Mather Peaks East","coordinates":[-107.1464,44.3242]},{"code":"W7Y/NW-009","program":"sota","name":"Bighorn Peak","coordinates":[-107.107,44.2544]},{"code":"W7Y/NW-010","program":"sota","name":"Darton Peak","coordinates":[-107.1091,44.2761]},{"code":"W7Y/NW-012","program":"sota","name":"11760","coordinates":[-107.1992,44.4526]},{"code":"W7Y/NW-016","program":"sota","name":"11112","coordinates":[-107.2272,44.3349]},{"code":"W7Y/NW-020","program":"sota","name":"10854","coordinates":[-107.1314,44.4764]}]}