{"lat":44.25,"lon":9.25,"programs":["gma","pota","sota","wwbota"],"count":24,"references":[{"code":"IT/ER-1006","program":"gma","name":"Monte Penna","coordinates":[9.4939003,44.48220062]},{"code":"IT/LG-1025","program":"gma","name":"Monte Chiappozzo","coordinates":[9.48859978,44.37609863]},{"code":"IT-0704","program":"pota","name":"Parco dell'Aveto Natura 2000","coordinates":[9.43333,44.4833]},{"code":"IT-1020","program":"pota","name":"Monte Zatta - Passo Bocco - Passo Chiapparino - Monte Bossea Natura 2000","coordinates":[9.46278,44.3872]},{"code":"IT-1723","program":"pota","name":"Pineta - Lecceta di Chiavari Natura 2000","coordinates":[9.30333,44.3264]},{"code":"IT-1724","program":"pota","name":"Foce e medio corso del Fiume Entella Natura 2000","coordinates":[9.3575,44.3503]},{"code":"IT-1725","program":"pota","name":"Rocche di Sant'Anna - Valle del Fico Natura 2000","coordinates":[9.39194,44.2872]},{"code":"IT-1726","program":"pota","name":"Punta Manara Natura 2000","coordinates":[9.4075,44.2608]},{"code":"IT-1727","program":"pota","name":"Punta Baffe - Punta Moneglia - Val Petronio Natura 2000","coordinates":[9.46667,44.2536]},{"code":"I/LG-013","program":"sota","name":"Monte Pagliaro","coordinates":[9.2895,44.4723]},{"code":"I/LG-022","program":"sota","name":"Monte Cavallo","coordinates":[9.3238,44.4609]},{"code":"I/LG-037","program":"sota","name":"Monte Bianco","coordinates":[9.4594,44.3309]},{"code":"I/LG-057","program":"sota","name":"Monte dei Preti","coordinates":[9.3981,44.3686]},{"code":"I/LG-059","program":"sota","name":"Monte le Rocchette","coordinates":[9.3958,44.3219]},{"code":"I/LG-061","program":"sota","name":"Monte Panigaro","coordinates":[9.2705,44.4167]},{"code":"I/LG-072","program":"sota","name":"Monte Moneglia","coordinates":[9.4637,44.2522]},{"code":"I/LG-084","program":"sota","name":"Monte Castello","coordinates":[9.4078,44.2581]},{"code":"I/LG-321","program":"sota","name":"Monte Penna","coordinates":[9.4928,44.4813]},{"code":"I/LG-339","program":"sota","name":"Monte Ramaceto","coordinates":[9.3153,44.4364]},{"code":"I/LG-340","program":"sota","name":"Monte Aiona","coordinates":[9.4424,44.4818]},{"code":"I/LG-342","program":"sota","name":"Monte Zatta","coordinates":[9.463,44.4015]},{"code":"B/IT-0098","program":"wwbota","name":"Bunker (Liguria )","coordinates":[9.40576,44.25423]},{"code":"B/IT-0100","program":"wwbota","name":"Bunker (Difesa Ferrovia  / Liguria )","coordinates":[9.39004,44.28202]},{"code":"B/IT-0101","program":"wwbota","name":"Bunker (Liguria )","coordinates":[9.3038,44.32271]}]}