{"lat":44.25,"lon":4.5,"programs":["pota","sota","wwbota"],"count":10,"references":[{"code":"FR-2698","program":"pota","name":"MILIEUX ALLUVIAUX DU RHONE AVAL FR8201677 Natura 2000","coordinates":[4.65,44.3617]},{"code":"FR-7216","program":"pota","name":"ENSEMBLE SEPTENTRIONAL DES PLATEAUX CALCAIRES DU BAS-VIVARAIS Biological Reserve","coordinates":[4.51703,44.4283]},{"code":"F/CR-208","program":"sota","name":"Dent de Rez","coordinates":[4.5028,44.4294]},{"code":"F/CR-260","program":"sota","name":"Le Navon","coordinates":[4.724,44.4717]},{"code":"B/F-6971","program":"wwbota","name":"Aurèle 1","coordinates":[4.537361,44.385182]},{"code":"B/F-6972","program":"wwbota","name":"Aurèle 2","coordinates":[4.53863,44.384148]},{"code":"B/F-6973","program":"wwbota","name":"Aurèle 3","coordinates":[4.53863,44.384148]},{"code":"B/F-6974","program":"wwbota","name":"Aurèle 6","coordinates":[4.5403,44.380311]},{"code":"B/F-6975","program":"wwbota","name":"Aurèle 5","coordinates":[4.542063,44.382742]},{"code":"B/F-6976","program":"wwbota","name":"Aurèle 4","coordinates":[4.540928,44.38473]}]}