{"lat":44.25,"lon":3.25,"programs":["pota","sota"],"count":10,"references":[{"code":"FR-2660","program":"pota","name":"GORGES DU TARN ET DE LA JONTE  FR9110105 Natura 2000","coordinates":[3.41778,44.2811]},{"code":"FR-2725","program":"pota","name":"GORGES DU TARN  FR9101378 Natura 2000","coordinates":[3.26667,44.2958]},{"code":"FR-13852","program":"pota","name":"Pelouses de la Plone Biological Reserve","coordinates":[3.404,44.418]},{"code":"FR-13853","program":"pota","name":"Monts Chabrio et Chabrie Biological Reserve","coordinates":[3.487,44.403]},{"code":"FR-13856","program":"pota","name":"Gorges du Tarn Biological Reserve","coordinates":[3.471,44.337]},{"code":"FR-13857","program":"pota","name":"Versant sud du Causse de Sauveterre entre Sainte-Enimie et Prades Biological Reserve","coordinates":[3.427,44.362]},{"code":"FR-13858","program":"pota","name":"Versant sud du Causse de Sauveterre a Pougnadoires Biological Reserve","coordinates":[3.366,44.348]},{"code":"FR-13859","program":"pota","name":"Les gorges du Tarn, de Mont-Rose a Hauterive Biological Reserve","coordinates":[3.355,44.332]},{"code":"FR-13860","program":"pota","name":"Versant sud du Causse de Sauveterre, de la Malene au cirque des Baumes Biological Reserve","coordinates":[3.26,44.303]},{"code":"F/MC-069","program":"sota","name":"Puech d'Alluech","coordinates":[3.42,44.3356]}]}