{"lat":44.25,"lon":-118.25,"programs":["sota"],"count":10,"references":[{"code":"W7O/NE-047","program":"sota","name":"Bullrun Mountain","coordinates":[-118.2415,44.3434]},{"code":"W7O/NE-057","program":"sota","name":"Waqíima Butte","coordinates":[-118.2345,44.2857]},{"code":"W7O/NE-059","program":"sota","name":"Rastus Mountain","coordinates":[-118.2028,44.3143]},{"code":"W7O/NE-142","program":"sota","name":"Murray Peak","coordinates":[-118.1208,44.4281]},{"code":"W7O/NE-246","program":"sota","name":"4509","coordinates":[-118.1682,44.498]},{"code":"W7O/NE-263","program":"sota","name":"Murray Hill","coordinates":[-118.1815,44.2926]},{"code":"W7O/SE-029","program":"sota","name":"Sheephead Mountain","coordinates":[-118.1443,44.2798]},{"code":"W7O/SE-119","program":"sota","name":"7676","coordinates":[-118.1007,44.2604]},{"code":"W7O/SE-134","program":"sota","name":"6135","coordinates":[-118.0217,44.4039]},{"code":"W7O/SE-148","program":"sota","name":"5846","coordinates":[-118.0095,44.36]}]}