{"lat":44.25,"lon":1.5,"programs":["pota"],"count":5,"references":[{"code":"FR-3927","program":"pota","name":"Lot National Nature Reserve","coordinates":[1.69776,44.4065]},{"code":"FR-2998","program":"pota","name":"SERRES DE LABASTIDE DE PENNE ET DE BELFORT DU QUERCY FR7300919 Natura 2000","coordinates":[1.56472,44.2692]},{"code":"FR-4010","program":"pota","name":"Pelouses de Lalbenque Natura 2000","coordinates":[1.56917,44.3519]},{"code":"FR-4030","program":"pota","name":"Moyenne vallee du Lot Inferieur Natura 2000","coordinates":[1.64417,44.4825]},{"code":"FR-4151","program":"pota","name":"Grotte de Fond d Erbies Natura 2000","coordinates":[1.68389,44.4136]}]}