{"lat":44.25,"lon":3,"programs":["pota","sota"],"count":6,"references":[{"code":"FR-4009","program":"pota","name":"Vallon de l Urugne Biological Reserve","coordinates":[3.23056,44.4125]},{"code":"FR-13861","program":"pota","name":"Gorges du Tarn au Roc Aiguille Biological Reserve","coordinates":[3.235,44.289]},{"code":"FR-13862","program":"pota","name":"Versant est des gorges du Tarn a Saint-Rome-de-Dolan Biological Reserve","coordinates":[3.208,44.269]},{"code":"FR-13863","program":"pota","name":"Versant ouest du Causse Mejean Biological Reserve","coordinates":[3.218,44.26]},{"code":"F/MC-126","program":"sota","name":"Puech de la Prade","coordinates":[3.0387,44.459]},{"code":"F/MC-241","program":"sota","name":"Lous Valats","coordinates":[3.1658,44.375]}]}