{"lat":44.25,"lon":20.5,"programs":["pota","sota"],"count":8,"references":[{"code":"RS-0036","program":"pota","name":"Kosmaj Landscape Reserve","coordinates":[20.5741,44.4681]},{"code":"RS-0174","program":"pota","name":"Risovača Natural Monument","coordinates":[20.5818,44.3023]},{"code":"RS-0206","program":"pota","name":"Orašac Memorial Parkway","coordinates":[20.5822,44.3329]},{"code":"RS-0222","program":"pota","name":"Park Bukovičke banje Natural Monument","coordinates":[20.5527,44.3066]},{"code":"YU/CS-038","program":"sota","name":"Bukulja","coordinates":[20.52881,44.29862]},{"code":"YU/CS-039","program":"sota","name":"Venčac","coordinates":[20.59315,44.26272]},{"code":"YU/CS-040","program":"sota","name":"Kosmaj","coordinates":[20.56387,44.4659]},{"code":"YU/CS-045","program":"sota","name":"Preseka","coordinates":[20.57002,44.32833]}]}