{"lat":44.25,"lon":9,"programs":["gma","pota","sota","wwbota"],"count":22,"references":[{"code":"IT/LG-1023","program":"gma","name":"Monte Caucaso","coordinates":[9.22560024,44.45640182]},{"code":"IT/LG-1026","program":"gma","name":"Monte Bastia","coordinates":[9.04797,44.41968]},{"code":"IT/LG-1027","program":"gma","name":"Monte Cordona","coordinates":[9.07608,44.40765]},{"code":"IT/LG-1028","program":"gma","name":"Monte Fasce","coordinates":[9.04389,44.41611]},{"code":"IT/LG-1029","program":"gma","name":"Monte Bado","coordinates":[9.110333,44.419473]},{"code":"IT-0276","program":"pota","name":"Val Noci - Torrente Geirato - Alpesisa Natura 2000","coordinates":[9.04056,44.4831]},{"code":"IT-0696","program":"pota","name":"Parco di Portofino Natura 2000","coordinates":[9.18167,44.3228]},{"code":"IT-1038","program":"pota","name":"Monte Fasce Natura 2000","coordinates":[9.0451,44.4052]},{"code":"I/LG-018","program":"sota","name":"Montaldo","coordinates":[9.173,44.4945]},{"code":"I/LG-023","program":"sota","name":"Monte Candelozzo","coordinates":[9.0807,44.4756]},{"code":"I/LG-027","program":"sota","name":"Monte Alpesisa","coordinates":[9.0412,44.481]},{"code":"I/LG-029","program":"sota","name":"Monte Croce dei Fò","coordinates":[9.1013,44.4244]},{"code":"I/LG-039","program":"sota","name":"Monte Croce di Bragalla","coordinates":[9.1031,44.4549]},{"code":"I/LG-040","program":"sota","name":"Monte Carossino","coordinates":[9.0081,44.492]},{"code":"I/LG-047","program":"sota","name":"Monte Manico del Lume","coordinates":[9.2072,44.3942]},{"code":"I/LG-065","program":"sota","name":"Monte di Portofino","coordinates":[9.1686,44.327]},{"code":"B/IT-0102","program":"wwbota","name":"Bunker (Faro    / Liguria )","coordinates":[9.21848,44.2986]},{"code":"B/IT-0103","program":"wwbota","name":"Bunker (Monte Campana / Liguria )","coordinates":[9.15519,44.31848]},{"code":"B/IT-0104","program":"wwbota","name":"Bunker (Batteria Punta Chiappa / Liguria )","coordinates":[9.15239,44.32198]},{"code":"B/IT-0105","program":"wwbota","name":"Bunker (La Fontana / Liguria )","coordinates":[9.07335,44.37646]},{"code":"B/IT-0106","program":"wwbota","name":"Bunker (Batteria Monte Moro  / Liguria )","coordinates":[9.02504,44.39081]},{"code":"B/IT-0107","program":"wwbota","name":"Bunker (Bunker Monte Moro  / Liguria )","coordinates":[9.01946,44.39005]}]}