{"lat":44.25,"lon":-65,"programs":["pota","wwbota"],"count":8,"references":[{"code":"CA-0895","program":"pota","name":"Camerons Brook Provincial Park","coordinates":[-64.9659,44.3233]},{"code":"CA-1758","program":"pota","name":"Eighteen Mile Brook Nature Reserve","coordinates":[-64.9334,44.2698]},{"code":"CA-1820","program":"pota","name":"Ponhook Lake Nature Reserve","coordinates":[-64.897,44.319]},{"code":"CA-1846","program":"pota","name":"Pu’tlaqne’katik (Shingle Lake) Wilderness Area","coordinates":[-64.8111,44.4284]},{"code":"CA-1858","program":"pota","name":"Smith Lake Nature Reserve","coordinates":[-64.844,44.49]},{"code":"CA-1898","program":"pota","name":"Tupper Lake Nature Reserve","coordinates":[-64.974,44.452]},{"code":"B/CA-0930","program":"wwbota","name":"ATC Phone: Yarmouth-Halifax","coordinates":[-64.80163015,44.355774]},{"code":"B/CA-0949","program":"wwbota","name":"Telephone: Caledonia-New Germany","coordinates":[-64.8767709,44.4611488]}]}