{"lat":44.25,"lon":8,"programs":["pota","sota"],"count":14,"references":[{"code":"IT-0229","program":"pota","name":"Ronco di Maglio Natura 2000","coordinates":[8.2497,44.3108]},{"code":"IT-0700","program":"pota","name":"Bric Tana - Bric Mongarda Natura 2000","coordinates":[8.2158,44.3503]},{"code":"IT-1362","program":"pota","name":"Croce della Tia - Rio Barchei Natura 2000","coordinates":[8.1456,44.3328]},{"code":"IT-1365","program":"pota","name":"Cave Ferecchi Natura 2000","coordinates":[8.2089,44.3756]},{"code":"IT-1367","program":"pota","name":"Bric Zerbi Natura 2000","coordinates":[8.1069,44.2783]},{"code":"IT-1368","program":"pota","name":"Lago di Osiglia Natura 2000","coordinates":[8.1961,44.3006]},{"code":"IT-0152","program":"pota","name":"Sorgenti del Belbo Natura 2000","coordinates":[8.1397,44.3892]},{"code":"IT-1163","program":"pota","name":"Bosco di Bagnasco Natura 2000","coordinates":[8.07722,44.2764]},{"code":"I/LG-020","program":"sota","name":"Cime Ronco di Maglio","coordinates":[8.2221,44.2947]},{"code":"I/LG-060","program":"sota","name":"Castello di Cosseria","coordinates":[8.2261,44.3628]},{"code":"I/PM-216","program":"sota","name":"Monte Sotta","coordinates":[8.0629,44.2532]},{"code":"I/PM-234","program":"sota","name":"Mombarcaro – Quota 896","coordinates":[8.0863,44.4683]},{"code":"I/PM-237","program":"sota","name":"Bric dei Faggi","coordinates":[8.1622,44.4792]},{"code":"I/PM-243","program":"sota","name":"Bric del Pilo","coordinates":[8.1976,44.4411]}]}