{"lat":44.25,"lon":-122.75,"programs":["pota","sota"],"count":9,"references":[{"code":"US-10610","program":"pota","name":"South Santiam State Fish Hatchery","coordinates":[-122.676,44.4151]},{"code":"US-10752","program":"pota","name":"Cascadia short bridge day use National Recreation Area","coordinates":[-122.511,44.3909]},{"code":"US-12959","program":"pota","name":"Quartzville BC Byway Kiosk BLM Special Recreation Management Area","coordinates":[-122.515,44.482]},{"code":"W7O/WV-060","program":"sota","name":"Bald Peter","coordinates":[-122.5767,44.4967]},{"code":"W7O/WV-063","program":"sota","name":"Green Mountain Ridge","coordinates":[-122.5161,44.2869]},{"code":"W7O/WV-072","program":"sota","name":"Green Butte","coordinates":[-122.5264,44.3385]},{"code":"W7O/WV-081","program":"sota","name":"Moss Butte","coordinates":[-122.5527,44.3814]},{"code":"W7O/WV-085","program":"sota","name":"Whisky Butte","coordinates":[-122.6151,44.3827]},{"code":"W7O/WV-086","program":"sota","name":"Shot Pouch Butte","coordinates":[-122.5374,44.407]}]}