{"lat":44.25,"lon":15.75,"programs":["pota","sota","wwbota"],"count":16,"references":[{"code":"HR-0355","program":"pota","name":"Bruvno Natura 2000","coordinates":[15.8589,44.3643]},{"code":"9A/GH-010","program":"sota","name":"Kremen","coordinates":[15.886361,44.46417]},{"code":"9A/GH-029","program":"sota","name":"Veliki Crnopac","coordinates":[15.836507,44.25204]},{"code":"9A/GH-039","program":"sota","name":"Lisac","coordinates":[15.994635,44.33391]},{"code":"9A/GH-043","program":"sota","name":"Veliki Urljaj","coordinates":[15.94265,44.40499]},{"code":"9A/GH-044","program":"sota","name":"Javornik","coordinates":[15.928652,44.487667]},{"code":"9A/GH-060","program":"sota","name":"Ćelevac","coordinates":[15.785166,44.259926]},{"code":"9A/GH-064","program":"sota","name":"Mila","coordinates":[15.994351,44.294025]},{"code":"9A/GH-068","program":"sota","name":"Jasenar","coordinates":[15.800014,44.390705]},{"code":"9A/GH-070","program":"sota","name":"Vrh Jelovi","coordinates":[15.778328,44.357716]},{"code":"9A/GH-077","program":"sota","name":"Tomašev vrh","coordinates":[15.923714,44.33355]},{"code":"9A/GH-086","program":"sota","name":"Mirkača","coordinates":[15.756373,44.43701]},{"code":"9A/GH-093","program":"sota","name":"Risovac","coordinates":[15.777992,44.406284]},{"code":"9A/GH-129","program":"sota","name":"Opčuv","coordinates":[15.88587,44.409134]},{"code":"9A/GH-148","program":"sota","name":"Vodena Glava","coordinates":[15.855318,44.385014]},{"code":"B/9A-0117","program":"wwbota","name":"Radio Reley Ćelavac","coordinates":[15.78524,44.259745]}]}