{"lat":44.25,"lon":-124,"programs":["pota","sota"],"count":7,"references":[{"code":"US-4384","program":"pota","name":"Siuslaw National Forest","coordinates":[-123.824,44.359]},{"code":"W7O/CC-016","program":"sota","name":"Table Mountain","coordinates":[-123.8368,44.4756]},{"code":"W7O/CC-047","program":"sota","name":"Cannibal Mountain","coordinates":[-123.8864,44.3487]},{"code":"W7O/CC-055","program":"sota","name":"Scott Mountain","coordinates":[-123.7793,44.3955]},{"code":"W7O/CC-066","program":"sota","name":"Burnt Timber Mountain","coordinates":[-123.972,44.3579]},{"code":"W7O/CC-112","program":"sota","name":"1675","coordinates":[-123.7692,44.3569]},{"code":"W7O/CC-114","program":"sota","name":"1650","coordinates":[-123.9178,44.4631]}]}