{"lat":44.25,"lon":-73.5,"programs":["sota"],"count":8,"references":[{"code":"W2/GA-453","program":"sota","name":"Bigelow Mountain","coordinates":[-73.4692,44.4482]},{"code":"W2/GA-454","program":"sota","name":"1610","coordinates":[-73.4859,44.4107]},{"code":"W2/GA-458","program":"sota","name":"Sugarloaf Mountain B","coordinates":[-73.4877,44.3751]},{"code":"W2/GA-459","program":"sota","name":"1420","coordinates":[-73.4839,44.3843]},{"code":"W2/GA-461","program":"sota","name":"Rattlesnake Mountain","coordinates":[-73.434,44.403]},{"code":"W2/GA-464","program":"sota","name":"South Bouquet Mountain","coordinates":[-73.426,44.2937]},{"code":"W2/GA-465","program":"sota","name":"Bristol Mountain","coordinates":[-73.439,44.3514]},{"code":"W2/GA-466","program":"sota","name":"Payne Mountain","coordinates":[-73.4776,44.2802]}]}