{"lat":44.25,"lon":6.5,"programs":["gma","pota","sota","wwbota"],"count":32,"references":[{"code":"FA/AM-087","program":"gma","name":"Seolane des Besses","coordinates":[6.52169991,44.38029861]},{"code":"FR-3275","program":"pota","name":"DORMILLOUSE  LAVERCQ  FR9301529 Natura 2000","coordinates":[6.52,44.3383]},{"code":"FR-7635","program":"pota","name":"versant adret de la vallee du bachelard Biological Reserve","coordinates":[6.68849,44.3252]},{"code":"FR-7643","program":"pota","name":"vallon de la blanche de laverq - grande et petite seolane - roche benite Biological Reserve","coordinates":[6.5166,44.3259]},{"code":"FR-11690","program":"pota","name":"bois de la chaup Biological Reserve","coordinates":[6.66784,44.3804]},{"code":"FR-11711","program":"pota","name":"forets domaniales du riou bourdoux et du berard - tete de croues - costebelle Biological Reserve","coordinates":[6.66475,44.431]},{"code":"FR-11712","program":"pota","name":"roussin - champeron - bonnet vert Biological Reserve","coordinates":[6.67113,44.417]},{"code":"FR-12114","program":"pota","name":"MASSIF DU MONT PELAT - COL DE LA CAYOLLE - VERSANTS EN RIVE DROITE DU HAUT BACHELARD - GORGES DU BACHELARD - VALLONS DES AGNELIERS ET DE PALUEL Biological Reserve","coordinates":[6.646,44.285]},{"code":"FR-12118","program":"pota","name":"VALLONS DU GRAND TALON, DU CLOT ROUGIERA ET DE LA POUSTERLE Biological Reserve","coordinates":[6.708,44.314]},{"code":"F/AM-079","program":"sota","name":"Mont Pelat","coordinates":[6.7057,44.265]},{"code":"F/AM-080","program":"sota","name":"Grand Bérard","coordinates":[6.6599,44.4492]},{"code":"F/AM-089","program":"sota","name":"Le Cimet","coordinates":[6.7041,44.2905]},{"code":"F/AM-098","program":"sota","name":"Le Grand Parpaillon","coordinates":[6.6522,44.4942]},{"code":"F/AM-103","program":"sota","name":"La Chalanche","coordinates":[6.6587,44.4379]},{"code":"F/AM-106","program":"sota","name":"Le Téton","coordinates":[6.7008,44.2736]},{"code":"F/AM-107","program":"sota","name":"Tête de l'Estrop","coordinates":[6.5049,44.2865]},{"code":"F/AM-108","program":"sota","name":"Le Trou de l'Aigle","coordinates":[6.723,44.264]},{"code":"F/AM-122","program":"sota","name":"Tête de Vallon Claous","coordinates":[6.698,44.4991]},{"code":"F/AM-124","program":"sota","name":"L'Aupillon","coordinates":[6.5779,44.4487]},{"code":"F/AM-128","program":"sota","name":"Grande Séolane","coordinates":[6.5458,44.3373]},{"code":"F/AM-133","program":"sota","name":"Le Pouzenc","coordinates":[6.5157,44.4584]},{"code":"F/AM-147","program":"sota","name":"Petite Séolane","coordinates":[6.5294,44.3572]},{"code":"F/AM-154","program":"sota","name":"Le Grand Cheval de Bois","coordinates":[6.6332,44.2921]},{"code":"F/AM-165","program":"sota","name":"Sommet des Garrets","coordinates":[6.7281,44.2527]},{"code":"F/AM-167","program":"sota","name":"Pic de Boussolenc","coordinates":[6.5887,44.4864]},{"code":"F/AM-181","program":"sota","name":"Pic Silhourais","coordinates":[6.5302,44.4501]},{"code":"F/AM-194","program":"sota","name":"Montagne de l'Alpe","coordinates":[6.7373,44.3415]},{"code":"F/AM-219","program":"sota","name":"Crête de la Pierre Eclatée","coordinates":[6.729,44.294]},{"code":"F/AM-233","program":"sota","name":"Le Chapeau de Gendarme","coordinates":[6.6648,44.3372]},{"code":"F/AM-767","program":"sota","name":"Le Pain de Sucre","coordinates":[6.6453,44.335]},{"code":"F/AM-843","program":"sota","name":"Séolane des Besses","coordinates":[6.526,44.3776]},{"code":"B/F-6500","program":"wwbota","name":"VV-BATTERIE des CAURRES","coordinates":[6.748931,44.470234]}]}