{"lat":44.25,"lon":15.5,"programs":["pota","sota"],"count":15,"references":[{"code":"HR-0012","program":"pota","name":"Paklenica National Park","coordinates":[15.5092,44.3675]},{"code":"HR-0374","program":"pota","name":"Ričica Natura 2000","coordinates":[15.735,44.349]},{"code":"9A/DH-020","program":"sota","name":"Bukovo pleće","coordinates":[15.624964,44.274326]},{"code":"9A/DH-026","program":"sota","name":"Crni vrh","coordinates":[15.502815,44.331047]},{"code":"9A/GH-001","program":"sota","name":"Vaganski Vrh","coordinates":[15.504536,44.367367]},{"code":"9A/GH-002","program":"sota","name":"Sveto Brdo","coordinates":[15.569648,44.328598]},{"code":"9A/GH-054","program":"sota","name":"Jelovi vrh","coordinates":[15.709714,44.445583]},{"code":"9A/GH-069","program":"sota","name":"Komača","coordinates":[15.726942,44.44137]},{"code":"9A/GH-128","program":"sota","name":"Kuk","coordinates":[15.697726,44.43633]},{"code":"9A/GH-133","program":"sota","name":"Biškupov vrh","coordinates":[15.676983,44.484512]},{"code":"9A/GH-163","program":"sota","name":"Zir","coordinates":[15.6143675,44.430176]},{"code":"9A/GH-166","program":"sota","name":"Medvidovača","coordinates":[15.7158,44.3708]},{"code":"9A/GH-169","program":"sota","name":"Liskovi kuk","coordinates":[15.721029,44.323166]},{"code":"9A/GH-170","program":"sota","name":"Debljača","coordinates":[15.660197,44.437428]},{"code":"9A/GH-187","program":"sota","name":"Volarica","coordinates":[15.700954,44.37697]}]}