{"lat":44.25,"lon":12.25,"programs":["pota","wwbota"],"count":15,"references":[{"code":"IT-0201","program":"pota","name":"Salina di Cervia Natura 2000","coordinates":[12.3308,44.2517]},{"code":"IT-0202","program":"pota","name":"Pineta di Cervia Natura 2000","coordinates":[12.3369,44.2758]},{"code":"IT-0505","program":"pota","name":"Pineta di Ravenna State Natural Reserve","coordinates":[12.2831,44.4681]},{"code":"IT-0520","program":"pota","name":"Pialassa dei Piomboni, Pineta di Punta Marina Natura 2000","coordinates":[12.2769,44.4628]},{"code":"IT-1377","program":"pota","name":"Ortazzo, Ortazzino, Foce del Torrente Bevano Natura 2000","coordinates":[12.3211,44.345]},{"code":"IT-2094","program":"pota","name":"Pineta di Classe Natura 2000","coordinates":[12.2786,44.3528]},{"code":"B/IT-0009","program":"wwbota","name":"Bunker (Emilia Romagna )","coordinates":[12.35099,44.26765]},{"code":"B/IT-0010","program":"wwbota","name":"Bunker (Emilia Romagna )","coordinates":[12.35587,44.26929]},{"code":"B/IT-0011","program":"wwbota","name":"Bunker (Emilia Romagna )","coordinates":[12.35411,44.26648]},{"code":"B/IT-0013","program":"wwbota","name":"Bunker (Emilia Romagna )","coordinates":[12.29662,44.43899]},{"code":"B/IT-0014","program":"wwbota","name":"Bunker (Emilia Romagna )","coordinates":[12.29711,44.44082]},{"code":"B/IT-0015","program":"wwbota","name":"Bunker (Emilia Romagna )","coordinates":[12.29563,44.44262]},{"code":"B/IT-0016","program":"wwbota","name":"Bunker (Emilia Romagna )","coordinates":[12.28718,44.46246]},{"code":"B/IT-0019","program":"wwbota","name":"Bunker (Marina di Ravenna / Emilia Romagna )","coordinates":[12.27871,44.48483]},{"code":"B/IT-0020","program":"wwbota","name":"Bunker (Emilia Romagna )","coordinates":[12.28118,44.49373]}]}