{"lat":44.5,"lon":-112,"programs":["gma","pota","sota"],"count":9,"references":[{"code":"K7M/BE-015","program":"gma","name":"Baldy Mountain","coordinates":[-111.86930084,44.5666008]},{"code":"US-0407","program":"pota","name":"Red Rock Lakes National Wildlife Refuge","coordinates":[-111.811,44.5995]},{"code":"W7I/ER-016","program":"sota","name":"Baldy Mountain","coordinates":[-111.8693,44.5666]},{"code":"W7I/ER-037","program":"sota","name":"9220","coordinates":[-111.982,44.5367]},{"code":"W7I/ER-068","program":"sota","name":"Dry Creek Peak","coordinates":[-111.8072,44.5083]},{"code":"W7I/ER-080","program":"sota","name":"7766","coordinates":[-111.8818,44.5033]},{"code":"W7M/BE-143","program":"sota","name":"Patchtop Mountain","coordinates":[-111.8705,44.7427]},{"code":"W7M/BE-148","program":"sota","name":"8290","coordinates":[-111.9933,44.7104]},{"code":"W7M/BE-157","program":"sota","name":"Landon Ridge","coordinates":[-111.8203,44.7497]}]}