{"lat":44.5,"lon":15.25,"programs":["pota","sota","wwbota"],"count":12,"references":[{"code":"HR-0150","program":"pota","name":"Ličko polje Natura 2000","coordinates":[15.424,44.5343]},{"code":"9A/GH-105","program":"sota","name":"Lisac","coordinates":[15.463207,44.73522]},{"code":"9A/GH-158","program":"sota","name":"Velika Karausevica","coordinates":[15.269396,44.58695]},{"code":"9A/GH-162","program":"sota","name":"Risovac","coordinates":[15.313916,44.669952]},{"code":"9A/GH-173","program":"sota","name":"Metlača","coordinates":[15.306577,44.657204]},{"code":"9A/GH-174","program":"sota","name":"Oštra","coordinates":[15.326437,44.53029]},{"code":"9A/GH-178","program":"sota","name":"Šutića vrh","coordinates":[15.372686,44.635868]},{"code":"9A/GH-182","program":"sota","name":"Krčmar","coordinates":[15.293092,44.57071]},{"code":"9A/GH-185","program":"sota","name":"Marina glava","coordinates":[15.404773,44.636673]},{"code":"9A/GH-186","program":"sota","name":"Grabovača","coordinates":[15.351933,44.642956]},{"code":"9A/GH-191","program":"sota","name":"Panos-Oteš","coordinates":[15.278872,44.624268]},{"code":"B/9A-0042","program":"wwbota","name":"Babulj","coordinates":[15.442269,44.5292115]}]}