{"lat":44.5,"lon":9.75,"programs":["pota","sota"],"count":7,"references":[{"code":"IT-0921","program":"pota","name":"Monte Barigazzo, Pizzo d'Oca Natura 2000","coordinates":[9.79139,44.6178]},{"code":"IT-1852","program":"pota","name":"Belforte, Corchia, Alta Val Manubiola Natura 2000","coordinates":[9.905,44.5003]},{"code":"IT-1853","program":"pota","name":"Groppo di Gorro Natura 2000","coordinates":[9.88833,44.5317]},{"code":"I/ER-026","program":"sota","name":"Monte Carameto","coordinates":[9.7689,44.68]},{"code":"I/ER-031","program":"sota","name":"Monte Dosso","coordinates":[9.8631,44.6483]},{"code":"I/ER-051","program":"sota","name":"Monte Santa Cristina","coordinates":[9.8973,44.7189]},{"code":"I/ER-310","program":"sota","name":"Monte Barigazzo","coordinates":[9.8289,44.5988]}]}