{"lat":44.5,"lon":12,"programs":["pota"],"count":5,"references":[{"code":"IT-0061","program":"pota","name":"Delta del Po (ER) Regional Park","coordinates":[12.18,44.6996]},{"code":"IT-0261","program":"pota","name":"Pineta di San Vitale, Bassa del Pirottolo Natura 2000","coordinates":[12.2353,44.5103]},{"code":"IT-0633","program":"pota","name":"Valli di Comacchio Natura 2000","coordinates":[12.1781,44.6194]},{"code":"IT-1375","program":"pota","name":"Punte Alberete, Valle Mandriole Natura 2000","coordinates":[12.2189,44.5253]},{"code":"IT-1589","program":"pota","name":"Dune di San Giuseppe Natura 2000","coordinates":[12.2414,44.7303]}]}