{"lat":44.5,"lon":18.25,"programs":["gma","pota","sota","wwbota"],"count":8,"references":[{"code":"E7/BO-063","program":"gma","name":"Ozren- Kraljica","coordinates":[18.28149986,44.58980179]},{"code":"E7/BO-077","program":"gma","name":"Rotis","coordinates":[18.4503994,44.64720154]},{"code":"E7/BO-079","program":"gma","name":"Hotijelj","coordinates":[18.39459991,44.65660095]},{"code":"BA-0084","program":"pota","name":"Stari grad Soko National Monument","coordinates":[18.3373,44.7448]},{"code":"E7/BO-063","program":"sota","name":"Kraljica","coordinates":[18.282,44.5898]},{"code":"E7/BO-077","program":"sota","name":"Dovište","coordinates":[18.4504,44.6472]},{"code":"E7/BO-079","program":"sota","name":"Hotilj","coordinates":[18.3942,44.6565]},{"code":"B/E7-0014","program":"wwbota","name":"Bunker Špionica","coordinates":[18.49117,44.74177]}]}