{"lat":44.5,"lon":8.5,"programs":["pota","sota"],"count":6,"references":[{"code":"IT-1006","program":"pota","name":"Pian della Badia (Tiglieto) Natura 2000","coordinates":[8.6,44.5333]},{"code":"IT-1193","program":"pota","name":"Bacino del Rio Miseria Natura 2000","coordinates":[8.503,44.5319]},{"code":"I/LG-032","program":"sota","name":"Monte Pracaban","coordinates":[8.7378,44.5517]},{"code":"I/LG-054","program":"sota","name":"Le Ciazze","coordinates":[8.6422,44.5783]},{"code":"I/PM-241","program":"sota","name":"Bric dei Gorrei o dei Prati","coordinates":[8.5369,44.5492]},{"code":"I/PM-257","program":"sota","name":"Monte del Ratto","coordinates":[8.5808,44.5762]}]}