{"lat":44.5,"lon":-63.75,"programs":["pota"],"count":50,"references":[{"code":"CA-0463","program":"pota","name":"Herring Cove Provincial Park","coordinates":[-63.5528,44.5726]},{"code":"CA-0468","program":"pota","name":"McNabs and Lawlor Islands Provincial Park","coordinates":[-63.5259,44.6168]},{"code":"CA-0927","program":"pota","name":"Long Lake Provincial Park","coordinates":[-63.635,44.617]},{"code":"CA-1730","program":"pota","name":"Blue Mountain - Birch Cove Lakes Wilderness Area","coordinates":[-63.7279,44.6789]},{"code":"CA-1751","program":"pota","name":"Duncans Cove Nature Reserve","coordinates":[-63.5352,44.5027]},{"code":"CA-1848","program":"pota","name":"Shubie Park Recreation Park","coordinates":[-63.5542,44.7024]},{"code":"CA-1884","program":"pota","name":"Terence Bay Wilderness Area","coordinates":[-63.672,44.522]},{"code":"CA-4831","program":"pota","name":"D'Anville's Encampment National Historic Site","coordinates":[-63.6466,44.6746]},{"code":"CA-4835","program":"pota","name":"Fort McNab National Historic Site","coordinates":[-63.5158,44.6]},{"code":"CA-4838","program":"pota","name":"Georges Island National Historic Site","coordinates":[-63.5594,44.6413]},{"code":"CA-4841","program":"pota","name":"Halifax Citadel National Historic Site","coordinates":[-63.5824,44.6483]},{"code":"CA-4845","program":"pota","name":"Prince of Wales Tower National Historic Site","coordinates":[-63.5699,44.6216]},{"code":"CA-4850","program":"pota","name":"York Redoubt National Historic Site","coordinates":[-63.5544,44.5974]},{"code":"CA-5425","program":"pota","name":"Admiralty House National Historic Site","coordinates":[-63.5927,44.6596]},{"code":"CA-5427","program":"pota","name":"Halifax City Hall National Historic Site","coordinates":[-63.5754,44.6489]},{"code":"CA-5428","program":"pota","name":"Halifax Public Gardens National Historic Site","coordinates":[-63.5821,44.6428]},{"code":"CA-5430","program":"pota","name":"Pier 21 National Historic Site","coordinates":[-63.5652,44.6384]},{"code":"CA-5432","program":"pota","name":"S.S. Acadia National Historic Site","coordinates":[-63.57,44.6479]},{"code":"CA-5796","program":"pota","name":"Africville National Historic Site","coordinates":[-63.6167,44.6753]},{"code":"CA-5797","program":"pota","name":"Akins House National Historic Site","coordinates":[-63.5818,44.6532]},{"code":"CA-5802","program":"pota","name":"Black-Binney House National Historic Site","coordinates":[-63.5713,44.644]},{"code":"CA-5803","program":"pota","name":"Cast Iron Façade / Coomb's Old English Shoe Store National Historic Site","coordinates":[-63.5747,44.65]},{"code":"CA-5809","program":"pota","name":"Fernwood National Historic Site","coordinates":[-63.5806,44.6273]},{"code":"CA-5811","program":"pota","name":"Fort Needham Memorial Park National Historic Site","coordinates":[-63.6018,44.6665]},{"code":"CA-5812","program":"pota","name":"Government House (Halifax) National Historic Site","coordinates":[-63.5715,44.6432]},{"code":"CA-5814","program":"pota","name":"Granville Block National Historic Site","coordinates":[-63.5742,44.6494]},{"code":"CA-5815","program":"pota","name":"Halifax Court House National Historic Site","coordinates":[-63.574,44.6436]},{"code":"CA-5816","program":"pota","name":"Halifax Dockyard National Historic Site","coordinates":[-63.5823,44.6582]},{"code":"CA-5817","program":"pota","name":"Halifax Drill Hall National Historic Site","coordinates":[-63.5874,44.6512]},{"code":"CA-5818","program":"pota","name":"Halifax Waterfront Buildings National Historic Site","coordinates":[-63.5736,44.65]},{"code":"CA-5819","program":"pota","name":"Halifax WWII Coastal Defences National Historic Site","coordinates":[-63.5503,44.5923]},{"code":"CA-5820","program":"pota","name":"Henry House National Historic Site","coordinates":[-63.5708,44.6403]},{"code":"CA-5821","program":"pota","name":"HMCS Sackville National Historic Site","coordinates":[-63.5694,44.6474]},{"code":"CA-5822","program":"pota","name":"Hydrostone District National Historic Site","coordinates":[-63.6031,44.6646]},{"code":"CA-5823","program":"pota","name":"Jonathan McCully House National Historic Site","coordinates":[-63.5878,44.6573]},{"code":"CA-5827","program":"pota","name":"Little Dutch (Deutsch) Church National Historic Site","coordinates":[-63.5857,44.6558]},{"code":"CA-5831","program":"pota","name":"Memorial Tower National Historic Site","coordinates":[-63.5976,44.6302]},{"code":"CA-5834","program":"pota","name":"Old Burying Ground National Historic Site","coordinates":[-63.5729,44.6437]},{"code":"CA-5841","program":"pota","name":"St. George's Anglican Church / Round Church National Historic Site","coordinates":[-63.583,44.6535]},{"code":"CA-5843","program":"pota","name":"St. Mary's Basilica National Historic Site","coordinates":[-63.5733,44.6441]},{"code":"CA-5844","program":"pota","name":"St. Paul's Anglican Church National Historic Site","coordinates":[-63.5747,44.6474]},{"code":"CA-6251","program":"pota","name":"Grand Parade National Heritage Site","coordinates":[-63.575,44.6482]},{"code":"CA-6252","program":"pota","name":"Scott Manor House National Heritage Site","coordinates":[-63.6603,44.7293]},{"code":"CA-6253","program":"pota","name":"Moirs Ltd. Power House Historic Site","coordinates":[-63.6781,44.7142]},{"code":"CA-6321","program":"pota","name":"Atlantic Bulwark National Historic Site","coordinates":[-63.5632,44.6217]},{"code":"CA-6322","program":"pota","name":"Quaker House Historic Site","coordinates":[-63.5682,44.667]},{"code":"CA-6323","program":"pota","name":"Former Hampton Gray Memorial School National Heritage Site","coordinates":[-63.5165,44.6291]},{"code":"CA-6324","program":"pota","name":"Van Steenburgh and Polaris Buildings National Heritage Site","coordinates":[-63.6098,44.6822]},{"code":"CA-6326","program":"pota","name":"Via Rail Station National Heritage Site","coordinates":[-63.5682,44.6403]},{"code":"CA-6553","program":"pota","name":"Portobello Provincial Park","coordinates":[-63.5632,44.7455]}]}