{"lat":44.5,"lon":22,"programs":["pota","sota"],"count":8,"references":[{"code":"RS-0254","program":"pota","name":"Boljetinka - Greben Nature Reserve","coordinates":[22.0291,44.5125]},{"code":"YO/WC-211","program":"sota","name":"Copriva","coordinates":[22.1058,44.5992]},{"code":"YO/WC-212","program":"sota","name":"Golețul Mare","coordinates":[22.2067,44.6375]},{"code":"YO/WC-213","program":"sota","name":"Cucuiova","coordinates":[22.1158,44.5333]},{"code":"YO/WC-214","program":"sota","name":"Cernii","coordinates":[22.0608,44.5683]},{"code":"YO/WC-215","program":"sota","name":"Tâlva Dreneșina","coordinates":[22.025,44.6533]},{"code":"YO/WC-241","program":"sota","name":"Omerșnicu Mare","coordinates":[22.1492,44.6817]},{"code":"YU/IS-094","program":"sota","name":"Čoka Njalta","coordinates":[22.00709,44.58568]}]}