{"lat":44.5,"lon":17.25,"programs":["gma","pota","sota"],"count":13,"references":[{"code":"E7/BO-241","program":"gma","name":"JeÅ¾ica","coordinates":[17.4299,44.514]},{"code":"E7/BO-348","program":"gma","name":"Å umeri","coordinates":[17.3518,44.5543]},{"code":"E7/BO-383","program":"gma","name":"Kijavac","coordinates":[17.261,44.5775]},{"code":"E7/BO-430","program":"gma","name":"Lipovac","coordinates":[17.303,44.6897]},{"code":"E7/BO-449","program":"gma","name":"Vis","coordinates":[17.4797,44.5664]},{"code":"E7/BO-474","program":"gma","name":"Rujevska Glavica","coordinates":[17.3947,44.5973]},{"code":"BA-0047","program":"pota","name":"Žuta bukva National Monument","coordinates":[17.279,44.6085]},{"code":"E7/BO-241","program":"sota","name":"Ježica","coordinates":[17.4299,44.514]},{"code":"E7/BO-348","program":"sota","name":"Šumeri","coordinates":[17.3518,44.5543]},{"code":"E7/BO-383","program":"sota","name":"Kijavac","coordinates":[17.261,44.5775]},{"code":"E7/BO-430","program":"sota","name":"Lipovac","coordinates":[17.303,44.6897]},{"code":"E7/BO-449","program":"sota","name":"Vis","coordinates":[17.4797,44.5664]},{"code":"E7/BO-474","program":"sota","name":"Rujevska Glavica","coordinates":[17.3947,44.5973]}]}