{"lat":44.5,"lon":-70.75,"programs":["sota"],"count":11,"references":[{"code":"W1/AM-053","program":"sota","name":"West Mtn.","coordinates":[-70.5706,44.7203]},{"code":"W1/AM-062","program":"sota","name":"Old Turk Mtn.","coordinates":[-70.6544,44.71]},{"code":"W1/AM-073","program":"sota","name":"Black Mtn. Rumford","coordinates":[-70.6375,44.5839]},{"code":"W1/AM-128","program":"sota","name":"Thompson Hill","coordinates":[-70.5317,44.5886]},{"code":"W1/AM-130","program":"sota","name":"Rumford Point Mtn.","coordinates":[-70.6514,44.5069]},{"code":"W1/AM-142","program":"sota","name":"South Twin Mtn.","coordinates":[-70.6131,44.6042]},{"code":"W1/AM-162","program":"sota","name":"Whitecap Mtn. Rumford","coordinates":[-70.6606,44.5717]},{"code":"W1/AM-176","program":"sota","name":"JT Mtn.","coordinates":[-70.6025,44.5486]},{"code":"W1/AM-239","program":"sota","name":"Farmers Hill","coordinates":[-70.6969,44.5864]},{"code":"W1/AM-272","program":"sota","name":"Mt. Dimmock","coordinates":[-70.7039,44.5161]},{"code":"W1/AM-416","program":"sota","name":"Spruce Mtn. Roxbury","coordinates":[-70.5181,44.6672]}]}