{"lat":44.5,"lon":-123.75,"programs":["pota","sota"],"count":10,"references":[{"code":"US-2828","program":"pota","name":"Ellmaker State Wayside State Park","coordinates":[-123.63,44.616]},{"code":"W7O/CC-001","program":"sota","name":"Marys Peak","coordinates":[-123.5524,44.5044]},{"code":"W7O/CC-019","program":"sota","name":"Little Grass Mountain","coordinates":[-123.5877,44.7396]},{"code":"W7O/CC-056","program":"sota","name":"Steer Divide","coordinates":[-123.679,44.7381]},{"code":"W7O/CC-069","program":"sota","name":"Strom Boulder Ridge","coordinates":[-123.718,44.5978]},{"code":"W7O/CC-126","program":"sota","name":"1444","coordinates":[-123.6403,44.6755]},{"code":"W7O/CC-128","program":"sota","name":"1340","coordinates":[-123.7392,44.5741]},{"code":"W7O/CC-130","program":"sota","name":"1294","coordinates":[-123.661,44.6375]},{"code":"W7O/CC-131","program":"sota","name":"1289","coordinates":[-123.5886,44.6766]},{"code":"W7O/CC-132","program":"sota","name":"1196","coordinates":[-123.7145,44.6445]}]}