{"lat":44.5,"lon":5.5,"programs":["gma","pota","sota"],"count":41,"references":[{"code":"FA/CR-010","program":"gma","name":"Sommet du Col Girond","coordinates":[5.58920002,44.64580154]},{"code":"FA/CR-029","program":"gma","name":"Montagne de France","coordinates":[5.7411,44.707]},{"code":"FR-3355","program":"pota","name":"LANDES PELOUSES FORETS ET PRAIRIES HUMIDES DE LUS LA CROIX HAUTE  FR8201680 Natura 2000","coordinates":[5.72685,44.6768]},{"code":"FR-6325","program":"pota","name":"HAUT-DIOIS, MASSIF DU JOCOU Biological Reserve","coordinates":[5.62657,44.6832]},{"code":"FR-6326","program":"pota","name":"Foret et alpages de Jocou Biological Reserve","coordinates":[5.64986,44.7206]},{"code":"FR-6424","program":"pota","name":"MILIEUX ROCHEUX ET FALAISES DE LA CRETE DE BOUCHIER ET DES BLACHES Biological Reserve","coordinates":[5.70541,44.6348]},{"code":"FR-10607","program":"pota","name":"Plateforme urgonienne de la Montagne de Glandasse Conservation Area","coordinates":[5.56,44.73]},{"code":"FR-10663","program":"pota","name":"Rives de la Drome et marais des Bouligons Biological Reserve","coordinates":[5.51239,44.5646]},{"code":"FR-10682","program":"pota","name":"Montagnes de Bellemotte, Jocou, Mont Barral Biological Reserve","coordinates":[5.61851,44.734]},{"code":"FR-10683","program":"pota","name":"Montagnes de Toussière et de la Pare, de la Varaime, Quigouret et mont Chauvet Biological Reserve","coordinates":[5.63013,44.6268]},{"code":"F/AB-407","program":"sota","name":"Le Rognon","coordinates":[5.7033,44.7317]},{"code":"F/AB-426","program":"sota","name":"Sommet de l'Aup","coordinates":[5.7159,44.7365]},{"code":"F/AM-403","program":"sota","name":"Luzet","coordinates":[5.6249,44.5858]},{"code":"F/AM-417","program":"sota","name":"Banne","coordinates":[5.6201,44.5343]},{"code":"F/AM-426","program":"sota","name":"Ranc de Mianoux","coordinates":[5.7306,44.6398]},{"code":"F/AM-454","program":"sota","name":"Pré des Nonnes","coordinates":[5.7047,44.5464]},{"code":"F/AM-493","program":"sota","name":"Montagne d'Aureille","coordinates":[5.648,44.5648]},{"code":"F/AM-506","program":"sota","name":"Sommet d'Aiguillon","coordinates":[5.6925,44.5704]},{"code":"F/AM-513","program":"sota","name":"Faucon","coordinates":[5.7111,44.5826]},{"code":"F/AM-801","program":"sota","name":"Côte des Chanabières","coordinates":[5.6634,44.5831]},{"code":"F/CR-002","program":"sota","name":"Montagne de Jocou","coordinates":[5.6473,44.7243]},{"code":"F/CR-005","program":"sota","name":"Montagne de Belle Motte","coordinates":[5.6118,44.7407]},{"code":"F/CR-006","program":"sota","name":"Toussière","coordinates":[5.6543,44.6556]},{"code":"F/CR-008","program":"sota","name":"Pointe Feuillette","coordinates":[5.7433,44.6989]},{"code":"F/CR-009","program":"sota","name":"L'Aupillon","coordinates":[5.6405,44.6784]},{"code":"F/CR-010","program":"sota","name":"Quigouret","coordinates":[5.6493,44.6194]},{"code":"F/CR-016","program":"sota","name":"Serre Chomille","coordinates":[5.5675,44.7167]},{"code":"F/CR-024","program":"sota","name":"Le Sarrier","coordinates":[5.6711,44.6704]},{"code":"F/CR-026","program":"sota","name":"Montagne de Pinchinet","coordinates":[5.605,44.7071]},{"code":"F/CR-028","program":"sota","name":"Montagne de Tarsimoure","coordinates":[5.5159,44.5198]},{"code":"F/CR-029","program":"sota","name":"Montagne du Puy","coordinates":[5.5414,44.6092]},{"code":"F/CR-031","program":"sota","name":"Crête de l'Estellier","coordinates":[5.6017,44.6625]},{"code":"F/CR-037","program":"sota","name":"Le Mayor","coordinates":[5.5244,44.6515]},{"code":"F/CR-040","program":"sota","name":"La Grésière","coordinates":[5.5114,44.6416]},{"code":"F/CR-071","program":"sota","name":"Pic de l'Aigle","coordinates":[5.5717,44.6958]},{"code":"F/CR-126","program":"sota","name":"Saint Roman","coordinates":[5.5325,44.5608]},{"code":"F/CR-275","program":"sota","name":"Pic de l'Aigle","coordinates":[5.7368,44.6799]},{"code":"F/CR-278","program":"sota","name":"La Serrie","coordinates":[5.5531,44.6975]},{"code":"F/CR-281","program":"sota","name":"Quigouret","coordinates":[5.5667,44.6233]},{"code":"F/CR-283","program":"sota","name":"Montagne de Malemort","coordinates":[5.6861,44.6486]},{"code":"F/CR-287","program":"sota","name":"Piégu","coordinates":[5.5899,44.5696]}]}