{"lat":44.5,"lon":18,"programs":["gma","pota","sota","wwbota"],"count":10,"references":[{"code":"E7/BO-062","program":"gma","name":"Ozren, Ostravica","coordinates":[18.2336998,44.62789917]},{"code":"E7/BO-069","program":"gma","name":"Ozren- Gostilj","coordinates":[18.19949913,44.65969849]},{"code":"E7/BO-458","program":"gma","name":"TrebaÄko Brdo","coordinates":[18.0561,44.616]},{"code":"BA-0146","program":"pota","name":"Stari grad Maglaj National Monument","coordinates":[18.1029,44.544]},{"code":"BA-0160","program":"pota","name":"Oaza Protected Area","coordinates":[18.0021,44.5696]},{"code":"BA-0163","program":"pota","name":"Nekropola stećaka Usora National Monument","coordinates":[18.0059,44.7082]},{"code":"E7/BO-062","program":"sota","name":"Velika Ostravica","coordinates":[18.2334,44.6284]},{"code":"E7/BO-069","program":"sota","name":"Gostilj","coordinates":[18.1991,44.6602]},{"code":"E7/BO-458","program":"sota","name":"Trebačko Brdo","coordinates":[18.0561,44.616]},{"code":"B/E7-0007","program":"wwbota","name":"Bunker Ploča Maglaj","coordinates":[18.1054,44.56163]}]}