{"lat":44.5,"lon":15.5,"programs":["pota","sota"],"count":12,"references":[{"code":"HR-0217","program":"pota","name":"Krbavsko polje Natura 2000","coordinates":[15.7228,44.5724]},{"code":"HR-0361","program":"pota","name":"Jadova Natura 2000","coordinates":[15.512,44.521]},{"code":"9A/GH-051","program":"sota","name":"Golo trlo","coordinates":[15.57047,44.690113]},{"code":"9A/GH-052","program":"sota","name":"Mrsinj","coordinates":[15.66906,44.74982]},{"code":"9A/GH-057","program":"sota","name":"Palež","coordinates":[15.573895,44.583443]},{"code":"9A/GH-075","program":"sota","name":"Goloura","coordinates":[15.553323,44.633537]},{"code":"9A/GH-091","program":"sota","name":"Šijanova kosa","coordinates":[15.547734,44.71324]},{"code":"9A/GH-125","program":"sota","name":"Jelovi vrh","coordinates":[15.633972,44.505703]},{"code":"9A/GH-134","program":"sota","name":"Rebička gradina","coordinates":[15.695454,44.533497]},{"code":"9A/GH-136","program":"sota","name":"Ljutica","coordinates":[15.645771,44.579033]},{"code":"9A/GH-140","program":"sota","name":"Gradina","coordinates":[15.698604,44.665768]},{"code":"9A/GH-149","program":"sota","name":"Galovac","coordinates":[15.729475,44.69852]}]}