{"lat":44.5,"lon":-65.75,"programs":["pota","wwbota"],"count":11,"references":[{"code":"CA-4830","program":"pota","name":"Charles Fort National Historic Site","coordinates":[-65.5188,44.7417]},{"code":"CA-4832","program":"pota","name":"Fort-Anne National Historic Site","coordinates":[-65.5183,44.7418]},{"code":"CA-4843","program":"pota","name":"Melanson Settlement National Historic Site","coordinates":[-65.5978,44.72]},{"code":"CA-4844","program":"pota","name":"Port-Royal National Historic Site","coordinates":[-65.6081,44.7128]},{"code":"CA-5798","program":"pota","name":"Annapolis County Court House National Historic Site","coordinates":[-65.5164,44.7417]},{"code":"CA-5799","program":"pota","name":"Annapolis Royal Historic District National Heritage Site","coordinates":[-65.5198,44.7434]},{"code":"CA-5839","program":"pota","name":"Sinclair Inn / Farmer's Hotel National Historic Site","coordinates":[-65.5194,44.7446]},{"code":"CA-6105","program":"pota","name":"de Gannes-Cosby House National Historic Site","coordinates":[-65.5124,44.7411]},{"code":"CA-6194","program":"pota","name":"Schafner Point Lighthouse National Heritage Site","coordinates":[-65.6191,44.7099]},{"code":"CA-6294","program":"pota","name":"Annapolis Royal Train Station Historic Site","coordinates":[-65.5141,44.7423]},{"code":"B/CA-1491","program":"wwbota","name":"FRP Digby RCMP","coordinates":[-65.7499899,44.60182313]}]}