{"lat":44.5,"lon":-72,"programs":["pota","sota"],"count":10,"references":[{"code":"US-5556","program":"pota","name":"Lyndon State Forest","coordinates":[-71.989,44.5022]},{"code":"US-5557","program":"pota","name":"Victory State Forest","coordinates":[-71.8271,44.5472]},{"code":"US-8305","program":"pota","name":"Darling State Park","coordinates":[-71.8928,44.5838]},{"code":"W1/GM-094","program":"sota","name":"Kirby Mountain","coordinates":[-71.907,44.5516]},{"code":"W1/GM-159","program":"sota","name":"Seneca Mountain","coordinates":[-71.8034,44.695]},{"code":"W1/NK-001","program":"sota","name":"East Mountain","coordinates":[-71.77,44.6647]},{"code":"W1/NK-004","program":"sota","name":"Burke Mountain","coordinates":[-71.8931,44.5708]},{"code":"W1/NK-011","program":"sota","name":"Umpire Mountain","coordinates":[-71.8572,44.5697]},{"code":"W1/NK-019","program":"sota","name":"East Haven Mountain","coordinates":[-71.8328,44.6214]},{"code":"W1/NK-023","program":"sota","name":"Bull Mountain","coordinates":[-71.8389,44.73]}]}