{"lat":44.5,"lon":18.5,"programs":["gma","pota","sota","wwbota"],"count":15,"references":[{"code":"E7/BO-416","program":"gma","name":"Okresanica","coordinates":[18.5842,44.7021]},{"code":"E7/BO-440","program":"gma","name":"Vjeternik","coordinates":[18.6819,44.7097]},{"code":"E7/BO-468","program":"gma","name":"Å½unovo","coordinates":[18.7399,44.7024]},{"code":"BA-0077","program":"pota","name":"Donje Breške UNESCO Biosphere Reserve","coordinates":[18.6645,44.6137]},{"code":"BA-0078","program":"pota","name":"Ilinčica Protected Area","coordinates":[18.6729,44.5252]},{"code":"BA-0079","program":"pota","name":"Gradina Grabovik National Monument","coordinates":[18.5819,44.6854]},{"code":"BA-0085","program":"pota","name":"Tuzlanska barutana National Monument","coordinates":[18.6912,44.5368]},{"code":"BA-0092","program":"pota","name":"Stari grad Srebrenik National Monument","coordinates":[18.5317,44.7034]},{"code":"BA-0147","program":"pota","name":"Stara željeznička stanica Lukavac National Monument","coordinates":[18.516,44.5462]},{"code":"BA-0148","program":"pota","name":"Vila Solvay National Monument","coordinates":[18.531,44.5287]},{"code":"BA-0153","program":"pota","name":"Husinski rudar National Monument","coordinates":[18.6564,44.534]},{"code":"E7/BO-416","program":"sota","name":"Okresanica","coordinates":[18.5842,44.7021]},{"code":"E7/BO-440","program":"sota","name":"Vjeternik","coordinates":[18.6819,44.7097]},{"code":"E7/BO-468","program":"sota","name":"Žunovo","coordinates":[18.7399,44.7024]},{"code":"B/E7-0015","program":"wwbota","name":"Barutana Tuzla","coordinates":[18.69115,44.53692]}]}