{"lat":44.5,"lon":14.75,"programs":["gma","pota","sota"],"count":8,"references":[{"code":"9A0/PH-001","program":"gma","name":"Velo Tusto ÄŒelo","coordinates":[14.95857,44.55418]},{"code":"HR-0265","program":"pota","name":"Lun Natura 2000","coordinates":[14.807,44.629]},{"code":"HR-0376","program":"pota","name":"Paške stijene Velebitskog Kanala (Rt Deda - Rt Krištofer) Natura 2000","coordinates":[14.9731,44.5484]},{"code":"HR-0378","program":"pota","name":"Uvala Stara Novalja Natura 2000","coordinates":[14.8758,44.5859]},{"code":"HR-0386","program":"pota","name":"Kolansko blato - Blato Rogoza Natura 2000","coordinates":[14.9179,44.5204]},{"code":"HR-0285","program":"pota","name":"Otok Dolin - J Natura 2000","coordinates":[14.8244,44.7023]},{"code":"9A/PH-003","program":"sota","name":"Goli vrh","coordinates":[14.988836,44.745537]},{"code":"9A/PH-008","program":"sota","name":"Zečjak","coordinates":[14.992778,44.70278]}]}