{"lat":44.5,"lon":-124.25,"programs":["pota","sota"],"count":9,"references":[{"code":"US-2813","program":"pota","name":"Beverly Beach State Park","coordinates":[-124.056,44.729]},{"code":"US-2815","program":"pota","name":"Brian Booth State Park","coordinates":[-124.071,44.5179]},{"code":"US-2854","program":"pota","name":"South Beach State Park","coordinates":[-124.06,44.6052]},{"code":"US-9523","program":"pota","name":"Agate Beach State Recreation Area","coordinates":[-124.056,44.6596]},{"code":"US-9540","program":"pota","name":"Devil's Punchbowl State Natural Area","coordinates":[-124.065,44.7471]},{"code":"US-9559","program":"pota","name":"Lost Creek State Park","coordinates":[-124.074,44.5453]},{"code":"US-9588","program":"pota","name":"Yaquina Bay State Recreation Area","coordinates":[-124.064,44.624]},{"code":"US-10412","program":"pota","name":"Yaquina Head Outstanding Natural Area BLM Special Recreation Management Area","coordinates":[-124.074,44.6756]},{"code":"W7O/CC-138","program":"sota","name":"1071","coordinates":[-124.0215,44.7412]}]}