{"lat":44.75,"lon":15.5,"programs":["pota","sota"],"count":11,"references":[{"code":"HR-0009","program":"pota","name":"Plitvice Lakes National Park","coordinates":[15.619,44.8795]},{"code":"9A/GH-004","program":"sota","name":"Gola Plješivica","coordinates":[15.7484865,44.793777]},{"code":"9A/GH-049","program":"sota","name":"Selički vrh","coordinates":[15.53355,44.872192]},{"code":"9A/GH-058","program":"sota","name":"Panos","coordinates":[15.557476,44.772537]},{"code":"9A/GH-066","program":"sota","name":"Lisina","coordinates":[15.53,44.8058]},{"code":"9A/GH-092","program":"sota","name":"Prlinka","coordinates":[15.551722,44.90976]},{"code":"9A/GH-101","program":"sota","name":"Veliki Kik","coordinates":[15.589973,44.81928]},{"code":"9A/GH-104","program":"sota","name":"Crni vrh","coordinates":[15.561976,44.850945]},{"code":"9A/GH-139","program":"sota","name":"Trovrh","coordinates":[15.583803,44.952477]},{"code":"9A/GH-146","program":"sota","name":"Veliko Bilo","coordinates":[15.563016,44.98443]},{"code":"9A/GH-156","program":"sota","name":"Medveđak oštri","coordinates":[15.653805,44.88769]}]}