{"lat":44.75,"lon":3.75,"programs":["gma","pota","sota"],"count":11,"references":[{"code":"FA/MC-045","program":"gma","name":"Suc de Miceselle","coordinates":[3.85750008,44.9496994]},{"code":"FR-2727","program":"pota","name":"GORGES DE LA LOIRE ET AFFLUENTS PARTIE SUD FR8301081 Natura 2000","coordinates":[3.9495,44.8972]},{"code":"FR-4068","program":"pota","name":"Carriere de Solignac dite de coucouron Natura 2000","coordinates":[3.87639,44.9742]},{"code":"FR-14380","program":"pota","name":"GORGES DE LA LOIRE DE CHADRON A CUSSAC-SUR-LOIRE ET BASSE VALLEE DE LA GAGNE Biological Reserve","coordinates":[3.892,44.989]},{"code":"FR-14381","program":"pota","name":"LAC D'AGIZOUX Biological Reserve","coordinates":[3.892,44.956]},{"code":"FR-14382","program":"pota","name":"VALLEE DE LA BEAUME Biological Reserve","coordinates":[3.898,44.945]},{"code":"FR-14383","program":"pota","name":"GORGES DE LA LOIRE A GOUDET Biological Reserve","coordinates":[3.916,44.898]},{"code":"FR-14384","program":"pota","name":"LA GAZEILLE Biological Reserve","coordinates":[3.947,44.941]},{"code":"FR-14439","program":"pota","name":"Marais des Narses Biological Reserve","coordinates":[3.869,44.761]},{"code":"F/MC-086","program":"sota","name":"Suc de Monet","coordinates":[3.9864,44.9876]},{"code":"F/MC-236","program":"sota","name":"Le Devès","coordinates":[3.765,44.94]}]}