{"lat":44.75,"lon":-71.25,"programs":["pota","sota"],"count":13,"references":[{"code":"US-0450","program":"pota","name":"Lake Umbagog National Wildlife Refuge","coordinates":[-71.0757,44.8319]},{"code":"US-4876","program":"pota","name":"Big Island State Forest","coordinates":[-71.052,44.862]},{"code":"W1/AM-027","program":"sota","name":"Aziscohos Mtn.","coordinates":[-71.0017,44.9142]},{"code":"W1/AM-188","program":"sota","name":"Parker Hill","coordinates":[-71.0058,44.9603]},{"code":"W1/HA-031","program":"sota","name":"Rice Mountain","coordinates":[-71.2403,44.8528]},{"code":"W1/HA-054","program":"sota","name":"Crystal Mountain HP","coordinates":[-71.2097,44.9375]},{"code":"W1/HA-055","program":"sota","name":"Mount Dustan","coordinates":[-71.0811,44.8586]},{"code":"W1/HA-063","program":"sota","name":"Errol Hill","coordinates":[-71.1097,44.7656]},{"code":"W1/HA-081","program":"sota","name":"Signal Mountain","coordinates":[-71.2275,44.7611]},{"code":"W1/HA-107","program":"sota","name":"Pt. 2944","coordinates":[-71.19,44.8483]},{"code":"W1/HA-135","program":"sota","name":"Pt. 3097","coordinates":[-71.1664,44.9411]},{"code":"W1/HA-139","program":"sota","name":"Diamond Peaks","coordinates":[-71.0617,44.8922]},{"code":"W1/HA-193","program":"sota","name":"Halfmoon Mountain","coordinates":[-71.0617,44.9297]}]}