{"lat":44.75,"lon":-63,"programs":["pota","wwbota"],"count":5,"references":[{"code":"CA-0920","program":"pota","name":"Lake Charlotte Provincial Park","coordinates":[-62.922,44.777]},{"code":"CA-1744","program":"pota","name":"Cowan Brook Nature Reserve","coordinates":[-62.928,44.878]},{"code":"CA-1805","program":"pota","name":"Moose River Gold Mines Provincial Park","coordinates":[-62.9431,44.9816]},{"code":"CA-1879","program":"pota","name":"Tangier Grand Lake Wilderness Area","coordinates":[-62.782,44.8788]},{"code":"B/CA-0965","program":"wwbota","name":"Telephone: Musquodoboit-Sheet Harbour","coordinates":[-62.8423586,44.8546337]}]}