{"lat":44.75,"lon":4.25,"programs":["gma","pota","sota"],"count":12,"references":[{"code":"FA/CR-005","program":"gma","name":"Le Champ de Mars","coordinates":[4.38609982,44.77859879]},{"code":"FR-2788","program":"pota","name":"VALLEE DE L EYRIEUX ET SES AFFLUENTS FR8201658 NATURA 2000 Natura 2000","coordinates":[4.47922,44.833]},{"code":"FR-14406","program":"pota","name":"Plateau d'Echamps Biological Reserve","coordinates":[4.264,44.897]},{"code":"FR-14407","program":"pota","name":"Rocher de Soutron Biological Reserve","coordinates":[4.293,44.901]},{"code":"FR-14413","program":"pota","name":"Cretes de Lachamp-Raphael Biological Reserve","coordinates":[4.313,44.813]},{"code":"FR-14414","program":"pota","name":"LIGNE DE CRETE DE MEZILLAC AU COL DE L’ESCRINET Biological Reserve","coordinates":[4.335,44.815]},{"code":"FR-15075","program":"pota","name":"Geoparc des Monts d'Ardèche Geopark","coordinates":[4.305,44.787]},{"code":"F/CR-074","program":"sota","name":"Rocher de Pialoux","coordinates":[4.2506,44.9036]},{"code":"F/CR-094","program":"sota","name":"Serre-en-Don","coordinates":[4.3956,44.8713]},{"code":"F/CR-095","program":"sota","name":"La Citadelle","coordinates":[4.4467,44.9694]},{"code":"F/CR-155","program":"sota","name":"Sommet du Fayard","coordinates":[4.4944,44.7899]},{"code":"F/CR-282","program":"sota","name":"Suc de Pradou","coordinates":[4.3658,44.7833]}]}