{"lat":44.75,"lon":-114.5,"programs":["sota"],"count":8,"references":[{"code":"W7I/CU-148","program":"sota","name":"Woods Peak","coordinates":[-114.3155,44.8017]},{"code":"W7I/CU-169","program":"sota","name":"Van Horn Peak","coordinates":[-114.3253,44.7796]},{"code":"W7I/LE-091","program":"sota","name":"9580","coordinates":[-114.364,44.7906]},{"code":"W7I/LE-101","program":"sota","name":"Black Mountain","coordinates":[-114.3444,44.8408]},{"code":"W7I/LE-128","program":"sota","name":"Duck Creek Point","coordinates":[-114.4973,44.9103]},{"code":"W7I/LE-156","program":"sota","name":"8490","coordinates":[-114.4457,44.9222]},{"code":"W7I/LE-183","program":"sota","name":"Meyers Cove Point","coordinates":[-114.4428,44.8279]},{"code":"W7I/LE-191","program":"sota","name":"7573","coordinates":[-114.4232,44.8525]}]}