{"lat":44.75,"lon":-65.25,"programs":["pota","sota","wwbota"],"count":7,"references":[{"code":"CA-0904","program":"pota","name":"Cottage Cove Provincial Park","coordinates":[-65.1806,44.9925]},{"code":"CA-6483","program":"pota","name":"Roxbury Provincial Park","coordinates":[-65.1661,44.8054]},{"code":"VE1/NS-014","program":"sota","name":"Mount Rose","coordinates":[-65.2313,44.9143]},{"code":"B/CA-0814","program":"wwbota","name":"FRP HJKQ22","coordinates":[-65.0726107,44.94565583]},{"code":"B/CA-0815","program":"wwbota","name":"FRP HJKQ2","coordinates":[-65.1647122,44.88356563]},{"code":"B/CA-0936","program":"wwbota","name":"Telephone: Bridgetown-Lawrencetown","coordinates":[-65.22653145,44.86270065]},{"code":"B/CA-0937","program":"wwbota","name":"DLF Radio: Lawrencetown-Greenwood","coordinates":[-65.0431242,44.932842]}]}