{"lat":44.75,"lon":-65,"programs":["pota","wwbota"],"count":5,"references":[{"code":"CA-1743","program":"pota","name":"Cloud Lake Wilderness Area","coordinates":[-64.9144,44.8096]},{"code":"CA-1894","program":"pota","name":"Torbrook Nature Reserve","coordinates":[-64.995,44.894]},{"code":"B/CA-0830","program":"wwbota","name":"FRP HJLQ1","coordinates":[-64.9215362,44.98211843]},{"code":"B/CA-0934","program":"wwbota","name":"RCMP Radio: Digby-Willow Hill","coordinates":[-64.82499495,44.7675782]},{"code":"B/CA-0942","program":"wwbota","name":"DLF Radio: Lawrencetown-Lake George","coordinates":[-64.9305264,44.9037089]}]}