{"lat":44.75,"lon":-72,"programs":["pota","sota"],"count":8,"references":[{"code":"US-3104","program":"pota","name":"Brighton State Park","coordinates":[-71.8551,44.7968]},{"code":"US-5563","program":"pota","name":"Black Turn Brook State Forest","coordinates":[-71.8044,44.995]},{"code":"W1/GM-110","program":"sota","name":"Elan Hill","coordinates":[-71.9923,44.8795]},{"code":"W1/GM-132","program":"sota","name":"Middle Mountain","coordinates":[-71.8316,44.9172]},{"code":"W1/NK-002","program":"sota","name":"Gore Mountain","coordinates":[-71.7936,44.9194]},{"code":"W1/NK-003","program":"sota","name":"Bald Mountain","coordinates":[-71.9886,44.7661]},{"code":"W1/NK-010","program":"sota","name":"Beechnut Ridge","coordinates":[-71.9186,44.9256]},{"code":"W1/NK-028","program":"sota","name":"Dollif Mountain","coordinates":[-71.9178,44.8222]}]}