{"lat":44.75,"lon":-120.5,"programs":["pota","sota"],"count":11,"references":[{"code":"US-10056","program":"pota","name":"Spring Basin Wilderness Area","coordinates":[-120.44,44.869]},{"code":"W7O/CE-228","program":"sota","name":"Black Top","coordinates":[-120.2958,44.8314]},{"code":"W7O/CE-232","program":"sota","name":"Amine Peak","coordinates":[-120.321,44.7979]},{"code":"W7O/CE-233","program":"sota","name":"Porcupine Butte","coordinates":[-120.3156,44.8869]},{"code":"W7O/CE-237","program":"sota","name":"Wagner Mountain","coordinates":[-120.425,44.799]},{"code":"W7O/CE-302","program":"sota","name":"4282","coordinates":[-120.2754,44.9441]},{"code":"W7O/CE-307","program":"sota","name":"3527","coordinates":[-120.3051,44.8672]},{"code":"W7O/CE-308","program":"sota","name":"Spring Basin Wilderness HP","coordinates":[-120.3526,44.8776]},{"code":"W7O/CE-311","program":"sota","name":"2947","coordinates":[-120.4815,44.7985]},{"code":"W7O/CE-312","program":"sota","name":"2761","coordinates":[-120.3364,44.7514]},{"code":"W7O/CE-315","program":"sota","name":"2500","coordinates":[-120.4779,44.849]}]}