{"lat":44.75,"lon":14.25,"programs":["pota","sota","wwbota"],"count":5,"references":[{"code":"HR-0085","program":"pota","name":"Otok Cres Natura 2000","coordinates":[14.4013,44.8728]},{"code":"HR-0125","program":"pota","name":"Cres - rt Pernat - uvala Tiha Natura 2000","coordinates":[14.3041,44.9065]},{"code":"9A/PH-042","program":"sota","name":"Helm","coordinates":[14.344458,44.86622]},{"code":"9A/PH-047","program":"sota","name":"Zlostan","coordinates":[14.399464,44.886833]},{"code":"B/9A-0091","program":"wwbota","name":"Grmov","coordinates":[14.370644,44.825328]}]}