{"lat":44.75,"lon":13.75,"programs":["pota","wwbota"],"count":24,"references":[{"code":"HR-0008","program":"pota","name":"Brijuni National Park","coordinates":[13.7632,44.9118]},{"code":"HR-0086","program":"pota","name":"Akvatorij zapadne Istre Natura 2000","coordinates":[13.7616,44.8953]},{"code":"HR-0242","program":"pota","name":"Tisućljetna baština - Rimska baština Historic Site","coordinates":[13.812,44.9136]},{"code":"HR-0245","program":"pota","name":"Donji Kamenjak Natura 2000","coordinates":[13.9122,44.782]},{"code":"B/9A-0024","program":"wwbota","name":"Figo Uvala","coordinates":[13.79697494,44.87002089]},{"code":"B/9A-0025","program":"wwbota","name":"Muzil","coordinates":[13.80173611,44.86299737]},{"code":"B/9A-0026","program":"wwbota","name":"Pula","coordinates":[13.85062413,44.83335177]},{"code":"B/9A-0072","program":"wwbota","name":"Coast Beach","coordinates":[13.771061,44.966328]},{"code":"B/9A-0074","program":"wwbota","name":"Peroj","coordinates":[13.782371,44.951709]},{"code":"B/9A-0077","program":"wwbota","name":"Fisella","coordinates":[13.807199,44.872215]},{"code":"B/9A-0078","program":"wwbota","name":"Muzil","coordinates":[13.800478,44.864138]},{"code":"B/9A-0079","program":"wwbota","name":"Muzil","coordinates":[13.798225,44.862089]},{"code":"B/9A-0080","program":"wwbota","name":"Ovine","coordinates":[13.808051,44.860694]},{"code":"B/9A-0081","program":"wwbota","name":"Kolucinka","coordinates":[13.853595,44.817923]},{"code":"B/9A-0082","program":"wwbota","name":"Volam","coordinates":[13.873727,44.805451]},{"code":"B/9A-0083","program":"wwbota","name":"Premantura","coordinates":[13.908959,44.812672]},{"code":"B/9A-0084","program":"wwbota","name":"Premantura","coordinates":[13.906845,44.795499]},{"code":"B/9A-0085","program":"wwbota","name":"Kamenjak","coordinates":[13.911081,44.771274]},{"code":"B/9A-0086","program":"wwbota","name":"Medulin","coordinates":[13.929502,44.803294]},{"code":"B/9A-0087","program":"wwbota","name":"Medulin","coordinates":[13.93155,44.804]},{"code":"B/9A-0088","program":"wwbota","name":"Monte Madonna","coordinates":[13.974718,44.846977]},{"code":"B/9A-0089","program":"wwbota","name":"Monte Madonna","coordinates":[13.974866,44.847225]},{"code":"B/9A-0090","program":"wwbota","name":"Monte Madonna","coordinates":[13.975064,44.84743]},{"code":"B/9A-0120","program":"wwbota","name":"Fort San Daniele","coordinates":[13.890786,44.883648]}]}