{"lat":44.75,"lon":20.25,"programs":["pota","wwbota"],"count":11,"references":[{"code":"RS-0096","program":"pota","name":"Veliko Blato Habitat Protection Area","coordinates":[20.4958,44.863]},{"code":"RS-0165","program":"pota","name":"Bajfordova šuma Natural Monument","coordinates":[20.4757,44.7664]},{"code":"RS-0185","program":"pota","name":"Veliko ratno ostrvo Landscape Park","coordinates":[20.4312,44.8347]},{"code":"RS-0186","program":"pota","name":"Kalemegdanski rt Natural Monument","coordinates":[20.4467,44.8254]},{"code":"RS-0187","program":"pota","name":"Šuma Košutnjak Natural Monument","coordinates":[20.4341,44.7668]},{"code":"RS-0231","program":"pota","name":"Gljive Ade Ciganlije Habitat Protection Area","coordinates":[20.3812,44.7852]},{"code":"RS-0244","program":"pota","name":"Akademski park Nature Monument","coordinates":[20.4576,44.8196]},{"code":"RS-0047","program":"pota","name":"Lesni Profil Kapela Protected Area","coordinates":[20.3171,44.9262]},{"code":"B/YU-0001","program":"wwbota","name":"Nemacki bunker Kalemegdan","coordinates":[20.4489,44.8233]},{"code":"B/YU-0002","program":"wwbota","name":"Karadjordjev park Bunker","coordinates":[20.4662,44.7968]},{"code":"B/YU-0006","program":"wwbota","name":"Bunker Savski nasip","coordinates":[20.4351,44.8082]}]}