{"lat":44.75,"lon":-73.25,"programs":["pota","sota"],"count":6,"references":[{"code":"US-0574","program":"pota","name":"Missisquoi National Wildlife Refuge","coordinates":[-73.2,44.9661]},{"code":"US-3105","program":"pota","name":"Burton Island State Park","coordinates":[-73.198,44.7766]},{"code":"US-3121","program":"pota","name":"Kamp Kill Kare State Park","coordinates":[-73.183,44.779]},{"code":"US-3137","program":"pota","name":"North Hero State Park","coordinates":[-73.2367,44.909]},{"code":"US-3153","program":"pota","name":"Woods Island State Park","coordinates":[-73.2085,44.8026]},{"code":"W1/GM-148","program":"sota","name":"Bellevue Hill","coordinates":[-73.065,44.7817]}]}