{"lat":44.75,"lon":4.5,"programs":["pota","sota"],"count":11,"references":[{"code":"FR-2775","program":"pota","name":"ROMPON OUVEZE PAYRE FR8201669 NATURA 2000 Natura 2000","coordinates":[4.74938,44.7809]},{"code":"FR-14100","program":"pota","name":"Ruisseau de la Sumene Biological Reserve","coordinates":[4.555,44.971]},{"code":"FR-14101","program":"pota","name":"Haute-vallee du Doux Biological Reserve","coordinates":[4.519,44.997]},{"code":"F/CR-160","program":"sota","name":"Serre de la Roue","coordinates":[4.6283,44.94]},{"code":"F/CR-173","program":"sota","name":"Serre d'Auray","coordinates":[4.5536,44.9225]},{"code":"F/CR-177","program":"sota","name":"Folambert","coordinates":[4.5044,44.9078]},{"code":"F/CR-184","program":"sota","name":"Serre de Montourat","coordinates":[4.6494,44.9992]},{"code":"F/CR-187","program":"sota","name":"Serre de Muans","coordinates":[4.7084,44.9019]},{"code":"F/CR-188","program":"sota","name":"Serre l'Eglise","coordinates":[4.6336,44.7675]},{"code":"F/CR-255","program":"sota","name":"Commune de Rompon","coordinates":[4.7344,44.7675]},{"code":"F/CR-313","program":"sota","name":"Serre de Doux","coordinates":[4.6525,44.81]}]}