{"lat":44.75,"lon":7,"programs":["gma","pota","sota"],"count":21,"references":[{"code":"IT/PM-1064","program":"gma","name":"Monte Selletta","coordinates":[7.02810001,44.89279938]},{"code":"IT/PM-1072","program":"gma","name":"Monte Vandalino","coordinates":[7.1651001,44.83720016]},{"code":"IT/PM-1094","program":"gma","name":"Rocca Bianca","coordinates":[7.09189987,44.90420151]},{"code":"IT/PM-1095","program":"gma","name":"Monte Servin","coordinates":[7.18510008,44.87689972]},{"code":"IT/PM-1121","program":"gma","name":"Monte Castellus","coordinates":[7.183333,44.829167]},{"code":"IT/PM-1122","program":"gma","name":"Punta Piattina","coordinates":[7.200716,44.874181]},{"code":"IT/PM-1128","program":"gma","name":"Punta Barant","coordinates":[7.06361,44.776883]},{"code":"IT/PM-1131","program":"gma","name":"Grand Truc","coordinates":[7.141578,44.892038]},{"code":"IT-0094","program":"pota","name":"Bosco di Pian Prà (Rorà) Natura 2000","coordinates":[7.19167,44.7969]},{"code":"IT-0266","program":"pota","name":"Stazioni di Myricaria germanica Natura 2000","coordinates":[7.14119,44.8034]},{"code":"IT-0765","program":"pota","name":"Pra - Barant Natura 2000","coordinates":[7.05944,44.7558]},{"code":"IT-1387","program":"pota","name":"Parco naturale di Conca Cialancia Other Conservation Area","coordinates":[7.10841,44.8811]},{"code":"F/AM-077","program":"sota","name":"Grand Queyron","coordinates":[7.0012,44.8424]},{"code":"F/AM-095","program":"sota","name":"Bric Bouchet","coordinates":[7.0234,44.8216]},{"code":"F/AM-176","program":"sota","name":"Le Mait d'Amunt","coordinates":[7.01,44.7986]},{"code":"I/PM-028","program":"sota","name":"Cima Roudel","coordinates":[7.0036,44.8594]},{"code":"I/PM-029","program":"sota","name":"Punta Vergia","coordinates":[7.0132,44.8827]},{"code":"I/PM-366","program":"sota","name":"Punta Midi / Muret","coordinates":[7.1082,44.9693]},{"code":"I/PM-417","program":"sota","name":"Punta Cornour","coordinates":[7.0925,44.8502]},{"code":"I/PM-418","program":"sota","name":"Punta Cialancia","coordinates":[7.1011,44.8619]},{"code":"I/PM-597","program":"sota","name":"Bric Rosso","coordinates":[7.0184,44.9912]}]}