{"lat":44.75,"lon":9.25,"programs":["pota","sota"],"count":13,"references":[{"code":"IT-0918","program":"pota","name":"Fiume Trebbia da Perino a Bobbio Natura 2000","coordinates":[9.41778,44.7947]},{"code":"IT-1002","program":"pota","name":"Pietra Parcellara e Pietra Perduca Natura 2000","coordinates":[9.48028,44.8428]},{"code":"IT-1048","program":"pota","name":"Monte Capra, Monte Tre Abati, Monte Armelio, Sant'Agostino, Lago di Averaldi Natura 2000","coordinates":[9.47778,44.7664]},{"code":"IT-1620","program":"pota","name":"Rupi di Rocca d'Olgisio Natura 2000","coordinates":[9.3968,44.9108]},{"code":"IT-0119","program":"pota","name":"Sassi Neri - Pietra Corva Natura 2000","coordinates":[9.342,44.822]},{"code":"IT-0379","program":"pota","name":"Monte Alpe Natura 2000","coordinates":[9.29722,44.8103]},{"code":"IT-0857","program":"pota","name":"Parco del Castello dal Verme Other Conservation Area","coordinates":[9.26248,44.8734]},{"code":"I/ER-027","program":"sota","name":"Costa Monte Capra","coordinates":[9.4626,44.7528]},{"code":"I/ER-067","program":"sota","name":"Pietra Parcellara","coordinates":[9.4758,44.8442]},{"code":"I/ER-071","program":"sota","name":"Monte Aldone","coordinates":[9.3804,44.9002]},{"code":"I/ER-082","program":"sota","name":"Colle Fornaleto – Quota 670","coordinates":[9.3227,44.9443]},{"code":"I/LO-215","program":"sota","name":"Monte Pènice","coordinates":[9.3178,44.785]},{"code":"I/LO-248","program":"sota","name":"Monte d'Alpe","coordinates":[9.3104,44.8097]}]}