{"lat":44.75,"lon":-122.5,"programs":["pota","sota"],"count":11,"references":[{"code":"US-9982","program":"pota","name":"Table Rock Wilderness Area","coordinates":[-122.409,44.9614]},{"code":"W7O/WV-020","program":"sota","name":"Rocky Top","coordinates":[-122.2924,44.7884]},{"code":"W7O/WV-029","program":"sota","name":"Table Rock","coordinates":[-122.31,44.9701]},{"code":"W7O/WV-040","program":"sota","name":"Henline Mountain","coordinates":[-122.3206,44.8642]},{"code":"W7O/WV-056","program":"sota","name":"Panther Rock","coordinates":[-122.3847,44.9038]},{"code":"W7O/WV-061","program":"sota","name":"Sweet Spring Mountain","coordinates":[-122.4607,44.856]},{"code":"W7O/WV-068","program":"sota","name":"House Mountain","coordinates":[-122.483,44.8412]},{"code":"W7O/WV-102","program":"sota","name":"4780","coordinates":[-122.2761,44.8144]},{"code":"W7O/WV-111","program":"sota","name":"4536","coordinates":[-122.2768,44.9414]},{"code":"W7O/WV-113","program":"sota","name":"4432","coordinates":[-122.3941,44.8785]},{"code":"W7O/WV-143","program":"sota","name":"2556","coordinates":[-122.448,44.781]}]}