{"lat":44.75,"lon":35,"programs":["gma","sota"],"count":46,"references":[{"code":"R5/CR-018","program":"gma","name":"Tuar-Alan","coordinates":[35.07540131,44.96839905]},{"code":"R5/CR-028","program":"gma","name":"Kara-Oba","coordinates":[35.13029861,44.90439987]},{"code":"R5/CR-031","program":"gma","name":"Urbash","coordinates":[35.06480026,44.90520096]},{"code":"R5/CR-037","program":"gma","name":"Svyataya","coordinates":[35.22900009,44.93109894]},{"code":"R5/CR-044","program":"gma","name":"Legener","coordinates":[35.20500183,44.94169998]},{"code":"R5/CR-048","program":"gma","name":"Meganom","coordinates":[35.07580185,44.80950165]},{"code":"R5/CR-064","program":"gma","name":"Kara-Burun","coordinates":[35.1347222,44.9911111]},{"code":"R5/CR-065","program":"gma","name":"Kush-Kaya","coordinates":[35.1419444,44.9558333]},{"code":"R5/CR-066","program":"gma","name":"Ardyn-Kaya","coordinates":[35.1586111,44.9561111]},{"code":"R5/CR-067","program":"gma","name":"Otlu-Kaya","coordinates":[35.1802778,44.9633333]},{"code":"R5/CR-068","program":"gma","name":"Matrach-Oba","coordinates":[35.1883333,44.9563889]},{"code":"R5/CR-069","program":"gma","name":"Sandyk-Kaya","coordinates":[35.0883333,44.9394444]},{"code":"R5/CR-070","program":"gma","name":"Socharchikon-Kaya","coordinates":[35.1033333,44.9291667]},{"code":"R5/CR-071","program":"gma","name":"Kurban-Kaya","coordinates":[35.1172222,44.9477778]},{"code":"R5/CR-072","program":"gma","name":"Ah-Bilen","coordinates":[35.1266667,44.9394444]},{"code":"R5/CR-073","program":"gma","name":"Asma-Kaya","coordinates":[35.1216667,44.9322222]},{"code":"R5/CR-074","program":"gma","name":"Kyzyltash","coordinates":[35.0872222,44.9330556]},{"code":"R5/CR-075","program":"gma","name":"Chukur-Kaya","coordinates":[35.1141667,44.9222222]},{"code":"R5/CR-076","program":"gma","name":"Divanchik","coordinates":[35.1030556,44.9205556]},{"code":"R5/CR-077","program":"gma","name":"Gunyshlik","coordinates":[35.0808333,44.9008333]},{"code":"R5/CR-078","program":"gma","name":"Sinoryn-Obasy","coordinates":[35.07,44.8908333]},{"code":"R5/CR-079","program":"gma","name":"Parsuk-Kaya","coordinates":[35.0922222,44.8952778]},{"code":"R5/CR-080","program":"gma","name":"Tokluk-Syrt","coordinates":[35.0861111,44.8825]},{"code":"R5/CR-081","program":"gma","name":"Papas-Tepe","coordinates":[35.1494444,44.9269444]},{"code":"R5/CR-082","program":"gma","name":"Mal-Kaya","coordinates":[35.1508333,44.9347222]},{"code":"R5/CR-083","program":"gma","name":"Burantaj-Kaya","coordinates":[35.1508333,44.9347222]},{"code":"R5/CR-084","program":"gma","name":"Ashmalyk","coordinates":[35.1686111,44.9122222]},{"code":"R5/CR-085","program":"gma","name":"Kazanchik","coordinates":[35.1666667,44.9241667]},{"code":"R5/CR-086","program":"gma","name":"Mayak","coordinates":[35.1741667,44.9044444]},{"code":"R5/CR-087","program":"gma","name":"Bakyr-Bash","coordinates":[35.1455556,44.9069444]},{"code":"R5/CR-088","program":"gma","name":"Kokush-Kaya","coordinates":[35.1438889,44.9047222]},{"code":"R5/CR-089","program":"gma","name":"Kush-Kaya","coordinates":[35.1225,44.9061111]},{"code":"R5/CR-090","program":"gma","name":"Delamet-Kaya","coordinates":[35.13,44.8994444]},{"code":"R5/CR-091","program":"gma","name":"Kyzyl-Topragyn-Burunun-Kayasy","coordinates":[35.1122222,44.8883333]},{"code":"R5/CR-092","program":"gma","name":"Panchar-Syrt","coordinates":[35.1055556,44.8888889]},{"code":"R5/CR-093","program":"gma","name":"Teke-Atan-Kaya","coordinates":[35.1063889,44.8855556]},{"code":"R5/CR-094","program":"gma","name":"Legenler","coordinates":[35.1136111,44.8852778]},{"code":"R5/CR-095","program":"gma","name":"Syuyuryu-Kaya","coordinates":[35.1083333,44.8819444]},{"code":"R5/CR-096","program":"gma","name":"Pandasha","coordinates":[35.1058333,44.8766667]},{"code":"R5/CR-109","program":"gma","name":"Eger-Oba","coordinates":[35.249727,44.970989]},{"code":"UT/CR-018","program":"sota","name":"Туар-Алан (Tuar-Alan)","coordinates":[35.0754,44.9684]},{"code":"UT/CR-028","program":"sota","name":"Кара-Оба (Kara-Oba)","coordinates":[35.1303,44.9044]},{"code":"UT/CR-031","program":"sota","name":"Урбаш (Urbash)","coordinates":[35.0648,44.9052]},{"code":"UT/CR-037","program":"sota","name":"Святая (Svyataya)","coordinates":[35.229,44.9311]},{"code":"UT/CR-044","program":"sota","name":"Легенер (Legener)","coordinates":[35.205,44.9417]},{"code":"UT/CR-048","program":"sota","name":"Меганом (Meganom)","coordinates":[35.0758,44.8095]}]}