{"lat":44.75,"lon":34.75,"programs":["gma","sota"],"count":22,"references":[{"code":"R5/CR-012","program":"gma","name":"Sugut-Oba","coordinates":[34.85490036,44.94430161]},{"code":"R5/CR-015","program":"gma","name":"Kikushlu-Oba","coordinates":[34.87760162,44.94900131]},{"code":"R5/CR-016","program":"gma","name":"Livaz-Kaya","coordinates":[34.77719879,44.9233017]},{"code":"R5/CR-027","program":"gma","name":"Apaly","coordinates":[34.98460007,44.96020126]},{"code":"R5/CR-036","program":"gma","name":"Perchem","coordinates":[34.92890167,44.85910034]},{"code":"R5/CR-043","program":"gma","name":"Kuchuk-Guba-Tepe","coordinates":[34.97909927,44.9197998]},{"code":"R5/CR-046","program":"gma","name":"Sokol","coordinates":[34.92570114,44.83720016]},{"code":"R5/CR-097","program":"gma","name":"Alchak-Kaya","coordinates":[34.9938889,44.8341667]},{"code":"R5/CR-098","program":"gma","name":"Lysaya","coordinates":[34.9538889,44.8541667]},{"code":"R5/CR-099","program":"gma","name":"Ambulapla","coordinates":[34.8713889,44.8730556]},{"code":"R5/CR-100","program":"gma","name":"Biyuk-Gogerjin-Kaya","coordinates":[34.8733333,44.8613889]},{"code":"R5/CR-101","program":"gma","name":"Kuchuk-Gogerjin-Kaya","coordinates":[34.8702778,44.8572222]},{"code":"R5/CR-102","program":"gma","name":"Bash-Parmak","coordinates":[34.8627778,44.855]},{"code":"R5/CR-103","program":"gma","name":"Vigla","coordinates":[34.8577778,44.8641667]},{"code":"R5/CR-104","program":"gma","name":"Genoese","coordinates":[34.9583333,44.8413889]},{"code":"UT/CR-012","program":"sota","name":"Сугут-Оба (Sugut-Oba)","coordinates":[34.8549,44.9443]},{"code":"UT/CR-015","program":"sota","name":"Кикушлу-Оба (Kikushlu-Oba)","coordinates":[34.8776,44.949]},{"code":"UT/CR-016","program":"sota","name":"Ливаз-Кая (Livaz-Kaya)","coordinates":[34.7772,44.9233]},{"code":"UT/CR-027","program":"sota","name":"Апалы (Apaly)","coordinates":[34.9846,44.9602]},{"code":"UT/CR-036","program":"sota","name":"Перчем (Perchem)","coordinates":[34.9289,44.8591]},{"code":"UT/CR-043","program":"sota","name":"Кучук-Губа-Тепе (Kuchuk-Guba-Tepe)","coordinates":[34.9791,44.9198]},{"code":"UT/CR-046","program":"sota","name":"Сокол (Sokol)","coordinates":[34.9257,44.8372]}]}