{"lat":45,"lon":-116,"programs":["sota"],"count":21,"references":[{"code":"W7I/IC-035","program":"sota","name":"Steamboat Benchmark","coordinates":[-115.7527,45.2094]},{"code":"W7I/IC-148","program":"sota","name":"Ruby Mountain","coordinates":[-115.8529,45.2255]},{"code":"W7I/IC-333","program":"sota","name":"8074","coordinates":[-115.9129,45.2118]},{"code":"W7I/VC-011","program":"sota","name":"North Loon Mountain","coordinates":[-115.873,45.1126]},{"code":"W7I/VC-015","program":"sota","name":"South Loon Mountain","coordinates":[-115.8812,45.1001]},{"code":"W7I/VC-029","program":"sota","name":"Storm Peak","coordinates":[-115.9189,45.1321]},{"code":"W7I/VC-035","program":"sota","name":"McCabe Peak","coordinates":[-115.8621,45.0262]},{"code":"W7I/VC-058","program":"sota","name":"8808","coordinates":[-115.9173,45.1175]},{"code":"W7I/VC-065","program":"sota","name":"8744","coordinates":[-115.8988,45.0116]},{"code":"W7I/VC-069","program":"sota","name":"Rain Benchmark","coordinates":[-115.9608,45.0698]},{"code":"W7I/VC-072","program":"sota","name":"8708","coordinates":[-115.9052,45.0001]},{"code":"W7I/VC-081","program":"sota","name":"8662","coordinates":[-115.9254,45.0909]},{"code":"W7I/VC-083","program":"sota","name":"Beaverdam Peak","coordinates":[-115.9653,45.0277]},{"code":"W7I/VC-084","program":"sota","name":"8620","coordinates":[-115.8647,45.0766]},{"code":"W7I/VC-085","program":"sota","name":"Diamond Ridge","coordinates":[-115.9221,45.1644]},{"code":"W7I/VC-086","program":"sota","name":"8610","coordinates":[-115.9639,45.0905]},{"code":"W7I/VC-091","program":"sota","name":"8573","coordinates":[-115.922,45.0719]},{"code":"W7I/VC-105","program":"sota","name":"Pearl Benchmark","coordinates":[-115.9719,45.1115]},{"code":"W7I/VC-112","program":"sota","name":"8356","coordinates":[-115.8925,45.0321]},{"code":"W7I/VC-121","program":"sota","name":"8289","coordinates":[-115.912,45.0594]},{"code":"W7I/VC-178","program":"sota","name":"Split Creek Point","coordinates":[-115.775,45.1079]}]}