{"lat":45,"lon":5.75,"programs":["pota","sota"],"count":50,"references":[{"code":"FR-3349","program":"pota","name":"CEMBRAIE PELOUSES LACS ET TOURBIERES DE BELLEDONNE DE CHAMROUSSE AU GRAND COLON  FR8201733 Natura 2000","coordinates":[5.92603,45.1335]},{"code":"FR-3350","program":"pota","name":"TOURBIERES DU LUITEL ET LEUR BASSIN VERSANT  FR8201732 Natura 2000","coordinates":[5.85694,45.0894]},{"code":"FR-3351","program":"pota","name":"LAC LUITEL  FR3600001 National Nature Reserve","coordinates":[5.84942,45.0883]},{"code":"FR-3352","program":"pota","name":"LANDES TOURBIERES ET HABITATS ROCHEUX DU MASSIF DU TAILLEFER  FR8201735 Natura 2000","coordinates":[5.91756,45.0517]},{"code":"FR-4664","program":"pota","name":"Tourbiere Du Cirque Du Lac Du Collet Biological Reserve","coordinates":[5.867,45.14]},{"code":"FR-4665","program":"pota","name":"Tourbiere Des Plagnes Biological Reserve","coordinates":[5.8548,45.0724]},{"code":"FR-4666","program":"pota","name":"Tourbieres De L'Envers De Super Collet Biological Reserve","coordinates":[5.8645,45.0893]},{"code":"FR-13252","program":"pota","name":"Prairies seches de St Martin d'Uriage et Herbeys Biological Reserve","coordinates":[5.809,45.151]},{"code":"FR-13255","program":"pota","name":"Boisement du Mas de l'Ile et Boucle de la Taillat Biological Reserve","coordinates":[5.797,45.191]},{"code":"FR-13256","program":"pota","name":"Ancienne boucle de l'Isere au Bois Francais Biological Reserve","coordinates":[5.841,45.23]},{"code":"FR-13257","program":"pota","name":"Lieu dit Le Moulin a Saint Nazaire les Eymes National Park","coordinates":[5.856,45.245]},{"code":"FR-13305","program":"pota","name":"Col des Mouilles Biological Reserve","coordinates":[5.955,45.238]},{"code":"FR-13306","program":"pota","name":"Prairies seches de Sainte Agnes Biological Reserve","coordinates":[5.931,45.239]},{"code":"FR-13307","program":"pota","name":"Pelouse de la Combe de Lancey Biological Reserve","coordinates":[5.903,45.225]},{"code":"FR-13308","program":"pota","name":"Pelouse seche de La Carralliere Biological Reserve","coordinates":[5.804,45.222]},{"code":"FR-13309","program":"pota","name":"Pelouse seche des Eyminees Biological Reserve","coordinates":[5.875,45.216]},{"code":"FR-13310","program":"pota","name":"Prairies seches de St Jean Le Vieux Biological Reserve","coordinates":[5.881,45.214]},{"code":"FR-13311","program":"pota","name":"Pelouse seche du Buisson Biological Reserve","coordinates":[5.882,45.203]},{"code":"FR-13312","program":"pota","name":"Prairies seches de la Sarrasine Biological Reserve","coordinates":[5.87,45.196]},{"code":"FR-13313","program":"pota","name":"Les prairies seches de Venon Biological Reserve","coordinates":[5.804,45.177]},{"code":"FR-13314","program":"pota","name":"Prairies seches de St Martin d'Uriage Nord Biological Reserve","coordinates":[5.848,45.174]},{"code":"FR-13315","program":"pota","name":"Tourbiere du Lac Praver Biological Reserve","coordinates":[5.854,45.072]},{"code":"FR-13316","program":"pota","name":"Lac Luitel Biological Reserve","coordinates":[5.848,45.09]},{"code":"FR-13317","program":"pota","name":"L'Arselle Biological Reserve","coordinates":[5.878,45.097]},{"code":"FR-13318","program":"pota","name":"Alpages, rochers et lacs de la Botte Biological Reserve","coordinates":[5.889,45.108]},{"code":"FR-13319","program":"pota","name":"Petites zones humides de Chamrousse Biological Reserve","coordinates":[5.882,45.11]},{"code":"FR-13320","program":"pota","name":"Lacs Robert et lac du Crozet Biological Reserve","coordinates":[5.914,45.132]},{"code":"FR-13321","program":"pota","name":"Marais de Seiglieres Biological Reserve","coordinates":[5.851,45.141]},{"code":"FR-13322","program":"pota","name":"Foret de conifères du parking de la Gate Biological Reserve","coordinates":[5.885,45.15]},{"code":"FR-13323","program":"pota","name":"Freydieres Biological Reserve","coordinates":[5.9,45.187]},{"code":"FR-13325","program":"pota","name":"Landes du Ferrouillet Biological Reserve","coordinates":[5.992,45.223]},{"code":"FR-14904","program":"pota","name":"VERSANTS MERIDIONAUX DE LA CHARTREUSE Biological Reserve","coordinates":[5.785,45.243]},{"code":"FR-14908","program":"pota","name":"Pelouse seche du Fort du Bourcet Biological Reserve","coordinates":[5.779,45.233]},{"code":"F/AB-151","program":"sota","name":"Grand Pic de Belledonne","coordinates":[5.9913,45.1707]},{"code":"F/AB-186","program":"sota","name":"Le Taillefer","coordinates":[5.9242,45.0394]},{"code":"F/AB-189","program":"sota","name":"La Pyramide","coordinates":[5.9398,45.039]},{"code":"F/AB-197","program":"sota","name":"Grande Lance d'Alemont","coordinates":[5.9946,45.1516]},{"code":"F/AB-205","program":"sota","name":"Grande Lance de Domène","coordinates":[5.9594,45.1719]},{"code":"F/AB-245","program":"sota","name":"Pic de Mirebel","coordinates":[5.9558,45.1439]},{"code":"F/AB-248","program":"sota","name":"Le Grand Galbert","coordinates":[5.9592,45.0904]},{"code":"F/AB-259","program":"sota","name":"Le Grand Sorbier","coordinates":[5.9336,45.1344]},{"code":"F/AB-281","program":"sota","name":"Le Galeteau","coordinates":[5.9367,45.1628]},{"code":"F/AB-308","program":"sota","name":"Brèche Robert Nord","coordinates":[5.9155,45.1372]},{"code":"F/AB-462","program":"sota","name":"Pic de l'Oeilly","coordinates":[5.8379,45.0873]},{"code":"F/AB-515","program":"sota","name":"Prémol","coordinates":[5.8411,45.176]},{"code":"F/AB-520","program":"sota","name":"Fort des Quatre Seigneurs","coordinates":[5.8045,45.1537]},{"code":"F/AB-544","program":"sota","name":"Bellevue","coordinates":[5.7676,45.1002]},{"code":"F/AB-558","program":"sota","name":"Fort de Montavie","coordinates":[5.7588,45.1341]},{"code":"F/AB-569","program":"sota","name":"Le Grand Colon","coordinates":[5.9267,45.163]},{"code":"F/AB-626","program":"sota","name":"Croix de Chamrousse","coordinates":[5.90249,45.125828]}]}