{"lat":45,"lon":10,"programs":["pota"],"count":6,"references":[{"code":"IT-0342","program":"pota","name":"Bosco Ronchetti Natura 2000","coordinates":[10.126,45.038]},{"code":"IT-0401","program":"pota","name":"Gabbioneta Natura 2000","coordinates":[10.2264,45.2189]},{"code":"IT-0838","program":"pota","name":"Parco del Po e del Morbasco Other Conservation Area","coordinates":[10.0222,45.1177]},{"code":"IT-1257","program":"pota","name":"Monumento Naturale Bodrio delle Gerre Provincial Park","coordinates":[10.0798,45.054]},{"code":"IT-1258","program":"pota","name":"Monumento Naturale Bodrio della Cascina Margherita Provincial Park","coordinates":[10.1467,45.0692]},{"code":"IT-1259","program":"pota","name":"Monumento Naturale Bodrio della Ca de' Gatti Provincial Park","coordinates":[10.1337,45.0699]}]}