{"lat":45,"lon":6.75,"programs":["gma","pota","sota","wwbota"],"count":56,"references":[{"code":"IT/PM-1007","program":"gma","name":"Cresta San Michele","coordinates":[6.7876,45.1535]},{"code":"IT/PM-1025","program":"gma","name":"Malamot","coordinates":[6.91190004,45.19919968]},{"code":"IT/PM-1038","program":"gma","name":"Monte Niblè","coordinates":[6.89720011,45.14009857]},{"code":"IT/PM-1041","program":"gma","name":"Cima del Vallone","coordinates":[6.92859983,45.12509918]},{"code":"IT/PM-1042","program":"gma","name":"Punta Mulatera","coordinates":[6.96330023,45.16749954]},{"code":"FR-4657","program":"pota","name":"Montcenis Et Vallon De Savine Biological Reserve","coordinates":[6.949,45.2168]},{"code":"IT-0149","program":"pota","name":"Stagno di Oulx Natura 2000","coordinates":[6.8172,45.0361]},{"code":"IT-0764","program":"pota","name":"Gran Bosco di Salbertrand Natura 2000","coordinates":[6.9222,45.0581]},{"code":"IT-1670","program":"pota","name":"Oasi xerotermica di Oulx - Amazas Natura 2000","coordinates":[6.82222,45.0192]},{"code":"IT-1671","program":"pota","name":"Oasi xerotermica di Oulx - Auberge Natura 2000","coordinates":[6.83278,45.0553]},{"code":"IT-2009","program":"pota","name":"Boscaglie di Tasso di Giaglione (Val Clarea) Natura 2000","coordinates":[6.95917,45.1589]},{"code":"IT-2010","program":"pota","name":"Bardonecchia - Val Fredda Natura 2000","coordinates":[6.80472,45.0986]},{"code":"F/AB-055","program":"sota","name":"Aiguille de Scolette","coordinates":[6.7686,45.16]},{"code":"F/AB-057","program":"sota","name":"Pointe du Lamet","coordinates":[6.9989,45.2397]},{"code":"F/AB-081","program":"sota","name":"Mont d'Ambin","coordinates":[6.8844,45.1567]},{"code":"F/AB-084","program":"sota","name":"Pointe Ferrand","coordinates":[6.8958,45.1392]},{"code":"F/AB-086","program":"sota","name":"Pointe Someiller","coordinates":[6.852,45.128]},{"code":"F/AB-091","program":"sota","name":"Mont Giusalet","coordinates":[6.9296,45.1805]},{"code":"F/AB-095","program":"sota","name":"Pointe du Notaire","coordinates":[6.7861,45.1797]},{"code":"F/AB-098","program":"sota","name":"Pointe Saint-Michel","coordinates":[6.7967,45.1531]},{"code":"F/AB-100","program":"sota","name":"Le Petit Vallon","coordinates":[6.8448,45.1635]},{"code":"F/AB-117","program":"sota","name":"Signal du Petit Mont Cenis","coordinates":[6.8728,45.2442]},{"code":"F/AB-171","program":"sota","name":"Pointe Droset","coordinates":[6.9091,45.201]},{"code":"F/AB-180","program":"sota","name":"Cime du Laro","coordinates":[6.8892,45.2472]},{"code":"F/AB-198","program":"sota","name":"Mont Froid","coordinates":[6.8428,45.2375]},{"code":"F/AB-586","program":"sota","name":"Dents d'Ambin","coordinates":[6.8933,45.1692]},{"code":"F/AB-593","program":"sota","name":"Pointe de Bellecombe","coordinates":[6.8483,45.2175]},{"code":"I/PM-053","program":"sota","name":"Monte Jafferau","coordinates":[6.7682,45.0846]},{"code":"I/PM-072","program":"sota","name":"Cima delle Vallette","coordinates":[6.9933,45.0696]},{"code":"I/PM-117","program":"sota","name":"Punta di Moucrons","coordinates":[6.9039,45.0172]},{"code":"I/PM-322","program":"sota","name":"Monte Genevris","coordinates":[6.9016,45.031]},{"code":"I/PM-496","program":"sota","name":"Rognosa d'Etiache","coordinates":[6.8324,45.1341]},{"code":"I/PM-584","program":"sota","name":"Punta Valfredda","coordinates":[6.8144,45.1109]},{"code":"I/PM-590","program":"sota","name":"Monte Albergian","coordinates":[6.9924,45.0074]},{"code":"B/F-5678","program":"wwbota","name":"CIME du LARO","coordinates":[6.888566,45.247089]},{"code":"B/F-5679","program":"wwbota","name":"CIME du LARO","coordinates":[6.888566,45.247089]},{"code":"B/F-5680","program":"wwbota","name":"BECCIA","coordinates":[6.884353,45.24478]},{"code":"B/F-5681","program":"wwbota","name":"BECCIA","coordinates":[6.884353,45.24478]},{"code":"B/F-5690","program":"wwbota","name":"MONT FROID Est","coordinates":[6.848616,45.239364]},{"code":"B/F-5691","program":"wwbota","name":"MONT FROID Est","coordinates":[6.848616,45.239364]},{"code":"B/F-5694","program":"wwbota","name":"MONT FROID Centre","coordinates":[6.84566,45.238326]},{"code":"B/F-5695","program":"wwbota","name":"MONT FROID Centre","coordinates":[6.84566,45.238326]},{"code":"B/F-5696","program":"wwbota","name":"MONT FROID Ouest","coordinates":[6.84257,45.237541]},{"code":"B/F-5697","program":"wwbota","name":"MONT FROID Ouest","coordinates":[6.84257,45.237541]},{"code":"B/F-5698","program":"wwbota","name":"SOLLIERES 2","coordinates":[6.850317,45.236237]},{"code":"B/F-5699","program":"wwbota","name":"SOLLIERES 2","coordinates":[6.850317,45.236237]},{"code":"B/F-5714","program":"wwbota","name":"COL des ARCHETTES","coordinates":[6.843486,45.231316]},{"code":"B/F-5715","program":"wwbota","name":"COL des ARCHETTES","coordinates":[6.843486,45.231316]},{"code":"B/F-5749","program":"wwbota","name":"BELLECOMBE","coordinates":[6.843243,45.2107]},{"code":"B/F-5750","program":"wwbota","name":"BELLECOMBE","coordinates":[6.843243,45.2107]},{"code":"B/F-5751","program":"wwbota","name":"La CROSTA","coordinates":[6.858264,45.210448]},{"code":"B/F-5752","program":"wwbota","name":"La CROSTA","coordinates":[6.858264,45.210448]},{"code":"B/F-5756","program":"wwbota","name":"Abri GONNET","coordinates":[6.858736,45.206054]},{"code":"B/F-5757","program":"wwbota","name":"Abri GONNET","coordinates":[6.858736,45.206054]},{"code":"B/F-5758","program":"wwbota","name":"CASSE BLANCHE","coordinates":[6.856813,45.204458]},{"code":"B/F-5759","program":"wwbota","name":"CASSE BLANCHE","coordinates":[6.856813,45.204458]}]}