{"lat":45,"lon":-111,"programs":["sota"],"count":11,"references":[{"code":"W7M/SF-018","program":"sota","name":"Electric Peak","coordinates":[-110.8374,45.0052]},{"code":"W7M/SF-111","program":"sota","name":"9670","coordinates":[-110.9375,45.1095]},{"code":"W7M/SF-117","program":"sota","name":"Mans Foot Mountain","coordinates":[-110.9208,45.1344]},{"code":"W7M/SF-122","program":"sota","name":"9311","coordinates":[-110.9121,45.0258]},{"code":"W7M/SF-132","program":"sota","name":"Red Mountain","coordinates":[-110.7936,45.2052]},{"code":"W7M/SF-137","program":"sota","name":"Dome Mountain","coordinates":[-110.8633,45.1894]},{"code":"W7M/SF-170","program":"sota","name":"7349","coordinates":[-110.8515,45.128]},{"code":"W7M/SF-174","program":"sota","name":"Cinnabar Mountain","coordinates":[-110.8034,45.1034]},{"code":"W7M/SF-175","program":"sota","name":"Sphinx Mountain","coordinates":[-110.8649,45.1555]},{"code":"W7M/SF-215","program":"sota","name":"9827","coordinates":[-110.9509,45.0864]},{"code":"W7M/SF-216","program":"sota","name":"9592","coordinates":[-110.9916,45.0563]}]}