{"lat":45,"lon":-70.5,"programs":["pota","sota"],"count":11,"references":[{"code":"US-8435","program":"pota","name":"Bigelow State Preserve","coordinates":[-70.3495,45.1119]},{"code":"W1/AM-002","program":"sota","name":"Sugarloaf Mtn. Bigelow","coordinates":[-70.3133,45.0317]},{"code":"W1/AM-003","program":"sota","name":"West Peak on Bigelow Mtn.","coordinates":[-70.2883,45.1467]},{"code":"W1/AM-056","program":"sota","name":"Crocker Mtn.","coordinates":[-70.3828,45.0472]},{"code":"W1/AM-067","program":"sota","name":"Flagstaff Mtn.","coordinates":[-70.3067,45.2411]},{"code":"W1/AM-110","program":"sota","name":"Black Nubble Dallas","coordinates":[-70.4472,45.0319]},{"code":"W1/AM-166","program":"sota","name":"Black Nubble Kingfield","coordinates":[-70.2569,45.0008]},{"code":"W1/AM-183","program":"sota","name":"Cranberry Peak","coordinates":[-70.3806,45.1408]},{"code":"W1/AM-227","program":"sota","name":"Hedgehog Hill","coordinates":[-70.4322,45.1158]},{"code":"W1/AM-290","program":"sota","name":"Spaulding Mtn.","coordinates":[-70.3336,45.0031]},{"code":"W1/AM-329","program":"sota","name":"Carrabassett Dr. HP","coordinates":[-70.2611,45.1044]}]}