{"lat":45,"lon":10.25,"programs":["pota"],"count":6,"references":[{"code":"IT-0065","program":"pota","name":"Lanche di Gerra Gavazzi e Runate Natura 2000","coordinates":[10.3528,45.1708]},{"code":"IT-0317","program":"pota","name":"Lanca di Gerole Natura 2000","coordinates":[10.262,45.014]},{"code":"IT-0399","program":"pota","name":"Riserva Naturale Le Bine Provincial Park","coordinates":[10.4386,45.1407]},{"code":"IT-0810","program":"pota","name":"Parco Regionale Oglio Sud Natura 2000","coordinates":[10.3191,45.1742]},{"code":"IT-1236","program":"pota","name":"Monumento Naturale I Lagazzi Provincial Park","coordinates":[10.3874,45.1117]},{"code":"IT-2095","program":"pota","name":"Lanca di Gussola Natura 2000","coordinates":[10.3479,45.0035]}]}