{"lat":45,"lon":11,"programs":["pota"],"count":6,"references":[{"code":"IT-0277","program":"pota","name":"Paludi di Ostiglia Natura 2000","coordinates":[11.1011,45.1048]},{"code":"IT-0422","program":"pota","name":"Isola Boscone Natura 2000","coordinates":[11.2344,45.0408]},{"code":"IT-0423","program":"pota","name":"Isola Boschina Natura 2000","coordinates":[11.1489,45.0494]},{"code":"IT-0280","program":"pota","name":"Palude del Brusà - Le Vallette Natura 2000","coordinates":[11.22,45.1697]},{"code":"IT-0864","program":"pota","name":"Palude di Pellegrina Natura 2000","coordinates":[11.0139,45.2286]},{"code":"IT-0886","program":"pota","name":"Palude del Busatello Natura 2000","coordinates":[11.0886,45.1111]}]}