{"lat":45,"lon":-121.75,"programs":["gma","sota"],"count":7,"references":[{"code":"XW7O/CN-024","program":"gma","name":"Frog Lake Buttes","coordinates":[-121.66670227,45.21770096]},{"code":"W7O/CN-016","program":"sota","name":"Mount Wilson","coordinates":[-121.6581,45.0665]},{"code":"W7O/CN-045","program":"sota","name":"Summit Butte","coordinates":[-121.7169,45.0382]},{"code":"W7O/CN-049","program":"sota","name":"North Wilson","coordinates":[-121.6655,45.1189]},{"code":"W7O/CN-059","program":"sota","name":"Clear Lake Butte","coordinates":[-121.7185,45.1564]},{"code":"W7O/CN-090","program":"sota","name":"4620","coordinates":[-121.7151,45.2111]},{"code":"W7O/CN-106","program":"sota","name":"Frog Lake Buttes","coordinates":[-121.6628,45.2228]}]}