{"lat":45,"lon":6,"programs":["gma","pota","sota"],"count":31,"references":[{"code":"FA/AB-042","program":"gma","name":"Le Grand Perron","coordinates":[6.19250011,45.21749878]},{"code":"FA/AB-046","program":"gma","name":"La Balme","coordinates":[6.19719982,45.20500183]},{"code":"FR-3346","program":"pota","name":"MARAIS A LAICHE BICOLORE PRAIRIES DE FAUCHE ET HABITATS ROCHEUX DU VALLON DU FERRAND ET DU PLATEAU D'EMPARIS  FR8201736 Natura 2000","coordinates":[6.2075,45.0758]},{"code":"FR-3348","program":"pota","name":"PLAINE DE BOURG D OISANS ET SES VERSANTS  FR8201738 Natura 2000","coordinates":[6.02721,45.0643]},{"code":"FR-13324","program":"pota","name":"Alpages du versant oriental de la Croix de Belledonne Biological Reserve","coordinates":[6.013,45.18]},{"code":"FR-13326","program":"pota","name":"Versant oriental du massif des Sept Laux Biological Reserve","coordinates":[6.122,45.227]},{"code":"FR-13327","program":"pota","name":"Alpages et tourbiere du Col du Sabot Biological Reserve","coordinates":[6.127,45.191]},{"code":"FR-13328","program":"pota","name":"Versant montagneux sous la tete de Monvoisin Biological Reserve","coordinates":[6.06,45.202]},{"code":"FR-13329","program":"pota","name":"MASSIF DES GRANDES ROUSSES Biological Reserve","coordinates":[6.177,45.176]},{"code":"FR-13330","program":"pota","name":"Tourbière de la Petite-Lauze Biological Reserve","coordinates":[6.158,45.208]},{"code":"FR-13331","program":"pota","name":"Tourbiere de Pierre Aiguë Biological Reserve","coordinates":[6.216,45.22]},{"code":"FR-13332","program":"pota","name":"Tourbiere sous le col de la Croix de Fer Biological Reserve","coordinates":[6.207,45.225]},{"code":"FR-13333","program":"pota","name":"Sources du ruisseau du Banc Biological Reserve","coordinates":[6.196,45.212]},{"code":"F/AB-060","program":"sota","name":"Pic de l'Étendard","coordinates":[6.1436,45.1547]},{"code":"F/AB-062","program":"sota","name":"Pic Bayle","coordinates":[6.1358,45.1378]},{"code":"F/AB-105","program":"sota","name":"Cimes du Grand Sauvage","coordinates":[6.1659,45.1544]},{"code":"F/AB-144","program":"sota","name":"Pic du Mas de la Grave","coordinates":[6.2462,45.1205]},{"code":"F/AB-161","program":"sota","name":"Le Rocher Blanc","coordinates":[6.1075,45.2415]},{"code":"F/AB-169","program":"sota","name":"Aiguille Michel","coordinates":[6.1331,45.2445]},{"code":"F/AB-216","program":"sota","name":"Pic des Cabottes","coordinates":[6.0639,45.2419]},{"code":"F/AB-227","program":"sota","name":"Aiguille Rousse","coordinates":[6.1806,45.1978]},{"code":"F/AB-242","program":"sota","name":"Le Rissiou","coordinates":[6.0681,45.1836]},{"code":"F/AB-253","program":"sota","name":"Les Aiguillettes","coordinates":[6.125,45.1839]},{"code":"F/AB-271","program":"sota","name":"Montagne de la Lauze","coordinates":[6.2128,45.1536]},{"code":"F/AB-275","program":"sota","name":"L'Ouillon","coordinates":[6.215,45.2396]},{"code":"F/AB-284","program":"sota","name":"La Croix de Cassini","coordinates":[6.1342,45.0733]},{"code":"F/AB-291","program":"sota","name":"Pied Moutet","coordinates":[6.0961,45.0072]},{"code":"F/AB-322","program":"sota","name":"Signal de l'Homme","coordinates":[6.0861,45.0663]},{"code":"F/AB-369","program":"sota","name":"Prégentil","coordinates":[6.0084,45.046]},{"code":"F/AB-388","program":"sota","name":"Les Sures","coordinates":[6.0669,45.0563]},{"code":"F/AM-261","program":"sota","name":"Le Gros Têt","coordinates":[6.2396,45.0745]}]}