{"lat":45,"lon":5.5,"programs":["pota","sota"],"count":33,"references":[{"code":"FR-2762","program":"pota","name":"PELOUSES FORETS REMARQUABLES ET HABITATS ROCHEUX DU PLATEAU DU SORNIN FR8201745 NATURA 2000 Natura 2000","coordinates":[5.60879,45.1998]},{"code":"FR-10552","program":"pota","name":"Basse vallee du Drac National Park","coordinates":[5.70512,45.0645]},{"code":"FR-10553","program":"pota","name":"ZONE FONCTIONNELLE DE LA VALLEE DU DRAC A L’AVAL DE NOTRE DAME DE COMMIERS Biological Reserve","coordinates":[5.70424,45.0812]},{"code":"FR-10554","program":"pota","name":"Montagne d’Uriol Biological Reserve","coordinates":[5.64606,45.0492]},{"code":"FR-10555","program":"pota","name":"Prairie et lac de la Montagne du Conest Biological Reserve","coordinates":[5.7345,45.0064]},{"code":"FR-10595","program":"pota","name":"Faille-pli miocene de Sassenage (Vercors) Conservation Area","coordinates":[5.67,45.17]},{"code":"FR-10596","program":"pota","name":"Glissement de versant et éboulis froid du Moucherotte Conservation Area","coordinates":[5.67,45.1421]},{"code":"FR-10628","program":"pota","name":"CHAINONS SEPTENTRIONAUX DU VERCORS (QUATRE MONTAGNES ET COULMES) Biological Reserve","coordinates":[5.5168,45.1836]},{"code":"FR-10630","program":"pota","name":"Plateau de Sornin, montagne de la Graille Biological Reserve","coordinates":[5.60311,45.1996]},{"code":"FR-10631","program":"pota","name":"Vallon des Ecouges Biological Reserve","coordinates":[5.53696,45.2215]},{"code":"FR-10632","program":"pota","name":"Versant sec de la Grande Rivoire Biological Reserve","coordinates":[5.63234,45.2068]},{"code":"FR-10640","program":"pota","name":"Montagnes du Gros Martel et de Meillarot Biological Reserve","coordinates":[5.52547,45.091]},{"code":"FR-10641","program":"pota","name":"Zones humides de la Haute-Bourne Biological Reserve","coordinates":[5.56486,45.0958]},{"code":"FR-10679","program":"pota","name":"Cretes des Trois Pucelles a la Grande Moucherolle Biological Reserve","coordinates":[5.63197,45.143]},{"code":"FR-13254","program":"pota","name":"Boucle des Sablons Biological Reserve","coordinates":[5.749,45.192]},{"code":"FR-14909","program":"pota","name":"Mont Jalla, mont Rachais Biological Reserve","coordinates":[5.727,45.207]},{"code":"FR-14948","program":"pota","name":"Montagne du Neron Biological Reserve","coordinates":[5.704,45.227]},{"code":"F/AB-299","program":"sota","name":"La Grande Moucherolle","coordinates":[5.5642,45.005]},{"code":"F/AB-339","program":"sota","name":"Arêtes du Gerbier","coordinates":[5.5892,45.025]},{"code":"F/AB-347","program":"sota","name":"Roc Cornafion","coordinates":[5.6007,45.0626]},{"code":"F/AB-367","program":"sota","name":"Pic Saint-Michel","coordinates":[5.62,45.09]},{"code":"F/AB-379","program":"sota","name":"Le Moucherotte","coordinates":[5.6393,45.1475]},{"code":"F/AB-432","program":"sota","name":"Charande","coordinates":[5.5926,45.1868]},{"code":"F/AB-445","program":"sota","name":"Roche de Pierre Taillée","coordinates":[5.5351,45.2166]},{"code":"F/AB-483","program":"sota","name":"Rocher de l'Eperrimont","coordinates":[5.6177,45.0288]},{"code":"F/AB-484","program":"sota","name":"Le Liorin","coordinates":[5.5325,45.0567]},{"code":"F/AB-486","program":"sota","name":"Sommet de Meillarot","coordinates":[5.5374,45.0915]},{"code":"F/AB-488","program":"sota","name":"Fau Cuchet","coordinates":[5.7408,45.0458]},{"code":"F/AB-496","program":"sota","name":"Le Neron","coordinates":[5.7101,45.2347]},{"code":"F/AB-511","program":"sota","name":"Mont Rachais","coordinates":[5.7333,45.2185]},{"code":"F/AB-518","program":"sota","name":"Le Grand Brion","coordinates":[5.6775,45.02]},{"code":"F/AB-557","program":"sota","name":"Le Petit Brion","coordinates":[5.6909,45.052]},{"code":"F/AB-609","program":"sota","name":"Pieu ou Le Bémont","coordinates":[5.6407,45.0525]}]}