{"lat":45,"lon":23,"programs":["pota","sota"],"count":5,"references":[{"code":"RO-1096","program":"pota","name":"Nordul Gorjului de Vest Biological Reserve","coordinates":[23.0146,45.1518]},{"code":"RO-1228","program":"pota","name":"Hobița Sculpturi Park","coordinates":[23.0601,45.0551]},{"code":"YO/MC-099","program":"sota","name":"Arcanu","coordinates":[23.0158,45.245]},{"code":"YO/MC-134","program":"sota","name":"Pleșa","coordinates":[23.08,45.1758]},{"code":"YO/MC-145","program":"sota","name":"Piva","coordinates":[23.0333,45.1925]}]}