{"lat":45,"lon":-66.5,"programs":["pota"],"count":10,"references":[{"code":"CA-1232","program":"pota","name":"Dipper Harbour Back Cove Nature Reserve","coordinates":[-66.3981,45.1024]},{"code":"CA-4401","program":"pota","name":"Gooseberry Cove Protected Area","coordinates":[-66.2644,45.1448]},{"code":"CA-4448","program":"pota","name":"McPhersons Point Protected Area","coordinates":[-66.48,45.1292]},{"code":"CA-4462","program":"pota","name":"Musquash Estuary Marine Protected Area","coordinates":[-66.252,45.165]},{"code":"CA-4497","program":"pota","name":"Ragged Falls Protected Area","coordinates":[-66.45,45.228]},{"code":"CA-4502","program":"pota","name":"Round Meadow Cove Protected Area","coordinates":[-66.379,45.112]},{"code":"CA-5152","program":"pota","name":"Beldings Reef Nature Reserve","coordinates":[-66.3538,45.1176]},{"code":"CA-5231","program":"pota","name":"Thompson Marsh Protected Area","coordinates":[-66.3643,45.1229]},{"code":"CA-5260","program":"pota","name":"Lepreau Falls Natural Area","coordinates":[-66.4609,45.1699]},{"code":"CA-6447","program":"pota","name":"HMS Plumper Shipwreck Historic Site","coordinates":[-66.4127,45.0918]}]}