{"lat":45,"lon":8.5,"programs":["pota"],"count":10,"references":[{"code":"IT-0278","program":"pota","name":"Palude Loja Natura 2000","coordinates":[8.64472,45.2006]},{"code":"IT-0475","program":"pota","name":"Risaie della Lomellina Natura 2000","coordinates":[8.66544,45.1108]},{"code":"IT-0477","program":"pota","name":"Garzaia del Bosco Basso Natura 2000","coordinates":[8.64583,45.1189]},{"code":"IT-0600","program":"pota","name":"Abbazia Acqualunga Natura 2000","coordinates":[8.72639,45.055]},{"code":"IT-1218","program":"pota","name":"Garzaia di Sartirana Natura 2000","coordinates":[8.6574,45.0812]},{"code":"IT-1239","program":"pota","name":"Garzaia di S. Alessandro Natura 2000","coordinates":[8.68556,45.1756]},{"code":"IT-1240","program":"pota","name":"Garzaia di Celpenchio Natura 2000","coordinates":[8.59861,45.2356]},{"code":"IT-1241","program":"pota","name":"Garzaia della Verminesca Natura 2000","coordinates":[8.62667,45.2214]},{"code":"IT-1242","program":"pota","name":"Garzaia della Rinalda Natura 2000","coordinates":[8.59333,45.1608]},{"code":"IT-0803","program":"pota","name":"Fiume Po - tratto vercellese alessandrino Natura 2000","coordinates":[8.62075,45.0449]}]}