{"lat":45,"lon":142,"programs":["sota"],"count":5,"references":[{"code":"JA8/SY-011","program":"sota","name":"Isosannupurizan","coordinates":[142.1538,45.0112]},{"code":"JA8/SY-022","program":"sota","name":"Poroshiriyama","coordinates":[142.0085,45.1656]},{"code":"JA8/SY-024","program":"sota","name":"Toikanbetsu","coordinates":[142.1646,45.051]},{"code":"JA8/SY-028","program":"sota","name":"Tokitaiyama","coordinates":[142.1914,45.1102]},{"code":"JA8/SY-029","program":"sota","name":"Samakishiriyama","coordinates":[142.1643,45.1485]}]}