{"lat":45,"lon":5,"programs":["gma","pota"],"count":27,"references":[{"code":"FA/CR-006","program":"gma","name":"Montagne de Musan","coordinates":[5.2269001,45]},{"code":"FR-2613","program":"pota","name":"SABLES DE L HERBASSE ET DES BALMES DE L'ISERE FR8201675 Natura 2000","coordinates":[5.01995,45.0777]},{"code":"FR-4667","program":"pota","name":"Tourbiere De Pre Rond Biological Reserve","coordinates":[5.2228,45.2409]},{"code":"FR-8723","program":"pota","name":"Pelouses de Barandon Biological Reserve","coordinates":[5.17275,45.0022]},{"code":"FR-8730","program":"pota","name":"Pelouse et boisements thermophiles de la Chaisse Biological Reserve","coordinates":[5.16818,45.0833]},{"code":"FR-8731","program":"pota","name":"Anciennes sablieres des Cumerts Biological Reserve","coordinates":[5.21366,45.103]},{"code":"FR-8732","program":"pota","name":"Pelouse et boisement thermophile de Balaize Biological Reserve","coordinates":[5.24622,45.1108]},{"code":"FR-8734","program":"pota","name":"Pelouse seche du Chatelar Biological Reserve","coordinates":[5.22608,45.1297]},{"code":"FR-10602","program":"pota","name":"Sables siliceux et kaolinite eocenes des carrieres d'Hostun à Barbieres Conservation Area","coordinates":[5.18,45.01]},{"code":"FR-10622","program":"pota","name":"Confluent de la Joyeuse et de l’Isere Biological Reserve","coordinates":[5.10031,45.0407]},{"code":"FR-10623","program":"pota","name":"L'Isere des portes de Romans a la Vanelle Biological Reserve","coordinates":[5.01474,45.0312]},{"code":"FR-10654","program":"pota","name":"Monts-du-Matin a Rochechinard Biological Reserve","coordinates":[5.24155,45.0318]},{"code":"FR-10684","program":"pota","name":"CHAMBARANS Biological Reserve","coordinates":[5.16963,45.2424]},{"code":"FR-10688","program":"pota","name":"Etang de Joanna Maria et bois environnants Biological Reserve","coordinates":[5.11847,45.2433]},{"code":"FR-10697","program":"pota","name":"Etang de Joanna Maria et bois environnants Biological Reserve","coordinates":[5.11847,45.2433]},{"code":"FR-10698","program":"pota","name":"Bois de Roques et milieux annexes Biological Reserve","coordinates":[5.10377,45.2103]},{"code":"FR-10699","program":"pota","name":"Etang du Grand-Gabot Biological Reserve","coordinates":[5.13235,45.1812]},{"code":"FR-10700","program":"pota","name":"Etang de Montmiral et ruisseau de la Savasse Biological Reserve","coordinates":[5.17052,45.1711]},{"code":"FR-10701","program":"pota","name":"Combe de Beuclar Biological Reserve","coordinates":[5.21307,45.1622]},{"code":"FR-10702","program":"pota","name":"Bois communal de Saint Bonnet et col de la Madeleine Biological Reserve","coordinates":[5.17275,45.1898]},{"code":"FR-10703","program":"pota","name":"Ruisseau le Valere Biological Reserve","coordinates":[5.18704,45.2088]},{"code":"FR-10704","program":"pota","name":"COLLINES DROMOISES Biological Reserve","coordinates":[5.00821,45.129]},{"code":"FR-10705","program":"pota","name":"Pelouse seche du Charron Biological Reserve","coordinates":[5.19258,45.131]},{"code":"FR-10706","program":"pota","name":"Pelouse seche et boisement thermophile de Bel-Air Biological Reserve","coordinates":[5.17042,45.1009]},{"code":"FR-10707","program":"pota","name":"Balmes de l’Isere Biological Reserve","coordinates":[5.01809,45.0679]},{"code":"FR-10710","program":"pota","name":"Ripisylve et lit de l’Herbasse Biological Reserve","coordinates":[5.00298,45.1272]},{"code":"FR-10712","program":"pota","name":"Sables de Champos Biological Reserve","coordinates":[5.00539,45.1385]}]}