{"lat":45,"lon":9,"programs":["pota"],"count":5,"references":[{"code":"IT-0138","program":"pota","name":"Stagni di Lungavilla Nature Reserve","coordinates":[9.07001,45.0435]},{"code":"IT-0472","program":"pota","name":"Garzaia di Porta Chiossa Natura 2000","coordinates":[9.21206,45.234]},{"code":"IT-0474","program":"pota","name":"Garzaia della Roggia Torbida Natura 2000","coordinates":[9.10816,45.0778]},{"code":"IT-0476","program":"pota","name":"Garzaia della Carola Natura 2000","coordinates":[9.16465,45.239]},{"code":"IT-0577","program":"pota","name":"Riserva Naturale Bosco Siro Negri Provincial Park","coordinates":[9.05762,45.2106]}]}