{"lat":45,"lon":35.25,"programs":["gma","sota"],"count":5,"references":[{"code":"R5/CR-051","program":"gma","name":"Tepe-Oba","coordinates":[35.36090088,45.01050186]},{"code":"R5/CR-054","program":"gma","name":"Klementeva","coordinates":[35.2841667,45.1044444]},{"code":"R5/CR-055","program":"gma","name":"Lysaya (Pasha-Tepe)","coordinates":[35.3544444,45.0422222]},{"code":"R5/CR-059","program":"gma","name":"Brodskaya","coordinates":[35.2830556,45.0166667]},{"code":"UT/CR-051","program":"sota","name":"Тепе-Оба (Tepe-Oba)","coordinates":[35.3609,45.0105]}]}