{"lat":45,"lon":3.75,"programs":["gma","pota","sota"],"count":37,"references":[{"code":"FA/MC-019","program":"gma","name":"Mont Serre","coordinates":[3.93390012,45.09669876]},{"code":"FA/MC-023","program":"gma","name":"Suc de la Conche","coordinates":[3.98189998,45.10029984]},{"code":"FA/MC-046","program":"gma","name":"Peyramont","coordinates":[3.81920004,45.17029953]},{"code":"FA/MC-049","program":"gma","name":"Mont Gerbizon","coordinates":[3.99970007,45.18859863]},{"code":"FA/MC-051","program":"gma","name":"Suc de Bartou","coordinates":[3.96670008,45.18420029]},{"code":"FR-2646","program":"pota","name":"GORGES DE LA LOIRE - FR8312009 Natura 2000","coordinates":[3.87917,45.2261]},{"code":"FR-2751","program":"pota","name":"GORGES DE L ARZON Natura 2000","coordinates":[3.86111,45.2289]},{"code":"FR-2816","program":"pota","name":"GROTTE DE LA DENISE FR8302007 Natura 2000","coordinates":[3.85556,45.0603]},{"code":"FR-14323","program":"pota","name":"GORGES DE LA LOIRE - ARTIAS Biological Reserve","coordinates":[3.996,45.211]},{"code":"FR-14324","program":"pota","name":"GORGES DE LA LOIRE A VOREY Biological Reserve","coordinates":[3.94,45.201]},{"code":"FR-14325","program":"pota","name":"GORGES DE L'ARZON Biological Reserve","coordinates":[3.862,45.232]},{"code":"FR-14326","program":"pota","name":"BICHAIX ET TRAMAFONS Biological Reserve","coordinates":[3.939,45.145]},{"code":"FR-14327","program":"pota","name":"PLAINE DE LARCENAT Biological Reserve","coordinates":[3.932,45.144]},{"code":"FR-14328","program":"pota","name":"VIAYE LES MOINES Biological Reserve","coordinates":[3.884,45.142]},{"code":"FR-14329","program":"pota","name":"SUC DE TENLAIRE Biological Reserve","coordinates":[3.977,45.133]},{"code":"FR-14331","program":"pota","name":"LES AUBAINS, LES SUCS ROUGES, SUC DES TOURETTES ET LES POTUS Biological Reserve","coordinates":[3.982,45.116]},{"code":"FR-14365","program":"pota","name":"BOIS DE CHAMBLAS Biological Reserve","coordinates":[3.998,45.08]},{"code":"FR-14370","program":"pota","name":"LA SUMENE AMONT Biological Reserve","coordinates":[3.999,45.054]},{"code":"FR-14371","program":"pota","name":"MONT BRUNELET Biological Reserve","coordinates":[3.935,45.052]},{"code":"FR-14372","program":"pota","name":"PLATEAU DE LA CHAUD Biological Reserve","coordinates":[3.927,45.062]},{"code":"FR-14373","program":"pota","name":"GORGES DE LA SUMENE Biological Reserve","coordinates":[3.927,45.062]},{"code":"FR-14374","program":"pota","name":"GORGE DE PEYREDEYRE Biological Reserve","coordinates":[3.903,45.074]},{"code":"FR-14375","program":"pota","name":"LA PLAINE Biological Reserve","coordinates":[3.9,45.072]},{"code":"FR-14376","program":"pota","name":"PLATEAU DE CHEYRAC Biological Reserve","coordinates":[3.89,45.073]},{"code":"FR-14377","program":"pota","name":"MONT DENISE Biological Reserve","coordinates":[3.858,45.065]},{"code":"FR-14378","program":"pota","name":"VALLEE DU CEYSSAC Biological Reserve","coordinates":[3.839,45.038]},{"code":"FR-14379","program":"pota","name":"VALLEE DU DOLAISON Biological Reserve","coordinates":[3.854,45.021]},{"code":"F/MC-076","program":"sota","name":"Peyramont","coordinates":[3.8192,45.1693]},{"code":"F/MC-081","program":"sota","name":"Mont Courant","coordinates":[3.8642,45.1456]},{"code":"F/MC-089","program":"sota","name":"Suc de Bartou","coordinates":[3.9663,45.1826]},{"code":"F/MC-097","program":"sota","name":"Mont Fracelier","coordinates":[3.9966,45.0796]},{"code":"F/MC-109","program":"sota","name":"Mont Peynastre","coordinates":[3.9934,45.024]},{"code":"F/MC-132","program":"sota","name":"Suc de Chauven","coordinates":[3.9608,45.1106]},{"code":"F/MC-136","program":"sota","name":"Mont Saint-Maurice","coordinates":[3.9404,45.016]},{"code":"F/MC-150","program":"sota","name":"Mont Cèneuil","coordinates":[3.9174,45.1659]},{"code":"F/MC-218","program":"sota","name":"Forêt de Miaune","coordinates":[3.9697,45.2249]},{"code":"F/MC-247","program":"sota","name":"Mont Brunelet","coordinates":[3.9352,45.0523]}]}