{"lat":45,"lon":-63.5,"programs":["pota","wwbota"],"count":5,"references":[{"code":"CA-0894","program":"pota","name":"Caddell Rapids Lookoff Provincial Park","coordinates":[-63.3904,45.1984]},{"code":"CA-1849","program":"pota","name":"Shubenacadie Provincial  Park Provincial Wildlife Area","coordinates":[-63.3955,45.092]},{"code":"B/CA-0809","program":"wwbota","name":"Nudet Post MA4?","coordinates":[-63.3981791,45.09521553]},{"code":"B/CA-0843","program":"wwbota","name":"FRP HKMA4","coordinates":[-63.3493508,45.13783313]},{"code":"B/CA-0906","program":"wwbota","name":"Radio: Shubenacadie - Stewiacke","coordinates":[-63.37376495,45.1165243]}]}