{"lat":45,"lon":4.5,"programs":["pota","sota"],"count":14,"references":[{"code":"FR-7991","program":"pota","name":"Zone humide de Signol Biological Reserve","coordinates":[4.72639,45.2419]},{"code":"FR-7992","program":"pota","name":"Prairies humides de Terrelongue et du Grand Pre Biological Reserve","coordinates":[4.71465,45.2497]},{"code":"FR-8010","program":"pota","name":"Ruisseau du Nant de Saint Symphorien de Nahun Biological Reserve","coordinates":[4.58597,45.1565]},{"code":"FR-8011","program":"pota","name":"Ruisseau des Usclats, ruisseau du Malbuisson Biological Reserve","coordinates":[4.52578,45.2235]},{"code":"FR-8711","program":"pota","name":"Basse-vallee du Doux Biological Reserve","coordinates":[4.73228,45.0531]},{"code":"FR-8712","program":"pota","name":"GORGES DU DOUX, DU DUZON ET DE LA DARONNE Biological Reserve","coordinates":[4.58701,45.034]},{"code":"FR-14102","program":"pota","name":"Serres et coteaux des environs de Nozieres Biological Reserve","coordinates":[4.537,45.008]},{"code":"F/CR-073","program":"sota","name":"Sommet de Combe Noire","coordinates":[4.5056,45.1539]},{"code":"F/CR-098","program":"sota","name":"Suc de Vent","coordinates":[4.5908,45.1867]},{"code":"F/CR-099","program":"sota","name":"Serre de Sardier","coordinates":[4.5333,45.0792]},{"code":"F/CR-130","program":"sota","name":"Mont des Marchands","coordinates":[4.5747,45.1061]},{"code":"F/CR-136","program":"sota","name":"Serre de la Croix d'Argent","coordinates":[4.5822,45.0539]},{"code":"F/CR-180","program":"sota","name":"Chatelard","coordinates":[4.6389,45.1096]},{"code":"F/CR-295","program":"sota","name":"Bois de la Frache","coordinates":[4.5392,45.09]}]}