{"lat":45.25,"lon":-73.5,"programs":["pota","wwbota"],"count":13,"references":[{"code":"CA-1033","program":"pota","name":"Reserve naturelle du Bois-de-Brossard Nature Reserve","coordinates":[-73.4196,45.433]},{"code":"CA-4901","program":"pota","name":"Chambly Canal National Historic Site","coordinates":[-73.2539,45.4087]},{"code":"CA-4904","program":"pota","name":"Fort Chambly National Historic Site","coordinates":[-73.2778,45.4492]},{"code":"CA-4907","program":"pota","name":"Fort Ste. Therese National Historic Site","coordinates":[-73.2601,45.3974]},{"code":"CA-5862","program":"pota","name":"Battle of September 6th, 1775 National Historic Site","coordinates":[-73.2568,45.2802]},{"code":"CA-5884","program":"pota","name":"De Salaberry House National Historic Site","coordinates":[-73.2692,45.4485]},{"code":"CA-5893","program":"pota","name":"Fort Laprairie National Historic Site","coordinates":[-73.4964,45.4214]},{"code":"CA-5896","program":"pota","name":"Fort Saint-Jean National Historic Site","coordinates":[-73.2524,45.2986]},{"code":"B/CA-1294","program":"wwbota","name":"FRP BA42","coordinates":[-73.26899,45.31788303]},{"code":"B/CA-1314","program":"wwbota","name":"FRP BA4","coordinates":[-73.290565,45.44875003]},{"code":"B/CA-1605","program":"wwbota","name":"Telephone: Chambly - Saint-Jean","coordinates":[-73.2797775,45.3833165]},{"code":"B/CA-1606","program":"wwbota","name":"Telephone: Saint-Bruno - Saint-Jean","coordinates":[-73.3059671,45.37218745]},{"code":"B/CA-1612","program":"wwbota","name":"Radio: Champlain Bridge - Jacques Cartier Bridge - Saint-Jean","coordinates":[-73.37012251,45.3934614]}]}