{"lat":45.25,"lon":24.75,"programs":["gma","pota","sota"],"count":10,"references":[{"code":"YP/MC-011","program":"gma","name":"Dealurilor","coordinates":[24.84329987,45.29750061]},{"code":"RO-0403","program":"pota","name":"Stone Ravens Monastery Historic Site","coordinates":[24.8114,45.2752]},{"code":"RO-0404","program":"pota","name":"Corbii de Piatră Recreation Site","coordinates":[24.7977,45.279]},{"code":"RO-1147","program":"pota","name":"Munții Iezer-Păpușa National Recreation Area","coordinates":[24.9525,45.4763]},{"code":"RO-1163","program":"pota","name":"Traseul de creastă Iezer - Păpușa National Recreation Trail","coordinates":[24.9347,45.4496]},{"code":"YO/MC-042","program":"sota","name":"Roșu","coordinates":[24.9523,45.4758]},{"code":"YO/MC-075","program":"sota","name":"Păpău","coordinates":[24.8792,45.4258]},{"code":"YO/MC-206","program":"sota","name":"Toaca","coordinates":[24.79,45.2525]},{"code":"YO/MC-207","program":"sota","name":"Ciocanu","coordinates":[24.9762,45.2645]},{"code":"YO/MC-242","program":"sota","name":"Plătica","coordinates":[24.8469,45.3146]}]}