{"lat":45.25,"lon":-63.5,"programs":["pota","wwbota"],"count":11,"references":[{"code":"CA-1791","program":"pota","name":"MacElmons Pond Provincial Park","coordinates":[-63.4282,45.3909]},{"code":"CA-5807","program":"pota","name":"Debert Palaeo-Indian Site National Historic Site","coordinates":[-63.4444,45.4274]},{"code":"CA-5847","program":"pota","name":"Truro Post Office National Historic Site","coordinates":[-63.2806,45.3652]},{"code":"CA-6109","program":"pota","name":"Truro Old Normal College National Historic Site","coordinates":[-63.2787,45.3641]},{"code":"B/CA-0003","program":"wwbota","name":"Debert Diefenbunker","coordinates":[-63.450522,45.421017]},{"code":"B/CA-0842","program":"wwbota","name":"FRP HKMA42","coordinates":[-63.2869407,45.36577333]},{"code":"B/CA-0883","program":"wwbota","name":"Debert BRIDGE","coordinates":[-63.450523,45.42101303]},{"code":"B/CA-0901","program":"wwbota","name":"Radio: Shubenacadie - Debert","coordinates":[-63.42435105,45.25811425]},{"code":"B/CA-0904","program":"wwbota","name":"Radio: Truro-Debert","coordinates":[-63.36873185,45.39339315]},{"code":"B/CA-0905","program":"wwbota","name":"Radio: Nuttby-Shubenacadie","coordinates":[-63.3114718,45.32478225]},{"code":"B/CA-0907","program":"wwbota","name":"Radio: Stewiacke-Debert","coordinates":[-63.3999369,45.27942305]}]}