{"lat":45.25,"lon":-66.25,"programs":["pota","sota","wwbota"],"count":50,"references":[{"code":"CA-1223","program":"pota","name":"Blueberry Hill Nature Reserve","coordinates":[-66.1861,45.2999]},{"code":"CA-1224","program":"pota","name":"Boar's Head Nature Reserve","coordinates":[-66.1256,45.2967]},{"code":"CA-1245","program":"pota","name":"Minister's Face Nature Reserve","coordinates":[-66.0266,45.4009]},{"code":"CA-1251","program":"pota","name":"Rockwood Park Nature Reserve","coordinates":[-66.0595,45.304]},{"code":"CA-1253","program":"pota","name":"Sea Dog Cove Nature Reserve","coordinates":[-66.1009,45.3392]},{"code":"CA-4810","program":"pota","name":"Carleton Martello Tower National Historic Site","coordinates":[-66.0764,45.2519]},{"code":"CA-4943","program":"pota","name":"Fort Nerepis National Historic Site","coordinates":[-66.2342,45.37]},{"code":"CA-4944","program":"pota","name":"Fort Howe National Historic Site","coordinates":[-66.0704,45.2781]},{"code":"CA-5085","program":"pota","name":"Stonehammer UNESCO Global Geopark Geopark","coordinates":[-66.1239,45.2691]},{"code":"CA-5147","program":"pota","name":"1 Chipman Hill National Historic Site","coordinates":[-66.0628,45.2742]},{"code":"CA-5149","program":"pota","name":"Bayswater Lighthouse National Heritage Site","coordinates":[-66.1337,45.3505]},{"code":"CA-5166","program":"pota","name":"Dominion Park Recreation Park","coordinates":[-66.1227,45.2692]},{"code":"CA-5169","program":"pota","name":"East Riverside Kingshurst Park Recreation Park","coordinates":[-66.0087,45.3732]},{"code":"CA-5170","program":"pota","name":"Fallsview Park Recreation Park","coordinates":[-66.0882,45.2646]},{"code":"CA-5185","program":"pota","name":"Imperial / Bi-Capitol Theatre National Historic Site","coordinates":[-66.0579,45.2731]},{"code":"CA-5209","program":"pota","name":"Noremac Nature Reserve","coordinates":[-66.1899,45.2627]},{"code":"CA-5210","program":"pota","name":"Number 2 Mechanics' Volunteer Company Engine House National Historic Site","coordinates":[-66.0569,45.2734]},{"code":"CA-5213","program":"pota","name":"Ordnance Building National Historic Site","coordinates":[-66.0542,45.265]},{"code":"CA-5215","program":"pota","name":"Prince William Streetscape National Historic Site","coordinates":[-66.0618,45.2712]},{"code":"CA-5216","program":"pota","name":"Rayworth Beach Nature Reserve","coordinates":[-66.0613,45.362]},{"code":"CA-5219","program":"pota","name":"Riverview Memorial Park Recreation Park","coordinates":[-66.0826,45.2679]},{"code":"CA-5221","program":"pota","name":"Saint John City Market National Historic Site","coordinates":[-66.0591,45.274]},{"code":"CA-5222","program":"pota","name":"Saint John County Court House National Historic Site","coordinates":[-66.0569,45.2739]},{"code":"CA-5223","program":"pota","name":"Sand Point Lighthouse National Historic Site","coordinates":[-66.199,45.3425]},{"code":"CA-5240","program":"pota","name":"Fort Charnisay National Historic Site","coordinates":[-66.0744,45.2615]},{"code":"CA-5242","program":"pota","name":"Fort La Tour National Historic Site","coordinates":[-66.0723,45.2731]},{"code":"CA-5246","program":"pota","name":"Loyalist House National Historic Site","coordinates":[-66.0615,45.2745]},{"code":"CA-5270","program":"pota","name":"St. John's Anglican Church / Stone Church National Historic Site","coordinates":[-66.0618,45.276]},{"code":"CA-5274","program":"pota","name":"Wolastoq Park National Historic Site","coordinates":[-66.0901,45.256]},{"code":"CA-5545","program":"pota","name":"Trinity Royal Heritage Conservation Area","coordinates":[-66.058,45.2703]},{"code":"CA-5691","program":"pota","name":"Jervis Bay-Ross Memorial Park Natural Monument","coordinates":[-66.0359,45.2877]},{"code":"CA-5693","program":"pota","name":"King's Square (Founding of New Brunswick) National Heritage Area","coordinates":[-66.0589,45.2736]},{"code":"CA-5694","program":"pota","name":"King Square West Recreation Park","coordinates":[-66.0768,45.2582]},{"code":"CA-5699","program":"pota","name":"United Empire Loyalists Burial Ground Natural Monument","coordinates":[-66.0565,45.274]},{"code":"CA-5707","program":"pota","name":"Pte. David Robert Greenslade Peace Park Recreation Park","coordinates":[-66.0812,45.3202]},{"code":"CA-5708","program":"pota","name":"Public Gardens (Saint John) Recreation Park","coordinates":[-66.0574,45.2854]},{"code":"CA-5711","program":"pota","name":"Queen Square (St. John) Recreation Park","coordinates":[-66.0566,45.2691]},{"code":"CA-5713","program":"pota","name":"Queen Square West Recreation Park","coordinates":[-66.0702,45.2548]},{"code":"CA-6218","program":"pota","name":"Saint John Harbour Defensive Network provincial Historic Site","coordinates":[-66.0668,45.2736]},{"code":"CA-6242","program":"pota","name":"Church of Saint Andrew & Saint David Historic Site","coordinates":[-66.0593,45.2707]},{"code":"CA-6466","program":"pota","name":"Reversing Falls Bridges Historic Site","coordinates":[-66.0853,45.2603]},{"code":"CA-6516","program":"pota","name":"The Marco Polo National Historic Site","coordinates":[-66.0673,45.2752]},{"code":"CA-6521","program":"pota","name":"Artillery Regiments of Canada National Memorial","coordinates":[-66.036,45.2884]},{"code":"VE9/KG-009","program":"sota","name":"Centreton","coordinates":[-66.07889,45.42444]},{"code":"VE9/KG-010","program":"sota","name":"Lands End","coordinates":[-66.18111,45.35444]},{"code":"B/CA-0744","program":"wwbota","name":"FRP NB1","coordinates":[-66.063308,45.27331533]},{"code":"B/CA-0745","program":"wwbota","name":"FRP NB2","coordinates":[-66.0529334,45.26604133]},{"code":"B/CA-0748","program":"wwbota","name":"FRP NB3","coordinates":[-66.0332731,45.30880163]},{"code":"B/CA-0749","program":"wwbota","name":"FRP NB4","coordinates":[-66.0943578,45.25655223]},{"code":"B/CA-0787","program":"wwbota","name":"FRP NB43","coordinates":[-66.2295369,45.34961003]}]}