{"lat":45.25,"lon":12.25,"programs":["pota","wwbota"],"count":10,"references":[{"code":"IT-0899","program":"pota","name":"Laguna di Venezia Natura 2000","coordinates":[12.3161,45.4191]},{"code":"IT-0916","program":"pota","name":"Lido di Venezia: biotopi litoranei Natura 2000","coordinates":[12.3219,45.3405]},{"code":"IT-1642","program":"pota","name":"Penisola del Cavallino: biotopi litoranei Natura 2000","coordinates":[12.4428,45.4334]},{"code":"B/IT-0120","program":"wwbota","name":"Bunker (S. Giorgio In Alga / Veneto)","coordinates":[12.29249,45.42499]},{"code":"B/IT-0124","program":"wwbota","name":"Bunker (Lido / Veneto)","coordinates":[12.3527,45.38779]},{"code":"B/IT-0125","program":"wwbota","name":"Bunker (Ca Bianca / Veneto)","coordinates":[12.35821,45.39572]},{"code":"B/IT-0141","program":"wwbota","name":"Bunker (Veneto)","coordinates":[12.4314,45.43579]},{"code":"B/IT-0142","program":"wwbota","name":"Bunker (Via Carso  / Veneto)","coordinates":[12.43017,45.43632]},{"code":"B/IT-0143","program":"wwbota","name":"Bunker (Batteria Nuova  / Veneto)","coordinates":[12.4281,45.43392]},{"code":"B/IT-0287","program":"wwbota","name":"Bunker (Batteria Contraerea VETTOR PISANI)","coordinates":[12.46844,45.45057]}]}