{"lat":45.25,"lon":-122,"programs":["pota","sota"],"count":19,"references":[{"code":"US-10249","program":"pota","name":"Salmon River National Wild and Scenic River","coordinates":[-121.941,45.2716]},{"code":"US-10359","program":"pota","name":"Wildwood Recreation Site BLM Recreation Management Area","coordinates":[-121.987,45.355]},{"code":"W7O/CN-032","program":"sota","name":"Tom Dick Harry Mtn","coordinates":[-121.7912,45.2901]},{"code":"W7O/CN-033","program":"sota","name":"Devils Peak","coordinates":[-121.8756,45.2642]},{"code":"W7O/CN-036","program":"sota","name":"Zigzag Mountain","coordinates":[-121.8378,45.3463]},{"code":"W7O/CN-038","program":"sota","name":"Veda Butte","coordinates":[-121.7742,45.2582]},{"code":"W7O/CN-043","program":"sota","name":"Eureka Peak","coordinates":[-121.7548,45.2725]},{"code":"W7O/CN-046","program":"sota","name":"Buck Peak","coordinates":[-121.8598,45.4988]},{"code":"W7O/CN-051","program":"sota","name":"Hiyu Mountain","coordinates":[-121.807,45.4353]},{"code":"W7O/CN-053","program":"sota","name":"Sentinel Peak","coordinates":[-121.8063,45.4537]},{"code":"W7O/CN-057","program":"sota","name":"Lost Lake Butte","coordinates":[-121.796,45.4961]},{"code":"W7O/CN-060","program":"sota","name":"Burnt Peak","coordinates":[-121.8881,45.4209]},{"code":"W7O/CN-061","program":"sota","name":"Hickman Butte","coordinates":[-121.9117,45.4128]},{"code":"W7O/CN-063","program":"sota","name":"Blazed Alder Butte","coordinates":[-121.8694,45.4358]},{"code":"W7O/CN-064","program":"sota","name":"Clear Fork Butte","coordinates":[-121.857,45.4154]},{"code":"W7O/CN-067","program":"sota","name":"Big Bend Mountain","coordinates":[-121.9536,45.4831]},{"code":"W7O/CN-069","program":"sota","name":"Aschoff Buttes","coordinates":[-121.9929,45.4216]},{"code":"W7O/CN-082","program":"sota","name":"4980","coordinates":[-121.8487,45.2504]},{"code":"W7O/CN-094","program":"sota","name":"4260","coordinates":[-121.9543,45.4564]}]}