{"lat":45.25,"lon":1.75,"programs":["pota","sota"],"count":6,"references":[{"code":"FR-3172","program":"pota","name":"Landes des Monedières Natura 2000","coordinates":[1.84778,45.4661]},{"code":"FR-4277","program":"pota","name":"Vallee de la Montane vers Gimel-les-Cascades Natura 2000","coordinates":[1.83694,45.2942]},{"code":"FR-4519","program":"pota","name":"Bassin De La Dordogne Biological Reserve","coordinates":[1.91478,45.3928]},{"code":"F/MC-106","program":"sota","name":"Puy de la Monédière","coordinates":[1.84,45.4844]},{"code":"F/MC-122","program":"sota","name":"Puy Charrin","coordinates":[1.9061,45.4589]},{"code":"F/MC-140","program":"sota","name":"Puy d'Agnoux","coordinates":[1.8919,45.4266]}]}