{"lat":45.25,"lon":23,"programs":["pota","sota"],"count":7,"references":[{"code":"RO-1139","program":"pota","name":"Munții Vâlcan Area of Outstanding Natural Beauty","coordinates":[23.1285,45.2821]},{"code":"RO-0897","program":"pota","name":"Râu Bărbat - Hobița - Cabana Baleia - Cleantu Cozmei - Șaua Retezatului National Recreation Trail","coordinates":[23.0711,45.4772]},{"code":"YO/MC-028","program":"sota","name":"Coarnele","coordinates":[23.1798,45.2926]},{"code":"YO/MC-030","program":"sota","name":"Oboroca","coordinates":[23.1928,45.3879]},{"code":"YO/MC-097","program":"sota","name":"Tulișa","coordinates":[23.0933,45.3858]},{"code":"YO/MC-108","program":"sota","name":"Șigleu Mare","coordinates":[23.0925,45.2908]},{"code":"YO/MC-233","program":"sota","name":"Păroasa","coordinates":[23.0321,45.3338]}]}