{"lat":45.25,"lon":22.25,"programs":["pota","sota"],"count":8,"references":[{"code":"RO-0672","program":"pota","name":"Fanetele cu Narcise Zervesti Flora Reserve","coordinates":[22.2835,45.3941]},{"code":"RO-0951","program":"pota","name":"Muntele Bătrânul Natural Area","coordinates":[22.3822,45.4347]},{"code":"RO-0952","program":"pota","name":"Muntele Mic Natural Area","coordinates":[22.4739,45.3711]},{"code":"RO-0954","program":"pota","name":"Turnul lui Ovidiu Historic Site","coordinates":[22.3493,45.395]},{"code":"RO-1157","program":"pota","name":"Traseul de creastă Munții Tarcu - Muntele Mic National Recreation Trail","coordinates":[22.4699,45.355]},{"code":"YO/MC-096","program":"sota","name":"Muntele Mic","coordinates":[22.474,45.373]},{"code":"YO/MC-138","program":"sota","name":"Pleșa Mare","coordinates":[22.4292,45.2733]},{"code":"YO/MC-187","program":"sota","name":"Bătrânul","coordinates":[22.3833,45.4342]}]}