{"lat":45.25,"lon":-114.5,"programs":["gma","sota"],"count":8,"references":[{"code":"K7M/RC-006","program":"gma","name":"Johnson Benchmark","coordinates":[-114.3003006,45.47520065]},{"code":"K7M/RC-009","program":"gma","name":"Blue Nose","coordinates":[-114.35849762,45.47259903]},{"code":"W7I/LE-149","program":"sota","name":"Johnson Benchmark","coordinates":[-114.3003,45.4752]},{"code":"W7I/LE-150","program":"sota","name":"Blue Nose","coordinates":[-114.3585,45.4726]},{"code":"W7I/LE-152","program":"sota","name":"8586","coordinates":[-114.3241,45.466]},{"code":"W7I/LE-171","program":"sota","name":"Tincup Hill","coordinates":[-114.4139,45.4726]},{"code":"W7I/LE-176","program":"sota","name":"Beartrap Ridge","coordinates":[-114.4438,45.3915]},{"code":"W7I/LE-177","program":"sota","name":"Oreana Ridge","coordinates":[-114.4721,45.479]}]}