{"lat":45.25,"lon":-72.75,"programs":["pota","sota","wwbota"],"count":14,"references":[{"code":"CA-0520","program":"pota","name":"Yamaska National Park","coordinates":[-72.6243,45.4181]},{"code":"CA-0977","program":"pota","name":"Parc des Montagnards du Mont-Shefford Nature Reserve","coordinates":[-72.5999,45.3576]},{"code":"CA-0985","program":"pota","name":"Parc ecologique Jean-Paul-Forand du Mont-Shefford Ecological Reserve","coordinates":[-72.5733,45.3587]},{"code":"CA-1926","program":"pota","name":"Annemarie-Zeiss-Kunerth Nature Reserve","coordinates":[-72.5519,45.269]},{"code":"CA-2096","program":"pota","name":"Domaine naturel du lac Gale Forest Reserve","coordinates":[-72.6872,45.2705]},{"code":"CA-4984","program":"pota","name":"Centre d'interpretation de la nature du lac Boivin (CINLB) Regional Park","coordinates":[-72.686,45.4165]},{"code":"CA-4994","program":"pota","name":"Parc Daniel-Johnson Regional Park","coordinates":[-72.7075,45.4023]},{"code":"CA-5080","program":"pota","name":"Reseau du mont Oak Regional Park","coordinates":[-72.6806,45.3046]},{"code":"VE2/ES-002","program":"sota","name":"Mont Brome","coordinates":[-72.6381,45.289]},{"code":"VE2/ES-008","program":"sota","name":"Mont Shefford","coordinates":[-72.6259,45.3635]},{"code":"VE2/ES-033","program":"sota","name":"Mont Shefford Sud","coordinates":[-72.5979,45.3469]},{"code":"VE2/ES-035","program":"sota","name":"Montagne des Pins","coordinates":[-72.6081,45.2654]},{"code":"VE2/ES-043","program":"sota","name":"Mont Gale","coordinates":[-72.6989,45.2766]},{"code":"B/CA-1280","program":"wwbota","name":"FRP CA34","coordinates":[-72.726646,45.40039403]}]}