{"lat":45.25,"lon":-122.25,"programs":["pota","sota"],"count":8,"references":[{"code":"US-10472","program":"pota","name":"Marmot BLM Recreation Management Area","coordinates":[-122.133,45.4003]},{"code":"US-10473","program":"pota","name":"Sandy Ridge BLM Recreation Management Area","coordinates":[-122.03,45.3807]},{"code":"US-13086","program":"pota","name":"Eagle Creek National Fish Hatchery","coordinates":[-122.204,45.2771]},{"code":"W7O/WV-043","program":"sota","name":"Githens Mountain","coordinates":[-122.0639,45.2524]},{"code":"W7O/WV-046","program":"sota","name":"Wildcat Mountain","coordinates":[-122.0415,45.2937]},{"code":"W7O/WV-050","program":"sota","name":"Huckleberry Mountain","coordinates":[-122.0037,45.3024]},{"code":"W7O/WV-079","program":"sota","name":"Lookout Point","coordinates":[-122.129,45.4835]},{"code":"W7O/WV-144","program":"sota","name":"Lenhart Butte","coordinates":[-122.167,45.3502]}]}