{"lat":45.25,"lon":26.5,"programs":["pota","sota"],"count":6,"references":[{"code":"RO-1009","program":"pota","name":"Trovanții de Odăile Geopark","coordinates":[26.5234,45.3854]},{"code":"YO/EC-487","program":"sota","name":"Bocului","coordinates":[26.6267,45.4325]},{"code":"YO/EC-490","program":"sota","name":"Pițigoi","coordinates":[26.5992,45.4717]},{"code":"YO/EC-492","program":"sota","name":"Botacu","coordinates":[26.585,45.3525]},{"code":"YO/EC-503","program":"sota","name":"Posobești","coordinates":[26.5225,45.3842]},{"code":"YO/EC-629","program":"sota","name":"Gâlma","coordinates":[26.68,45.3317]}]}