{"lat":45.25,"lon":5.5,"programs":["gma","pota","sota"],"count":64,"references":[{"code":"FA/AB-038","program":"gma","name":"Prat Perou","coordinates":[5.61329985,45.41749954]},{"code":"FA/AB-050","program":"gma","name":"Pic du Rocharey","coordinates":[5.67749977,45.43030167]},{"code":"FR-2529","program":"pota","name":"MARAIS DU VAL D'AINAN FR8201729 Natura 2000","coordinates":[5.59774,45.4352]},{"code":"FR-2536","program":"pota","name":"MARAIS TOURBIERES DE L HERRETANG FR8201742 Natura 2000","coordinates":[5.70216,45.3881]},{"code":"FR-10610","program":"pota","name":"Calcaire tithonien d'environnement recifal - Pierre d'Echaillon Conservation Area","coordinates":[5.6,45.295]},{"code":"FR-10612","program":"pota","name":"Lagunage et milieux alluviaux de l'Eterpa Biological Reserve","coordinates":[5.61342,45.3189]},{"code":"FR-10613","program":"pota","name":"Marais de l’Echaillon et bords de l’Isere jusqu’au bec de l’Echaillon Biological Reserve","coordinates":[5.56561,45.2973]},{"code":"FR-10614","program":"pota","name":"Etang et boisements humides des Petites Iles Biological Reserve","coordinates":[5.56748,45.3157]},{"code":"FR-10615","program":"pota","name":"Boisements des Vernes Biological Reserve","coordinates":[5.5487,45.3147]},{"code":"FR-10616","program":"pota","name":"Etang de Mai, etangs de Saint Jean-de-Chepy Biological Reserve","coordinates":[5.52487,45.3061]},{"code":"FR-10618","program":"pota","name":"Marais du Gouret Biological Reserve","coordinates":[5.53528,45.2719]},{"code":"FR-10619","program":"pota","name":"Bois des Oves au lieu-dit La Renaudiere Biological Reserve","coordinates":[5.52178,45.2637]},{"code":"FR-10629","program":"pota","name":"Falaise de la Dent de Moirans Biological Reserve","coordinates":[5.59099,45.2909]},{"code":"FR-13577","program":"pota","name":"Marais de la Gutiniere Biological Reserve","coordinates":[5.524,45.488]},{"code":"FR-13578","program":"pota","name":"Lac, roselieres et marais de Paladru Biological Reserve","coordinates":[5.533,45.455]},{"code":"FR-13579","program":"pota","name":"ENSEMBLE FONCTIONNEL DU LAC DE PALADRU Biological Reserve","coordinates":[5.52,45.441]},{"code":"FR-13580","program":"pota","name":"Etang du Moulin Biological Reserve","coordinates":[5.51,45.453]},{"code":"FR-13581","program":"pota","name":"Etang des Gouttes Biological Reserve","coordinates":[5.511,45.449]},{"code":"FR-13582","program":"pota","name":"Etang Givin Biological Reserve","coordinates":[5.51,45.447]},{"code":"FR-13583","program":"pota","name":"Marais du val d’Ainan Biological Reserve","coordinates":[5.558,45.421]},{"code":"FR-13584","program":"pota","name":"VAL D’AINAN Biological Reserve","coordinates":[5.566,45.426]},{"code":"FR-13585","program":"pota","name":"Marais de Bavonne Biological Reserve","coordinates":[5.542,45.407]},{"code":"FR-13586","program":"pota","name":"Tourbiere de la Montagne Biological Reserve","coordinates":[5.668,45.424]},{"code":"FR-13587","program":"pota","name":"Roseliere des Vessieres Biological Reserve","coordinates":[5.655,45.398]},{"code":"FR-13588","program":"pota","name":"Etang du Vivier des Chartreux Biological Reserve","coordinates":[5.646,45.419]},{"code":"FR-13589","program":"pota","name":"Lac et tourbiere de Saint Sixte Biological Reserve","coordinates":[5.628,45.426]},{"code":"FR-13590","program":"pota","name":"Etang de Saint Nicolas-de-Macherin Biological Reserve","coordinates":[5.612,45.397]},{"code":"FR-13591","program":"pota","name":"Roseliere de Teissonnire Biological Reserve","coordinates":[5.592,45.393]},{"code":"FR-13592","program":"pota","name":"Marais du Puits d’Enfer Biological Reserve","coordinates":[5.622,45.389]},{"code":"FR-14905","program":"pota","name":"MASSIF DE LA CHARTREUSE Biological Reserve","coordinates":[5.748,45.323]},{"code":"FR-14906","program":"pota","name":"ENSEMBLE FONCTIONNEL FORME PAR LA BASSE VALLEE DU GUIERS ET LES ZONES HUMIDES DE SAINT LAURENT DU PONT Biological Reserve","coordinates":[5.73,45.414]},{"code":"FR-14937","program":"pota","name":"Forets de Combignon Biological Reserve","coordinates":[5.697,45.357]},{"code":"FR-14938","program":"pota","name":"Montagne de la Grande Sure Biological Reserve","coordinates":[5.704,45.321]},{"code":"FR-14939","program":"pota","name":"Foret de Genieux Biological Reserve","coordinates":[5.683,45.331]},{"code":"FR-14940","program":"pota","name":"Lac de Saint Julien-de-Ratz Biological Reserve","coordinates":[5.655,45.348]},{"code":"FR-14941","program":"pota","name":"Gorges du Bret Biological Reserve","coordinates":[5.639,45.343]},{"code":"FR-14942","program":"pota","name":"Rochers du Ratz Biological Reserve","coordinates":[5.629,45.342]},{"code":"FR-14943","program":"pota","name":"Balmes de Voreppe Biological Reserve","coordinates":[5.622,45.332]},{"code":"FR-14944","program":"pota","name":"Gorges de la Roize, de Gorboudiere et du Referon Biological Reserve","coordinates":[5.679,45.315]},{"code":"FR-14945","program":"pota","name":"Rocher de Bellevue Biological Reserve","coordinates":[5.653,45.284]},{"code":"FR-14946","program":"pota","name":"Rochers du Cuchet Biological Reserve","coordinates":[5.659,45.28]},{"code":"FR-14947","program":"pota","name":"Rochers de Rochepleine Biological Reserve","coordinates":[5.682,45.252]},{"code":"FR-14949","program":"pota","name":"Foret de Pomarey Biological Reserve","coordinates":[5.714,45.283]},{"code":"FR-14950","program":"pota","name":"Foret des Fourneaux Biological Reserve","coordinates":[5.719,45.29]},{"code":"FR-14951","program":"pota","name":"Massif du Charmant Som Biological Reserve","coordinates":[5.749,45.315]},{"code":"F/AB-375","program":"sota","name":"Grande Sure","coordinates":[5.703,45.3352]},{"code":"F/AB-402","program":"sota","name":"Rocher de Chalves","coordinates":[5.6983,45.2983]},{"code":"F/AB-514","program":"sota","name":"Dent de Moirans","coordinates":[5.5953,45.2866]},{"code":"F/AB-517","program":"sota","name":"Baracuchet","coordinates":[5.6356,45.4171]},{"code":"F/AB-519","program":"sota","name":"Roche Brune","coordinates":[5.6415,45.3181]},{"code":"F/AB-527","program":"sota","name":"Charavin","coordinates":[5.5944,45.4197]},{"code":"F/AB-531","program":"sota","name":"Bois de Bavonne","coordinates":[5.5595,45.3937]},{"code":"F/AB-533","program":"sota","name":"Pierre de Libre Soleil","coordinates":[5.5474,45.4351]},{"code":"F/AB-537","program":"sota","name":"Mont de Servelongue","coordinates":[5.5976,45.4525]},{"code":"F/AB-538","program":"sota","name":"Mont Follet","coordinates":[5.5098,45.4152]},{"code":"F/AB-543","program":"sota","name":"Le Replat","coordinates":[5.6042,45.3783]},{"code":"F/AB-545","program":"sota","name":"La Madone","coordinates":[5.7457,45.4954]},{"code":"F/AB-551","program":"sota","name":"Bois du Prena","coordinates":[5.5248,45.467]},{"code":"F/AB-555","program":"sota","name":"Tolvon","coordinates":[5.617,45.3778]},{"code":"F/AB-603","program":"sota","name":"La Pinéa","coordinates":[5.7383,45.2883]},{"code":"F/AB-612","program":"sota","name":"Aiguille de Chalais","coordinates":[5.6608,45.2939]},{"code":"F/AB-613","program":"sota","name":"La Cuche","coordinates":[5.6018,45.2631]},{"code":"F/AB-620","program":"sota","name":"Bois de Montmain","coordinates":[5.6044,45.3901]},{"code":"F/AB-621","program":"sota","name":"Monure","coordinates":[5.5909,45.3878]}]}