{"lat":45.25,"lon":17.25,"programs":["pota","sota"],"count":5,"references":[{"code":"HR-0048","program":"pota","name":"Trbušnjak – Rastik Natura 2000","coordinates":[17.2809,45.496]},{"code":"HR-0046","program":"pota","name":"Suhe livade kod Sinlija Natura 2000","coordinates":[17.4536,45.3598]},{"code":"HR-0047","program":"pota","name":"Psunj Natura 2000","coordinates":[17.3253,45.4084]},{"code":"HR-0110","program":"pota","name":"Banićevac Natura 2000","coordinates":[17.4594,45.3407]},{"code":"9A/IH-001","program":"sota","name":"Psunj","coordinates":[17.332125,45.385963]}]}