{"lat":45.25,"lon":14.75,"programs":["pota","sota","wwbota"],"count":25,"references":[{"code":"HR-0087","program":"pota","name":"Gorski kotar i sjeverna Lika Natura 2000","coordinates":[14.875,45.2885]},{"code":"HR-0098","program":"pota","name":"Bjelolasica Natura 2000","coordinates":[14.9879,45.2551]},{"code":"HR-0088","program":"pota","name":"Vražji prolaz i Zeleni vir Natura 2000","coordinates":[14.8961,45.4284]},{"code":"HR-0102","program":"pota","name":"Šume kod Skrada Natura 2000","coordinates":[14.91,45.451]},{"code":"HR-0113","program":"pota","name":"Golubinjak Natura 2000","coordinates":[14.766,45.353]},{"code":"HR-0171","program":"pota","name":"Velika Belica Natura 2000","coordinates":[14.7841,45.4799]},{"code":"HR-0202","program":"pota","name":"Hajdova hiža Natura 2000","coordinates":[14.7923,45.4569]},{"code":"HR-0211","program":"pota","name":"Bjeljevina Natura 2000","coordinates":[14.8718,45.3907]},{"code":"9A/GH-015","program":"sota","name":"Kula","coordinates":[14.961196,45.27358]},{"code":"9A/GH-025","program":"sota","name":"Viševica","coordinates":[14.800858,45.254936]},{"code":"9A/GH-034","program":"sota","name":"Plana","coordinates":[14.917761,45.31961]},{"code":"9A/GH-040","program":"sota","name":"Bijela kosa","coordinates":[14.926427,45.298824]},{"code":"9A/GH-042","program":"sota","name":"Gradina","coordinates":[14.858146,45.25852]},{"code":"9A/GH-050","program":"sota","name":"Maj vrh","coordinates":[14.872437,45.288094]},{"code":"9A/GH-072","program":"sota","name":"Debela kosa","coordinates":[14.988939,45.363144]},{"code":"9A/GH-078","program":"sota","name":"Veliki Drgomalj","coordinates":[14.790549,45.43802]},{"code":"9A/GH-080","program":"sota","name":"Debeli vrh","coordinates":[14.8050375,45.35575]},{"code":"9A/GH-094","program":"sota","name":"Petehovac","coordinates":[14.91765,45.34961]},{"code":"9A/GH-111","program":"sota","name":"Skradski vrh","coordinates":[14.92136,45.420208]},{"code":"9A/GH-116","program":"sota","name":"Javorova kosa","coordinates":[14.9517,45.3867]},{"code":"9A/GH-121","program":"sota","name":"Kupjački vrh","coordinates":[14.8664255,45.411747]},{"code":"9A/GH-137","program":"sota","name":"Doren vrh","coordinates":[14.764979,45.41765]},{"code":"9A/GH-195","program":"sota","name":"Primorac","coordinates":[14.773725,45.49644]},{"code":"S5/RG-027","program":"sota","name":"Kuželjska stena","coordinates":[14.8225,45.4844]},{"code":"B/9A-0028","program":"wwbota","name":"Bukovac","coordinates":[14.76387458,45.34952976]}]}