{"lat":45.25,"lon":10.5,"programs":["pota"],"count":5,"references":[{"code":"IT-0074","program":"pota","name":"Complesso morenico di Castellaro Lagusello Natura 2000","coordinates":[10.6344,45.3658]},{"code":"IT-0645","program":"pota","name":"Parco del Mincio Regional Park","coordinates":[10.7097,45.2708]},{"code":"IT-0806","program":"pota","name":"Complesso Morenico di Castiglione delle Stiviere Natura 2000","coordinates":[10.506,45.409]},{"code":"IT-1081","program":"pota","name":"Laghetto del Frassino Natura 2000","coordinates":[10.6669,45.4375]},{"code":"IT-1575","program":"pota","name":"Basso Garda Natura 2000","coordinates":[10.6819,45.4642]}]}