{"lat":45.25,"lon":-77.75,"programs":["pota","sota"],"count":14,"references":[{"code":"CA-1358","program":"pota","name":"Conroys Marsh Conservation Reserve","coordinates":[-77.6034,45.2729]},{"code":"VE3/SO-037","program":"sota","name":"McManus Mountain","coordinates":[-77.6758,45.2791]},{"code":"VE3/SO-040","program":"sota","name":"VE3/SO-040","coordinates":[-77.7186,45.3184]},{"code":"VE3/SO-048","program":"sota","name":"Yantha Mountain","coordinates":[-77.5923,45.4733]},{"code":"VE3/SO-050","program":"sota","name":"VE3/SO-050","coordinates":[-77.5472,45.407]},{"code":"VE3/SO-052","program":"sota","name":"VE3/SO-052","coordinates":[-77.7134,45.4545]},{"code":"VE3/SO-061","program":"sota","name":"VE3/SO-061","coordinates":[-77.6234,45.3294]},{"code":"VE3/SO-063","program":"sota","name":"VE3/SO-063","coordinates":[-77.5695,45.4644]},{"code":"VE3/SO-077","program":"sota","name":"Mick Daley Mountain","coordinates":[-77.5297,45.4505]},{"code":"VE3/SO-078","program":"sota","name":"Schwieg Hill","coordinates":[-77.6635,45.3732]},{"code":"VE3/SO-081","program":"sota","name":"Gun Mountain","coordinates":[-77.6174,45.4214]},{"code":"VE3/SO-086","program":"sota","name":"VE3/SO-086","coordinates":[-77.5606,45.2984]},{"code":"VE3/SO-098","program":"sota","name":"VE3/SO-098","coordinates":[-77.7292,45.4948]},{"code":"VE3/SO-102","program":"sota","name":"Roddens Hill","coordinates":[-77.54,45.3379]}]}