{"lat":45.25,"lon":4,"programs":["gma","pota"],"count":14,"references":[{"code":"FA/MC-017","program":"gma","name":"La Dent","coordinates":[4.06610012,45.25249863]},{"code":"FR-4504","program":"pota","name":"Gail Sur L'ile De La Garenne Biological Reserve","coordinates":[4.13097,45.3167]},{"code":"FR-14315","program":"pota","name":"Prairies de Biesse Biological Reserve","coordinates":[4.217,45.42]},{"code":"FR-14316","program":"pota","name":"Gorges de la Loire amont Biological Reserve","coordinates":[4.247,45.412]},{"code":"FR-14318","program":"pota","name":"GRAVIERES DE BAS-EN-BASSET ILE DE LA GARENNE Biological Reserve","coordinates":[4.127,45.295]},{"code":"FR-14319","program":"pota","name":"MINE DE NAVOGNE Biological Reserve","coordinates":[4.098,45.286]},{"code":"FR-14455","program":"pota","name":"Etang David et milieux humides annexes Biological Reserve","coordinates":[4.232,45.496]},{"code":"FR-14458","program":"pota","name":"Riviere le Bonson Biological Reserve","coordinates":[4.16,45.446]},{"code":"FR-14459","program":"pota","name":"Bocage de Biaud et Fressonnet Biological Reserve","coordinates":[4.141,45.443]},{"code":"FR-14460","program":"pota","name":"Bocage de Triols et Fils Biological Reserve","coordinates":[4.073,45.455]},{"code":"FR-14461","program":"pota","name":"MONTS DU FOREZ Biological Reserve","coordinates":[4.017,45.493]},{"code":"FR-14462","program":"pota","name":"Ruisseaux de Laval et de la Thuilliere Biological Reserve","coordinates":[4.077,45.44]},{"code":"FR-14463","program":"pota","name":"Pelouses seches basaltiques du Suc de la Garenne Biological Reserve","coordinates":[4.078,45.489]},{"code":"FR-14611","program":"pota","name":"Ruisseau de l’Andrable Biological Reserve","coordinates":[4.004,45.424]}]}