{"lat":45.25,"lon":18,"programs":["pota","wwbota"],"count":7,"references":[{"code":"HR-0030","program":"pota","name":"Šume na Dilj gori Natura 2000","coordinates":[18.037,45.279]},{"code":"HR-0028","program":"pota","name":"Područje oko jezera Borovik Natura 2000","coordinates":[18.1664,45.3588]},{"code":"HR-0029","program":"pota","name":"Livade uz Pačicu Natura 2000","coordinates":[18.0978,45.2995]},{"code":"HR-0130","program":"pota","name":"Sovsko jezero Natura 2000","coordinates":[18.0193,45.2901]},{"code":"B/9A-0036","program":"wwbota","name":"Gajić","coordinates":[18.0797257,45.4883681]},{"code":"B/9A-0037","program":"wwbota","name":"Sokolana","coordinates":[18.0956428,45.4958448]},{"code":"B/9A-0038","program":"wwbota","name":"Urbari ja","coordinates":[18.1041129,45.4957797]}]}