{"lat":45.25,"lon":-76,"programs":["pota","wwbota"],"count":10,"references":[{"code":"CA-1349","program":"pota","name":"Remic Rapids and Bate Island Conservation Park","coordinates":[-75.7542,45.4071]},{"code":"CA-1621","program":"pota","name":"Shirleys Bay Conservation Reserve","coordinates":[-75.9318,45.3924]},{"code":"CA-1645","program":"pota","name":"Stony Swamp Conservation Reserve","coordinates":[-75.8316,45.3028]},{"code":"CA-5084","program":"pota","name":"South March Highlands Conservation Forest Natural Area","coordinates":[-75.9463,45.3462]},{"code":"CA-5644","program":"pota","name":"Pinhey’s Point National Historic Site","coordinates":[-75.9532,45.4399]},{"code":"CA-5954","program":"pota","name":"Maplelawn & Gardens National Historic Site","coordinates":[-75.7619,45.3887]},{"code":"CA-1920","program":"pota","name":"Alvar-d'Aylmer Nature Reserve","coordinates":[-75.8736,45.4387]},{"code":"CA-5888","program":"pota","name":"First Geodetic Survey Station National Historic Site","coordinates":[-75.8626,45.4891]},{"code":"B/CA-1342","program":"wwbota","name":"Air Raid Siren","coordinates":[-75.756035,45.37863203]},{"code":"B/CA-1562","program":"wwbota","name":"Despatcher Telephone and Telegraph, Quyon - Hull West","coordinates":[-75.9261273,45.45585192]}]}