{"lat":45.25,"lon":13.5,"programs":["gma","pota"],"count":10,"references":[{"code":"S50/BR-109","program":"gma","name":"Novi Bric","coordinates":[13.7421999,45.46580124]},{"code":"HR-0122","program":"pota","name":"Ušće Mirne Natura 2000","coordinates":[13.6018,45.3199]},{"code":"HR-0152","program":"pota","name":"Istra - Martinčići Natura 2000","coordinates":[13.7274,45.392]},{"code":"HR-0167","program":"pota","name":"Argile Natura 2000","coordinates":[13.709,45.442]},{"code":"HR-0190","program":"pota","name":"Tarska uvala - Istra Natura 2000","coordinates":[13.6151,45.3144]},{"code":"SI-0014","program":"pota","name":"SEČOVLJSKE SOLINE Landscape Park","coordinates":[13.6025,45.4715]},{"code":"SI-0920","program":"pota","name":"Castellieri route 4 -Med Kraškim robom in morjem Recreation Site","coordinates":[13.6565,45.4886]},{"code":"SI-0921","program":"pota","name":"CAstellieri route 5 - Šavrinski kaštelirji Recreation Site","coordinates":[13.6564,45.4886]},{"code":"SI-0922","program":"pota","name":"Castellieri route 6 - Od Kaštelirja do Kaštelirja Recreation Site","coordinates":[13.6565,45.4886]},{"code":"SI-0924","program":"pota","name":"Castellieri route 8  - Od Mirne do Šavrinije Recreation Site","coordinates":[13.6565,45.4886]}]}