{"lat":45.25,"lon":15.5,"programs":["pota","sota"],"count":7,"references":[{"code":"HR-0090","program":"pota","name":"Korana nizvodno od Slunja Natura 2000","coordinates":[15.519,45.324]},{"code":"HR-0126","program":"pota","name":"Kupa Natura 2000","coordinates":[15.642,45.479]},{"code":"HR-0197","program":"pota","name":"Brebornica Natura 2000","coordinates":[15.6101,45.2984]},{"code":"9A/ZH-041","program":"sota","name":"Veli vrh","coordinates":[15.5385065,45.329742]},{"code":"9A/ZH-047","program":"sota","name":"Bilo","coordinates":[15.65855,45.350628]},{"code":"9A/ZH-048","program":"sota","name":"Martinšćak","coordinates":[15.579675,45.40757]},{"code":"9A/ZH-049","program":"sota","name":"Velika Vinica","coordinates":[15.525256,45.444836]}]}