{"lat":45.25,"lon":6.5,"programs":["gma","pota","sota","wwbota"],"count":52,"references":[{"code":"FA/AB-015","program":"gma","name":"Croix de Verdon","coordinates":[6.60580015,45.3891983]},{"code":"FR-3915","program":"pota","name":"Plan de Tueda National Reserve","coordinates":[6.60921,45.3443]},{"code":"FR-4658","program":"pota","name":"Marais Et Tourbieres Du Plan De L'Eau Biological Reserve","coordinates":[6.54152,45.3057]},{"code":"FR-4659","program":"pota","name":"La Moutiere Biological Reserve","coordinates":[6.5678,45.2879]},{"code":"FR-4660","program":"pota","name":"Marais Du Plan Des Mains Biological Reserve","coordinates":[6.58958,45.3387]},{"code":"FR-4661","program":"pota","name":"Le Petit Mont Blanc Biological Reserve","coordinates":[6.68958,45.3476]},{"code":"FR-4662","program":"pota","name":"La Dent Du Villard Biological Reserve","coordinates":[6.67412,45.4197]},{"code":"FR-4663","program":"pota","name":"Plan De L'Homme Et Vieille Cave Biological Reserve","coordinates":[6.5492,45.3845]},{"code":"FR-14834","program":"pota","name":"Falaises, boisements et garides de Montgalgan Biological Reserve","coordinates":[6.546,45.493]},{"code":"FR-14863","program":"pota","name":"Adrets de Salins les Thermes a Brides les Bains Biological Reserve","coordinates":[6.567,45.457]},{"code":"FR-14864","program":"pota","name":"Bois de Champion Biological Reserve","coordinates":[6.55,45.456]},{"code":"FR-14865","program":"pota","name":"Tourbiere de Parganty Biological Reserve","coordinates":[6.604,45.461]},{"code":"FR-14866","program":"pota","name":"Marais et prairies de Moranche et des Champs Biological Reserve","coordinates":[6.62,45.456]},{"code":"FR-14867","program":"pota","name":"Bois de Fontany et du Dos des Branches Biological Reserve","coordinates":[6.615,45.422]},{"code":"FR-14868","program":"pota","name":"Dos de Cret Voland, montagne de Cherferie Biological Reserve","coordinates":[6.524,45.413]},{"code":"FR-14869","program":"pota","name":"TourbiEre de Villarabout Biological Reserve","coordinates":[6.511,45.384]},{"code":"FR-14870","program":"pota","name":"Tourbiere de Praz Coutin Biological Reserve","coordinates":[6.526,45.388]},{"code":"FR-14871","program":"pota","name":"Tourbieres du plan de l’Homme Biological Reserve","coordinates":[6.548,45.388]},{"code":"FR-14872","program":"pota","name":"Lacs et tourbieres de Praz Petaux Biological Reserve","coordinates":[6.532,45.374]},{"code":"FR-14873","program":"pota","name":"Lac et tourbieres du Plane et des Teppes Noires Biological Reserve","coordinates":[6.532,45.366]},{"code":"FR-14874","program":"pota","name":"Tourbiere des Allamands Biological Reserve","coordinates":[6.543,45.339]},{"code":"FR-14892","program":"pota","name":"Aulnaie de Champagny Biological Reserve","coordinates":[6.695,45.446]},{"code":"FR-14893","program":"pota","name":"Foret du Miollet Biological Reserve","coordinates":[6.689,45.461]},{"code":"FR-14894","program":"pota","name":"Mont Jovet Biological Reserve","coordinates":[6.639,45.493]},{"code":"FR-14895","program":"pota","name":"Bois de Tincave Biological Reserve","coordinates":[6.66,45.484]},{"code":"F/AB-041","program":"sota","name":"Dôme de l'Arpont","coordinates":[6.743,45.3185]},{"code":"F/AB-046","program":"sota","name":"Aiguille de Peclet","coordinates":[6.624,45.2814]},{"code":"F/AB-068","program":"sota","name":"Pointe de l'Échelle","coordinates":[6.6853,45.2692]},{"code":"F/AB-072","program":"sota","name":"Pointe du Bouchet","coordinates":[6.6042,45.2542]},{"code":"F/AB-110","program":"sota","name":"Cîme de Caron","coordinates":[6.5609,45.2633]},{"code":"F/AB-118","program":"sota","name":"Mont du Borgne","coordinates":[6.6131,45.3041]},{"code":"F/AB-121","program":"sota","name":"Mont Bréquin","coordinates":[6.5335,45.2518]},{"code":"F/AB-133","program":"sota","name":"Aiguille du Fruit","coordinates":[6.631,45.3557]},{"code":"F/AB-139","program":"sota","name":"Aiguille de Chanrouge (ou de Chanrossa)","coordinates":[6.6664,45.3292]},{"code":"F/AB-142","program":"sota","name":"Pointe des Fonds","coordinates":[6.6464,45.3075]},{"code":"F/AB-178","program":"sota","name":"Aiguille du Rateau","coordinates":[6.6658,45.3403]},{"code":"F/AB-183","program":"sota","name":"Rocher de Plassa","coordinates":[6.6892,45.3728]},{"code":"F/AB-204","program":"sota","name":"Pointe de la Masse","coordinates":[6.5075,45.2974]},{"code":"F/AB-218","program":"sota","name":"Sommet de la Saulire","coordinates":[6.6094,45.3824]},{"code":"F/AB-220","program":"sota","name":"Roche de Mio","coordinates":[6.7368,45.4925]},{"code":"F/AB-246","program":"sota","name":"Roc du Bécoin","coordinates":[6.6629,45.493]},{"code":"F/AB-251","program":"sota","name":"Pointe de la Vuzelle","coordinates":[6.7293,45.4162]},{"code":"F/AB-298","program":"sota","name":"Le Verdet","coordinates":[6.5361,45.3922]},{"code":"F/AB-300","program":"sota","name":"Dent du Villard","coordinates":[6.6761,45.4203]},{"code":"B/F-5635","program":"wwbota","name":"MONTAGNY (P1)","coordinates":[6.600449,45.451647]},{"code":"B/F-5636","program":"wwbota","name":"MONTAGNY FALAISE","coordinates":[6.598058,45.448353]},{"code":"B/F-5637","program":"wwbota","name":"PERRIERE CHAPELLE Nord","coordinates":[6.598873,45.444421]},{"code":"B/F-5638","program":"wwbota","name":"PERRIERE CHAPELLE Sud","coordinates":[6.598959,45.443913]},{"code":"B/F-5639","program":"wwbota","name":"VILLAFLOU - TANIA (P1)","coordinates":[6.599187,45.44037]},{"code":"B/F-5640","program":"wwbota","name":"VILLAFLOU - TANIA (P3)","coordinates":[6.59597,45.436916]},{"code":"B/F-5641","program":"wwbota","name":"VILLAFLOU - TANIA (P4)","coordinates":[6.590411,45.434895]},{"code":"B/F-5642","program":"wwbota","name":"VILLAFLOU - TANIA (P5)","coordinates":[6.591801,45.429747]}]}