{"lat":45.5,"lon":8,"programs":["gma","pota","sota"],"count":16,"references":[{"code":"IT/PM-1014","program":"gma","name":"Monticchio","coordinates":[8.04749966,45.66389847]},{"code":"IT/PM-1015","program":"gma","name":"Monte Cucco","coordinates":[8.00559998,45.62969971]},{"code":"IT/PM-1102","program":"gma","name":"Cima delle Guardie","coordinates":[8.01860046,45.69010162]},{"code":"IT/PM-1108","program":"gma","name":"Rocca d'Argimonia","coordinates":[8.10439968,45.6678009]},{"code":"IT/PM-1110","program":"gma","name":"San Bernardo","coordinates":[8.14109993,45.67720032]},{"code":"IT-0173","program":"pota","name":"Riserva naturale speciale del Parco Burcina - Felice Piacenza Regional Reserve","coordinates":[8.01495,45.5884]},{"code":"IT-0337","program":"pota","name":"Baraggia di Candelo Natura 2000","coordinates":[8.159,45.531]},{"code":"IT-0870","program":"pota","name":"Oasi Zegna Other Conservation Area","coordinates":[8.18442,45.6671]},{"code":"IT-1435","program":"pota","name":"Area Attrezzata Brich Di Zumaglia e Mont Prevé Other Conservation Area","coordinates":[8.0919,45.5852]},{"code":"IT-2011","program":"pota","name":"Val Sessera Natura 2000","coordinates":[8.03778,45.6969]},{"code":"I/PM-169","program":"sota","name":"Monte Barone","coordinates":[8.1546,45.734]},{"code":"I/PM-175","program":"sota","name":"Cima di Bors","coordinates":[8.1142,45.7347]},{"code":"I/PM-182","program":"sota","name":"Monte Talamone","coordinates":[8.1348,45.7498]},{"code":"I/PM-197","program":"sota","name":"Monte Cerchio","coordinates":[8.0878,45.6664]},{"code":"I/PM-235","program":"sota","name":"Monte Rovella","coordinates":[8.1314,45.6245]},{"code":"I/PM-249","program":"sota","name":"La Guardia","coordinates":[8.2218,45.6598]}]}