{"lat":45.5,"lon":5.25,"programs":["pota"],"count":23,"references":[{"code":"FR-1116","program":"pota","name":"Etangs de Mepieu Provincial Park","coordinates":[5.43929,45.7389]},{"code":"FR-4511","program":"pota","name":"Lac de Moras Biological Reserve","coordinates":[5.269,45.681]},{"code":"FR-6174","program":"pota","name":"Lac Saint Felix Biological Reserve","coordinates":[5.49575,45.5582]},{"code":"FR-6178","program":"pota","name":"Etang des Echerolles Biological Reserve","coordinates":[5.47211,45.5964]},{"code":"FR-6182","program":"pota","name":"Etang Darde Biological Reserve","coordinates":[5.35958,45.5974]},{"code":"FR-6183","program":"pota","name":"Lacs Clair et Jublet Biological Reserve","coordinates":[5.35367,45.6043]},{"code":"FR-6185","program":"pota","name":"Zone humide des Trainaux Biological Reserve","coordinates":[5.37043,45.6027]},{"code":"FR-6186","program":"pota","name":"ZONES HUMIDES DE LA HAUTE VALLEE DE LA BOURBRE Biological Reserve","coordinates":[5.49908,45.5181]},{"code":"FR-12535","program":"pota","name":"Etang et zone humide de VIGNIEU Biological Reserve","coordinates":[5.416,45.636]},{"code":"FR-12539","program":"pota","name":"Marais du VERNAY Biological Reserve","coordinates":[5.321,45.567]},{"code":"FR-13023","program":"pota","name":"Tourbiere du marais de CRUCILLIEU Biological Reserve","coordinates":[5.4004,45.639]},{"code":"FR-13560","program":"pota","name":"Etang de Ravoux, bois des Adrets Biological Reserve","coordinates":[5.38186,45.5302]},{"code":"FR-13561","program":"pota","name":"ZONES HUMIDES DU BASSIN DE L’HIEN Biological Reserve","coordinates":[5.39,45.54]},{"code":"FR-13562","program":"pota","name":"Zones humides de Montrevel Biological Reserve","coordinates":[5.43037,45.5031]},{"code":"FR-13569","program":"pota","name":"Etang Malin Biological Reserve","coordinates":[5.437,45.54]},{"code":"FR-13570","program":"pota","name":"Roseliere de Marlieu Biological Reserve","coordinates":[5.445,45.536]},{"code":"FR-13571","program":"pota","name":"Pelouse de Busserond Biological Reserve","coordinates":[5.454,45.522]},{"code":"FR-13572","program":"pota","name":"Depression des Pierres Biological Reserve","coordinates":[5.482,45.509]},{"code":"FR-13573","program":"pota","name":"ZONES HUMIDES DE LA MOYENNE VALLEE DE LA BOURBRE, ENTRE LA TOUR DU PIN ET BOURGOIN-JALLIEU Biological Reserve","coordinates":[5.397,45.562]},{"code":"FR-14049","program":"pota","name":"Carriere de la Cote de l’etang Biological Reserve","coordinates":[5.42226,45.6912]},{"code":"FR-14050","program":"pota","name":"Etang de Peysse, zone humide et carrieres Biological Reserve","coordinates":[5.45705,45.6904]},{"code":"FR-14051","program":"pota","name":"Riviere de la Save et zones humides associees Biological Reserve","coordinates":[5.44848,45.6976]},{"code":"FR-14053","program":"pota","name":"Marais de BOURGOIN Biological Reserve","coordinates":[5.2518,45.595]}]}