{"lat":45.5,"lon":-65.75,"programs":["pota","sota","wwbota"],"count":10,"references":[{"code":"CA-5252","program":"pota","name":"Burton Park Recreation Park","coordinates":[-65.502,45.7231]},{"code":"CA-5264","program":"pota","name":"O'Connell Park Recreation Park","coordinates":[-65.5036,45.7219]},{"code":"CA-5265","program":"pota","name":"Princess Louise Park Recreation Park","coordinates":[-65.5006,45.7268]},{"code":"CA-5271","program":"pota","name":"Sussex Nature Walkway Conservation Area","coordinates":[-65.5068,45.7249]},{"code":"CA-6473","program":"pota","name":"Former Intercolonial Railway (ICR) Station Historic Site","coordinates":[-65.5129,45.7226]},{"code":"CA-6533","program":"pota","name":"Intercolonial Railway Station Historic Site","coordinates":[-65.5122,45.7228]},{"code":"VE9/KG-001","program":"sota","name":"Vinegar Hill","coordinates":[-65.54111,45.61389]},{"code":"VE9/KG-003","program":"sota","name":"Bloomfield","coordinates":[-65.68777,45.55111]},{"code":"VE9/KG-005","program":"sota","name":"Peak 35-31","coordinates":[-65.51195,45.58917]},{"code":"B/CA-0747","program":"wwbota","name":"FRP NB59","coordinates":[-65.5108761,45.72361923]}]}