{"lat":45.5,"lon":-62.75,"programs":["pota","wwbota"],"count":7,"references":[{"code":"CA-0469","program":"pota","name":"Melmerby Beach Provincial Park","coordinates":[-62.5169,45.6613]},{"code":"CA-0897","program":"pota","name":"Caribou and Munroes Island Provincial Park","coordinates":[-62.6535,45.7247]},{"code":"CA-0939","program":"pota","name":"Powells Point Provincial Park","coordinates":[-62.5672,45.6498]},{"code":"CA-5835","program":"pota","name":"Pictou Academy National Historic Site","coordinates":[-62.7151,45.6767]},{"code":"CA-5836","program":"pota","name":"Pictou Railway Station (Intercolonial) National Historic Site","coordinates":[-62.7062,45.6761]},{"code":"B/CA-0850","program":"wwbota","name":"FRP HKNA12","coordinates":[-62.6451191,45.58717023]},{"code":"B/CA-0896","program":"wwbota","name":"DOT Radio: Caribou Island-New Glasgow","coordinates":[-62.66285495,45.67587975]}]}