{"lat":45.5,"lon":-73.75,"programs":["pota","sota","wwbota"],"count":33,"references":[{"code":"CA-0511","program":"pota","name":"Mount Royal Regional Park","coordinates":[-73.5944,45.5022]},{"code":"CA-0986","program":"pota","name":"Parc Frédéric-Back Regional Park","coordinates":[-73.6379,45.5623]},{"code":"CA-0990","program":"pota","name":"Parc Jarry Recreation Park","coordinates":[-73.6329,45.5359]},{"code":"CA-0992","program":"pota","name":"Parc La Fontaine Regional Park","coordinates":[-73.5703,45.5271]},{"code":"CA-0994","program":"pota","name":"Parc Maisonneuve Regional Park","coordinates":[-73.5548,45.5611]},{"code":"CA-0995","program":"pota","name":"Parc-nature de l'Île-de-la-Visitation Nature Park","coordinates":[-73.6561,45.5779]},{"code":"CA-0997","program":"pota","name":"Parc-nature de la Pointe-aux-Prairies Recreation Park","coordinates":[-73.5155,45.697]},{"code":"CA-0998","program":"pota","name":"Parc-nature du Bois-de-Saraguay Nature Park","coordinates":[-73.7465,45.5151]},{"code":"CA-1000","program":"pota","name":"Parc-nature du Ruisseau-De Montigny Nature Park","coordinates":[-73.6043,45.6127]},{"code":"CA-1927","program":"pota","name":"Archipel-du-Mitan Nature Reserve","coordinates":[-73.5376,45.6852]},{"code":"CA-1956","program":"pota","name":"Boise Papineau (Bois Papineau) Nature Reserve","coordinates":[-73.6776,45.605]},{"code":"CA-2176","program":"pota","name":"Parc Jean-Drapeau Regional Park","coordinates":[-73.5352,45.52]},{"code":"CA-2196","program":"pota","name":"Place Émilie-Gamelin Recreation Park","coordinates":[-73.5601,45.5151]},{"code":"CA-4914","program":"pota","name":"Louis-Joseph Papineau National Historic Site","coordinates":[-73.5523,45.51]},{"code":"CA-4923","program":"pota","name":"Sir George-Étienne Cartier National Historic Site","coordinates":[-73.5517,45.5111]},{"code":"CA-4954","program":"pota","name":"Parc de la Riviere de Terrebonne Regional Park","coordinates":[-73.6942,45.6912]},{"code":"CA-4977","program":"pota","name":"Côte Boisée Regional Park","coordinates":[-73.6621,45.7101]},{"code":"CA-4988","program":"pota","name":"Parc de la Promenade-Bellerive Regional Park","coordinates":[-73.5095,45.5951]},{"code":"CA-5032","program":"pota","name":"Centre de la nature de Laval Regional Park","coordinates":[-73.6637,45.6076]},{"code":"CA-5033","program":"pota","name":"Parc Bernard-Landry Regional Park","coordinates":[-73.6953,45.5552]},{"code":"CA-5861","program":"pota","name":"Battle of Rivière des Prairies / Battle of Coulée Grou National Historic Site","coordinates":[-73.5038,45.6989]},{"code":"CA-5867","program":"pota","name":"Black Watch (Royal Highland Regiment) of Canada Armoury National Historic Site","coordinates":[-73.5699,45.5078]},{"code":"CA-5871","program":"pota","name":"Bonsecours Market National Historic Site","coordinates":[-73.5516,45.5091]},{"code":"CA-5877","program":"pota","name":"Château De Ramezay / India House National Historic Site","coordinates":[-73.5536,45.5087]},{"code":"CA-5878","program":"pota","name":"Christ Church Cathedral National Historic Site","coordinates":[-73.5698,45.5036]},{"code":"CA-5879","program":"pota","name":"Church of Notre-Dame-de-la-Défense National Historic Site","coordinates":[-73.6113,45.5352]},{"code":"CA-5889","program":"pota","name":"Former Montréal Custom House National Historic Site","coordinates":[-73.5548,45.5035]},{"code":"CA-5894","program":"pota","name":"Fort Longueuil National Historic Site","coordinates":[-73.5078,45.5405]},{"code":"VE2/ML-004","program":"sota","name":"Mont Royal","coordinates":[-73.59,45.5085]},{"code":"B/CA-1226","program":"wwbota","name":"FRP Chabanel","coordinates":[-73.654839,45.53897503]},{"code":"B/CA-1270","program":"wwbota","name":"FRP BA111","coordinates":[-73.541901,45.52183503]},{"code":"B/CA-1307","program":"wwbota","name":"FRP BA14","coordinates":[-73.612144,45.71046103]},{"code":"B/CA-1488","program":"wwbota","name":"Wireless: Montreal-St Jerome","coordinates":[-73.622326,45.5158865]}]}