{"lat":45.5,"lon":4.5,"programs":["pota","sota"],"count":31,"references":[{"code":"FR-4513","program":"pota","name":"Le Tupinier Biological Reserve","coordinates":[4.70233,45.7487]},{"code":"FR-4515","program":"pota","name":"Vallon Du Rossand Biological Reserve","coordinates":[4.52089,45.7306]},{"code":"FR-11597","program":"pota","name":"Vallee du Mezerin et crets des Moussieres Biological Reserve","coordinates":[4.694,45.545]},{"code":"FR-14332","program":"pota","name":"Prairies de la Soufriere Biological Reserve","coordinates":[4.657,45.564]},{"code":"FR-14333","program":"pota","name":"PLATEAU MORNANTAIS Biological Reserve","coordinates":[4.644,45.58]},{"code":"FR-14334","program":"pota","name":"Vallon du Bozancon Biological Reserve","coordinates":[4.634,45.549]},{"code":"FR-14335","program":"pota","name":"BASSIN VERSANT DU BOZANCON Biological Reserve","coordinates":[4.602,45.576]},{"code":"FR-14336","program":"pota","name":"Prairies de la Condamine Biological Reserve","coordinates":[4.662,45.612]},{"code":"FR-14337","program":"pota","name":"Prairies des Echirayes et de la Roche Biological Reserve","coordinates":[4.703,45.596]},{"code":"FR-14338","program":"pota","name":"Landes du plateau de Montagny Biological Reserve","coordinates":[4.74,45.615]},{"code":"FR-14339","program":"pota","name":"Zones humides et landes de Montagny Biological Reserve","coordinates":[4.735,45.616]},{"code":"FR-14355","program":"pota","name":"Ruisseau de la Platte et ses abords Biological Reserve","coordinates":[4.54,45.562]},{"code":"FR-14356","program":"pota","name":"Partie haute du ruisseau de la Coise Biological Reserve","coordinates":[4.564,45.589]},{"code":"FR-14359","program":"pota","name":"Landes de la Bruyere Biological Reserve","coordinates":[4.632,45.64]},{"code":"FR-14360","program":"pota","name":"Vallon du Godivert Biological Reserve","coordinates":[4.708,45.58]},{"code":"FR-14550","program":"pota","name":"Cret de la Poipe, bois du Boula Biological Reserve","coordinates":[4.61,45.674]},{"code":"FR-14551","program":"pota","name":"Prairie humide de la Rosette Biological Reserve","coordinates":[4.736,45.64]},{"code":"FR-14552","program":"pota","name":"Vallee du Garon Biological Reserve","coordinates":[4.725,45.694]},{"code":"FR-14553","program":"pota","name":"Pres humides du Ramier Biological Reserve","coordinates":[4.729,45.711]},{"code":"FR-14554","program":"pota","name":"Landes de Chassagne et de Servigny Biological Reserve","coordinates":[4.657,45.687]},{"code":"FR-14555","program":"pota","name":"Moyenne vallee de l'Yzeron Biological Reserve","coordinates":[4.739,45.741]},{"code":"FR-14556","program":"pota","name":"ENSEMBLE FONCTIONNEL FORME PAR L’YZERON ET SES AFFLUENTS Biological Reserve","coordinates":[4.724,45.731]},{"code":"FR-14557","program":"pota","name":"Grotte de Tupinier et ses environs Biological Reserve","coordinates":[4.707,45.735]},{"code":"FR-14558","program":"pota","name":"Prairie du Tupinier Biological Reserve","coordinates":[4.699,45.748]},{"code":"FR-14574","program":"pota","name":"Vallons des environs de Vaugneray Biological Reserve","coordinates":[4.621,45.737]},{"code":"FR-14576","program":"pota","name":"Vallons d'affluents de la Brevenne Biological Reserve","coordinates":[4.564,45.748]},{"code":"FR-14578","program":"pota","name":"Vallon du Rossand 2 Biological Reserve","coordinates":[4.522,45.73]},{"code":"F/MC-098","program":"sota","name":"Crêt Malherbe","coordinates":[4.5025,45.5825]},{"code":"F/MC-102","program":"sota","name":"Signal de Saint-André","coordinates":[4.5933,45.6383]},{"code":"F/MC-103","program":"sota","name":"Monts du Lyonnais","coordinates":[4.5022,45.6803]},{"code":"F/MC-256","program":"sota","name":"Le Pet du Loup","coordinates":[4.7463,45.5269]}]}