{"lat":45.5,"lon":-75.25,"programs":["pota","sota","wwbota"],"count":6,"references":[{"code":"CA-0517","program":"pota","name":"Plaisance National Park","coordinates":[-75.1102,45.5994]},{"code":"CA-5062","program":"pota","name":"Chutes de Plaisance Regional Park","coordinates":[-75.133,45.6409]},{"code":"VE2/OU-007","program":"sota","name":"Montagne des Soeurs","coordinates":[-75.1031,45.7392]},{"code":"VE2/OU-096","program":"sota","name":"Montagne du Calvaire","coordinates":[-75.0318,45.7448]},{"code":"B/CA-1568","program":"wwbota","name":"Despatcher Telegraph: Buckingham - Montebello","coordinates":[-75.177521,45.612633]},{"code":"B/CA-1569","program":"wwbota","name":"Telephone: Ripon - Montebello","coordinates":[-75.021263,45.7181305]}]}