{"lat":45.5,"lon":17.25,"programs":["pota","sota","wwbota"],"count":7,"references":[{"code":"HR-0049","program":"pota","name":"Pakra i Bijela Natura 2000","coordinates":[17.339,45.551]},{"code":"9A/IH-004","program":"sota","name":"Crni vrh","coordinates":[17.43181,45.60266]},{"code":"9A/IH-005","program":"sota","name":"Ravna Gora","coordinates":[17.450737,45.505688]},{"code":"9A/IH-008","program":"sota","name":"Kestenova poljana","coordinates":[17.45341,45.579315]},{"code":"9A/ZH-015","program":"sota","name":"Pogani vrh","coordinates":[17.34314,45.593212]},{"code":"B/9A-0032","program":"wwbota","name":"Vrijeska","coordinates":[17.29319908,45.64441648]},{"code":"B/9A-0033","program":"wwbota","name":"Vrijeska","coordinates":[17.29052538,45.64338651]}]}