{"lat":45.5,"lon":2,"programs":["gma","pota","sota"],"count":6,"references":[{"code":"FA/MC-016","program":"gma","name":"Puy Pendu","coordinates":[2.10829997,45.58359909]},{"code":"FR-4199","program":"pota","name":"Foret de la Cubesse Natura 2000","coordinates":[2.05944,45.5367]},{"code":"FR-4217","program":"pota","name":"Landes et zones humides de la Haute Vezere Natura 2000","coordinates":[2.00528,45.6097]},{"code":"FR-4263","program":"pota","name":"Tourbiere de Negarioux Malsagne Natura 2000","coordinates":[2.02861,45.7286]},{"code":"FR-4264","program":"pota","name":"Tourbieres et fonds tourbeux de Bonnefond Peret Bel Air Natura 2000","coordinates":[2.0225,45.5061]},{"code":"F/MC-242","program":"sota","name":"Mont Bessou","coordinates":[2.1233,45.57]}]}