{"lat":45.5,"lon":-74.25,"programs":["pota","sota","wwbota"],"count":5,"references":[{"code":"CA-1003","program":"pota","name":"Parc régional Bois de Belle-Rivière Regional Park","coordinates":[-74.0861,45.6225]},{"code":"CA-4141","program":"pota","name":"Parc métropolitain des rivières du Nord et Bellefeuille Park","coordinates":[-74.0848,45.7222]},{"code":"VE2/ML-008","program":"sota","name":"Collines d'Oka","coordinates":[-74.1145,45.5144]},{"code":"B/CA-1572","program":"wwbota","name":"Despatcher Telephone and Telegraph: Lachute - Saint-Therese","coordinates":[-74.0839005,45.6460835]},{"code":"B/CA-1610","program":"wwbota","name":"Radio: Mercier Bridge - Saint-Jérome","coordinates":[-74.03830836,45.67716032]}]}