{"lat":45.5,"lon":-69.5,"programs":["sota"],"count":8,"references":[{"code":"W1/AM-012","program":"sota","name":"Baker Mtn.","coordinates":[-69.3939,45.5711]},{"code":"W1/AM-063","program":"sota","name":"Farrar Mtn.","coordinates":[-69.2906,45.7136]},{"code":"W1/AM-066","program":"sota","name":"Shaw Mtn.","coordinates":[-69.3103,45.6403]},{"code":"W1/AM-097","program":"sota","name":"Elephant Mtn. Greenville","coordinates":[-69.4244,45.5178]},{"code":"W1/AM-137","program":"sota","name":"Prong Pond Mtn.","coordinates":[-69.4786,45.5439]},{"code":"W1/AM-167","program":"sota","name":"Indian Mtn.","coordinates":[-69.3819,45.5142]},{"code":"W1/AM-317","program":"sota","name":"Lily Bay Mtn.","coordinates":[-69.4167,45.5906]},{"code":"W1/AM-403","program":"sota","name":"Trout Mtn.","coordinates":[-69.2803,45.6564]}]}