{"lat":45.5,"lon":5.75,"programs":["gma","pota","sota"],"count":28,"references":[{"code":"FA/AB-001","program":"gma","name":"Mont Revard","coordinates":[5.97501,45.68226]},{"code":"FA/AB-002","program":"gma","name":"La Tour des Ebats","coordinates":[5.99733,45.69617]},{"code":"FA/AB-004","program":"gma","name":"LÂ´Orionde","coordinates":[5.96481,45.64694]},{"code":"FR-2543","program":"pota","name":"RESEAU AVANT PAYS SAVOYARD FR8201770 Natura 2000","coordinates":[5.80934,45.556]},{"code":"FR-2551","program":"pota","name":"LAC DU BOURGET ET MARAIS DE CHAUTAGNE FR8202010 Natura 2000","coordinates":[5.85934,45.7382]},{"code":"FR-2558","program":"pota","name":"LAC D AIGUEBELETTE FR9300166 Regional Reserve","coordinates":[5.80142,45.561]},{"code":"FR-2716","program":"pota","name":"LAC DU BOURGET ET MARAIS DE CHAUTAGNE FR8212033 Natura 2000","coordinates":[5.85934,45.7382]},{"code":"FR-4082","program":"pota","name":"lac du bourget et marais de chautagne Natura 2000","coordinates":[5.85934,45.7382]},{"code":"FR-4673","program":"pota","name":"Marais Des Noux Biological Reserve","coordinates":[5.974,45.5389]},{"code":"FR-5595","program":"pota","name":"Lac d’Aiguebelette et marais riverains Biological Reserve","coordinates":[5.801,45.553]},{"code":"FR-13263","program":"pota","name":"Prairies humides et bocages des Abimes de Myans Biological Reserve","coordinates":[5.973,45.517]},{"code":"FR-13265","program":"pota","name":"Pelouses seches de Severt Biological Reserve","coordinates":[5.944,45.514]},{"code":"FR-13266","program":"pota","name":"Ruisseau de l’Albanne Biological Reserve","coordinates":[5.955,45.538]},{"code":"FR-13267","program":"pota","name":"Pelouses seches des Charmettes Biological Reserve","coordinates":[5.932,45.553]},{"code":"FR-13271","program":"pota","name":"Ruisseau du Forezan Biological Reserve","coordinates":[5.881,45.557]},{"code":"FR-13272","program":"pota","name":"Marais des Chassettes Biological Reserve","coordinates":[5.974,45.552]},{"code":"FR-13273","program":"pota","name":"Bocage de Boige et de la Ramee Biological Reserve","coordinates":[5.979,45.535]},{"code":"FR-13274","program":"pota","name":"Mont Ronjou Biological Reserve","coordinates":[5.999,45.526]},{"code":"FR-13275","program":"pota","name":"Pelouse seche du Clos Saint Anthelme Biological Reserve","coordinates":[5.996,45.527]},{"code":"FR-14907","program":"pota","name":"MONTAGNE DE L’EPINE ET MONT DU CHAT Biological Reserve","coordinates":[5.811,45.521]},{"code":"F/AB-456","program":"sota","name":"Mont du Nivolet","coordinates":[5.9674,45.6204]},{"code":"F/AB-457","program":"sota","name":"La Tour de l'Angle Est","coordinates":[5.9897,45.6896]},{"code":"F/AB-468","program":"sota","name":"Mont du Chat","coordinates":[5.8212,45.6599]},{"code":"F/AB-478","program":"sota","name":"Mont Grelle","coordinates":[5.8066,45.5104]},{"code":"F/AB-479","program":"sota","name":"Le Corbeley","coordinates":[5.8667,45.5064]},{"code":"F/AB-490","program":"sota","name":"Mont Peney","coordinates":[5.9899,45.5977]},{"code":"F/AB-505","program":"sota","name":"La Charvaz","coordinates":[5.8237,45.7319]},{"code":"F/AB-615","program":"sota","name":"Montagne de la Biolle","coordinates":[5.8987,45.7491]}]}