{"lat":45.5,"lon":-64,"programs":["pota","wwbota"],"count":7,"references":[{"code":"CA-1756","program":"pota","name":"Economy River Wilderness Area","coordinates":[-63.955,45.507]},{"code":"CA-1819","program":"pota","name":"Polly Brook Wilderness Area","coordinates":[-63.9851,45.6534]},{"code":"CA-1856","program":"pota","name":"Slade Lake Nature Reserve","coordinates":[-63.92,45.7115]},{"code":"CA-1873","program":"pota","name":"Steepbank Brook Nature Reserve","coordinates":[-63.862,45.712]},{"code":"B/CA-0838","program":"wwbota","name":"FRP HKMA1","coordinates":[-63.867288,45.73631473]},{"code":"B/CA-0927","program":"wwbota","name":"RCMP Radio: Amherst-Truro","coordinates":[-63.75183065,45.59122015]},{"code":"B/CA-0928","program":"wwbota","name":"Radio: Springhill-Debert","coordinates":[-63.75430715,45.5339426]}]}