{"lat":45.5,"lon":-110,"programs":["sota"],"count":8,"references":[{"code":"W7M/SF-150","program":"sota","name":"Sugarloaf Mountain","coordinates":[-109.9322,45.5327]},{"code":"W7M/SF-155","program":"sota","name":"7706","coordinates":[-109.9545,45.5501]},{"code":"W7M/SF-160","program":"sota","name":"Ellis Mountain","coordinates":[-109.9497,45.5739]},{"code":"W7M/SF-162","program":"sota","name":"7540","coordinates":[-109.935,45.557]},{"code":"W7M/SF-177","program":"sota","name":"Evergreen Mountain","coordinates":[-109.9682,45.5998]},{"code":"W7M/SF-179","program":"sota","name":"Derby Mountain","coordinates":[-109.8802,45.5831]},{"code":"W7M/SF-183","program":"sota","name":"Iron Mountain","coordinates":[-109.9342,45.6101]},{"code":"W7M/SF-204","program":"sota","name":"Black Butte","coordinates":[-109.9952,45.6702]}]}