{"lat":45.5,"lon":1.5,"programs":["gma","pota","sota"],"count":6,"references":[{"code":"FA/MC-055","program":"gma","name":"Mont Gargan","coordinates":[1.64919996,45.62110138]},{"code":"FR-12015","program":"pota","name":"SERPENTINE DES PIERRES DU MAS (= DE LA PORCHERIE) Biological Reserve","coordinates":[1.532,45.571]},{"code":"FR-12016","program":"pota","name":"FORET DE MONTARD Biological Reserve","coordinates":[1.547,45.55]},{"code":"FR-12017","program":"pota","name":"ETANG DES GRAULES Biological Reserve","coordinates":[1.532,45.541]},{"code":"FR-12018","program":"pota","name":"BOIS ET ZONES HUMIDES DE LA GRENERIE Biological Reserve","coordinates":[1.541,45.522]},{"code":"F/MC-160","program":"sota","name":"Mont Gargan","coordinates":[1.6486,45.6194]}]}