{"lat":45.5,"lon":7,"programs":["gma","pota","sota"],"count":31,"references":[{"code":"IT/VA-1003","program":"gma","name":"Testa d  Arpy","coordinates":[7.01249981,45.74580002]},{"code":"IT/VA-1005","program":"gma","name":"Truc d'Arbe","coordinates":[7.1546998,45.68059921]},{"code":"XI/VA-026","program":"gma","name":"Punta Bianca","coordinates":[7.1669,45.5875]},{"code":"IT-0392","program":"pota","name":"Lago di Lolair Natura 2000","coordinates":[7.13611,45.6947]},{"code":"IT-0991","program":"pota","name":"Pont D'ael Natura 2000","coordinates":[7.22111,45.6817]},{"code":"IT-1197","program":"pota","name":"Ambienti Xerici del Mont Torretta - Bellon Natura 2000","coordinates":[7.23533,45.7225]},{"code":"IT-1201","program":"pota","name":"Ambienti calcarei d'alta quota della Valle di Rhêmes Natura 2000","coordinates":[7.07444,45.5094]},{"code":"IT-2018","program":"pota","name":"Ambienti d'alta quota della Valgrisenche Natura 2000","coordinates":[7.01389,45.5414]},{"code":"F/AB-027","program":"sota","name":"Aiguille de la Grande Sassière","coordinates":[7,45.505]},{"code":"I/PM-339","program":"sota","name":"Punta del Leynir","coordinates":[7.1369,45.5164]},{"code":"I/VA-010","program":"sota","name":"Grande Rousse Nord / Becca dell'Invergnan","coordinates":[7.08445,45.56363]},{"code":"I/VA-017","program":"sota","name":"Grande Traversière","coordinates":[7.0561,45.5228]},{"code":"I/VA-018","program":"sota","name":"Grand Nomenon","coordinates":[7.23671,45.61177]},{"code":"I/VA-020","program":"sota","name":"Testa del Rutor / Tête du Rutor","coordinates":[7.0146,45.63041]},{"code":"I/VA-024","program":"sota","name":"Pointe de l'Aouille","coordinates":[7.14795,45.52673]},{"code":"I/VA-025","program":"sota","name":"Monte Doravidi Nord","coordinates":[7.02328,45.64572]},{"code":"I/VA-027","program":"sota","name":"Punta di Bioula / Pointe de Bioula","coordinates":[7.17299,45.60311]},{"code":"I/VA-033","program":"sota","name":"Monte Roletta","coordinates":[7.16642,45.57253]},{"code":"I/VA-042","program":"sota","name":"Becca di Tos","coordinates":[7.10677,45.6299]},{"code":"I/VA-043","program":"sota","name":"Monte Paramont","coordinates":[7.02837,45.67149]},{"code":"I/VA-044","program":"sota","name":"Punta del Ran","coordinates":[7.17098,45.61471]},{"code":"I/VA-048","program":"sota","name":"Becca di Prè d'Amont","coordinates":[7.10714,45.60292]},{"code":"I/VA-051","program":"sota","name":"Becca di Tei","coordinates":[7.09494,45.58628]},{"code":"I/VA-052","program":"sota","name":"Monte Forciaz Ovest","coordinates":[7.06712,45.57557]},{"code":"I/VA-053","program":"sota","name":"Mont Favret","coordinates":[7.22922,45.62445]},{"code":"I/VA-075","program":"sota","name":"Mont Monchette / Mochette","coordinates":[7.01168,45.6864]},{"code":"I/VA-082","program":"sota","name":"Cima dell'Arollay / Pointe de la Roley","coordinates":[7.19088,45.50964]},{"code":"I/VA-101","program":"sota","name":"Becca Pouegnenta","coordinates":[7.01104,45.71709]},{"code":"I/VA-137","program":"sota","name":"Becca Tsambeina","coordinates":[7.13327,45.53695]},{"code":"I/VA-139","program":"sota","name":"Becca du Merlo","coordinates":[7.05731,45.68771]},{"code":"I/VA-147","program":"sota","name":"Truc Blanc Punta N","coordinates":[7.16724,45.58731]}]}