{"lat":45.5,"lon":-69.25,"programs":["sota"],"count":10,"references":[{"code":"W1/AM-005","program":"sota","name":"White Cap Mtn. First Roach Pond","coordinates":[-69.2458,45.5547]},{"code":"W1/AM-018","program":"sota","name":"Saddleback Mtn. B Pond","coordinates":[-69.1361,45.5094]},{"code":"W1/AM-028","program":"sota","name":"Jo-Mary Mtn.","coordinates":[-69.0619,45.6178]},{"code":"W1/AM-123","program":"sota","name":"Cedar Mtn. Jo-Mary Pond","coordinates":[-69.0272,45.5697]},{"code":"W1/AM-143","program":"sota","name":"Big Boardman Mtn.","coordinates":[-69.1967,45.6103]},{"code":"W1/AM-271","program":"sota","name":"Wadleigh Mtn.","coordinates":[-69.2019,45.7253]},{"code":"W1/AM-340","program":"sota","name":"Mud Gauntlet Falls HP","coordinates":[-69.0083,45.5556]},{"code":"W1/AM-360","program":"sota","name":"Cooper Mtn.","coordinates":[-69.1158,45.6525]},{"code":"W1/AM-370","program":"sota","name":"Little Spruce Mtn.","coordinates":[-69.2167,45.5372]},{"code":"W1/AM-387","program":"sota","name":"Female Mtn.","coordinates":[-69.2425,45.7428]}]}