{"lat":45.5,"lon":-76,"programs":["pota","sota","wwbota"],"count":6,"references":[{"code":"CA-0498","program":"pota","name":"Gatineau Conservation Park","coordinates":[-75.8119,45.5051]},{"code":"CA-4947","program":"pota","name":"Parc Nature Eco-Odyssee Regional Park","coordinates":[-75.8838,45.6395]},{"code":"VE2/OU-003","program":"sota","name":"Pic McKinstry","coordinates":[-75.9678,45.5572]},{"code":"B/CA-1250","program":"wwbota","name":"FRP QA1","coordinates":[-75.929054,45.63933903]},{"code":"B/CA-1565","program":"wwbota","name":"Despatcher Telephone and Telegraph: Low - Wakefield","coordinates":[-75.9410325,45.726196]},{"code":"B/CA-1566","program":"wwbota","name":"Despatcher Telephone and Telegraph: Wakefield - Hull West","coordinates":[-75.82997545,45.53201825]}]}