{"lat":45.5,"lon":-116.5,"programs":["pota","sota"],"count":14,"references":[{"code":"US-7829","program":"pota","name":"Slate Creek Airstrip State Recreation Area","coordinates":[-116.306,45.6718]},{"code":"US-11285","program":"pota","name":"Lucile Recreation Site BLM Recreation Management Area","coordinates":[-116.312,45.5358]},{"code":"US-11288","program":"pota","name":"Slate Creek Recreation Site BLM Recreation Management Area","coordinates":[-116.292,45.6461]},{"code":"US-11289","program":"pota","name":"Whitebird Recreation Site BLM Recreation Management Area","coordinates":[-116.313,45.7375]},{"code":"US-12289","program":"pota","name":"Old Lucile Recreation Site BLM Recreation Management Area","coordinates":[-116.306,45.5189]},{"code":"US-12290","program":"pota","name":"Skookumchuck Recreation Site BLM Recreation Management Area","coordinates":[-116.315,45.7034]},{"code":"US-12363","program":"pota","name":"Jackass Flats BLM Recreation Management Area","coordinates":[-116.298,45.5014]},{"code":"US-12364","program":"pota","name":"Blackhawk Bar BLM Recreation Management Area","coordinates":[-116.303,45.6262]},{"code":"W7I/IC-260","program":"sota","name":"Camp Howard Ridge","coordinates":[-116.4237,45.7095]},{"code":"W7I/IC-280","program":"sota","name":"5727","coordinates":[-116.4052,45.5573]},{"code":"W7I/IC-285","program":"sota","name":"Grave Point","coordinates":[-116.3807,45.6424]},{"code":"W7I/IC-301","program":"sota","name":"Center Ridge","coordinates":[-116.3532,45.6136]},{"code":"W7I/IC-314","program":"sota","name":"4921","coordinates":[-116.411,45.6439]},{"code":"W7I/IC-329","program":"sota","name":"2822","coordinates":[-116.2806,45.6247]}]}