{"lat":45.5,"lon":-114.25,"programs":["sota"],"count":14,"references":[{"code":"W7I/LE-124","program":"sota","name":"Allan Mountain","coordinates":[-114.0553,45.5949]},{"code":"W7I/LE-136","program":"sota","name":"9007","coordinates":[-114.0294,45.5989]},{"code":"W7I/LE-188","program":"sota","name":"7697","coordinates":[-114.1859,45.5462]},{"code":"W7I/LE-201","program":"sota","name":"6958","coordinates":[-114.0577,45.5002]},{"code":"W7I/LE-219","program":"sota","name":"8580","coordinates":[-114.2483,45.5458]},{"code":"W7I/LE-220","program":"sota","name":"8290","coordinates":[-114.1353,45.5578]},{"code":"W7M/RC-031","program":"sota","name":"Piquett Mountain","coordinates":[-114.1909,45.7318]},{"code":"W7M/RC-055","program":"sota","name":"Wiles Peak","coordinates":[-114.1596,45.7451]},{"code":"W7M/RC-084","program":"sota","name":"Rombo Mountain","coordinates":[-114.2011,45.7495]},{"code":"W7M/RC-096","program":"sota","name":"8139","coordinates":[-114.02,45.7235]},{"code":"W7M/RC-099","program":"sota","name":"Jew Mountain","coordinates":[-114.2239,45.6792]},{"code":"W7M/RC-101","program":"sota","name":"Falls Point","coordinates":[-114.0667,45.7002]},{"code":"W7M/RC-105","program":"sota","name":"East Quartzite Mountain","coordinates":[-114.1256,45.6361]},{"code":"W7M/RC-117","program":"sota","name":"7507","coordinates":[-114.084,45.7404]}]}