{"lat":45.5,"lon":22.5,"programs":["pota","sota"],"count":9,"references":[{"code":"RO-0910","program":"pota","name":"Pasul Poarta de Fier a Transilvaniei Historic Site","coordinates":[22.6689,45.5067]},{"code":"RO-0947","program":"pota","name":"Belvedere Poarta de Fier a Transilvaniei - Dealul Băuțar Natural Area","coordinates":[22.5913,45.5228]},{"code":"RO-0751","program":"pota","name":"Cheile Cernei Nature Reserve","coordinates":[22.656,45.6536]},{"code":"RO-0752","program":"pota","name":"Vârful Muncelu Natural Area","coordinates":[22.5971,45.7017]},{"code":"YO/WC-083","program":"sota","name":"Măgurii","coordinates":[22.6225,45.61]},{"code":"YO/WC-111","program":"sota","name":"Văratecu","coordinates":[22.6967,45.6358]},{"code":"YO/WC-136","program":"sota","name":"Milu","coordinates":[22.6975,45.5817]},{"code":"YO/WC-237","program":"sota","name":"Dealul Tâlfa","coordinates":[22.5208,45.6158]},{"code":"YO/WC-243","program":"sota","name":"Jubi","coordinates":[22.725,45.6725]}]}