{"lat":45.5,"lon":10.25,"programs":["pota","sota"],"count":19,"references":[{"code":"IT-0189","program":"pota","name":"Sorgente Funtanì Natura 2000","coordinates":[10.4942,45.6631]},{"code":"IT-0821","program":"pota","name":"Parco delle Colline di Brescia Other Conservation Area","coordinates":[10.2715,45.5505]},{"code":"IT-1254","program":"pota","name":"Monumento Naturale Buco del Frate Other Conservation Area","coordinates":[10.4129,45.5614]},{"code":"IT-1261","program":"pota","name":"Altopiano di Cariadeghe Natura 2000","coordinates":[10.3461,45.5947]},{"code":"I/LO-214","program":"sota","name":"Monte Palo","coordinates":[10.2958,45.7239]},{"code":"I/LO-228","program":"sota","name":"Corna di Caspai","coordinates":[10.2778,45.7285]},{"code":"I/LO-237","program":"sota","name":"Corna di Sonclino","coordinates":[10.2511,45.6783]},{"code":"I/LO-253","program":"sota","name":"Monte Doppo","coordinates":[10.3039,45.6344]},{"code":"I/LO-260","program":"sota","name":"Monte Ucia","coordinates":[10.3362,45.6004]},{"code":"I/LO-269","program":"sota","name":"Monte Gallo","coordinates":[10.4806,45.6954]},{"code":"I/LO-276","program":"sota","name":"Monte Dragoncello – Quota 1096","coordinates":[10.3276,45.587]},{"code":"I/LO-277","program":"sota","name":"Dosso Vallero","coordinates":[10.2599,45.6242]},{"code":"I/LO-290","program":"sota","name":"Selvapiana","coordinates":[10.4531,45.6199]},{"code":"I/LO-298","program":"sota","name":"Monte Maddalena","coordinates":[10.2859,45.5494]},{"code":"I/LO-300","program":"sota","name":"Monte Poffe","coordinates":[10.3881,45.6807]},{"code":"I/LO-437","program":"sota","name":"Monte Montecca","coordinates":[10.30175,45.59647]},{"code":"I/LO-443","program":"sota","name":"Monte Camprelle","coordinates":[10.3492,45.5364]},{"code":"I/LO-444","program":"sota","name":"Monte Covolo","coordinates":[10.4701,45.6002]},{"code":"I/LO-478","program":"sota","name":"Dosso Turmen","coordinates":[10.4447,45.7186]}]}