{"lat":45.5,"lon":6.75,"programs":["gma","pota","sota","wwbota"],"count":97,"references":[{"code":"FA/AB-013","program":"gma","name":"Les Rochers Noirs","coordinates":[6.78439999,45.69860077]},{"code":"IT/VA-1001","program":"gma","name":"Mt Chaz Dura","coordinates":[6.87779999,45.69940186]},{"code":"IT/VA-1020","program":"gma","name":"Cima Verney","coordinates":[6.87419987,45.69189835]},{"code":"IT/VA-1024","program":"gma","name":"Monte du Parc","coordinates":[6.95529985,45.72359848]},{"code":"FR-3910","program":"pota","name":"Hauts de Villaroger State Natural Reserve","coordinates":[6.86027,45.5607]},{"code":"FR-4652","program":"pota","name":"Combe Des Moulins Biological Reserve","coordinates":[6.90283,45.6528]},{"code":"FR-4653","program":"pota","name":"Ruisseau De L'Eglise Biological Reserve","coordinates":[6.77063,45.5886]},{"code":"FR-4654","program":"pota","name":"Rocher De La Grande Parei Biological Reserve","coordinates":[6.9102,45.5047]},{"code":"FR-14847","program":"pota","name":"Pelouses seches du Villaret et de la Rosiere Biological Reserve","coordinates":[6.755,45.623]},{"code":"FR-14848","program":"pota","name":"Vergers de la Chal Biological Reserve","coordinates":[6.756,45.589]},{"code":"FR-14849","program":"pota","name":"Marais de Bourg-Saint Maurice Biological Reserve","coordinates":[6.778,45.617]},{"code":"FR-14850","program":"pota","name":"Bois des Bocheres Biological Reserve","coordinates":[6.79,45.638]},{"code":"FR-14857","program":"pota","name":"Tourbiere des Crottes Biological Reserve","coordinates":[6.775,45.703]},{"code":"FR-14877","program":"pota","name":"Marais d’Arc 2000 Biological Reserve","coordinates":[6.834,45.571]},{"code":"FR-14878","program":"pota","name":"Plateau du Petit Saint Bernard et Lancebranlette Biological Reserve","coordinates":[6.886,45.668]},{"code":"FR-14879","program":"pota","name":"La Sassiere de Sainte Foy Biological Reserve","coordinates":[6.967,45.642]},{"code":"FR-14880","program":"pota","name":"Forets du Miroir et du Mousselard Biological Reserve","coordinates":[6.883,45.604]},{"code":"FR-14881","program":"pota","name":"Foret du Grand Follie Biological Reserve","coordinates":[6.93,45.599]},{"code":"FR-14882","program":"pota","name":"Vallon du Clou Biological Reserve","coordinates":[6.978,45.572]},{"code":"FR-14883","program":"pota","name":"Le Monal et Grand Bois Biological Reserve","coordinates":[6.9,45.567]},{"code":"FR-14884","program":"pota","name":"Forets de Malgovert et de Ronaz Biological Reserve","coordinates":[6.816,45.606]},{"code":"FR-14885","program":"pota","name":"Les Hauts de Villaroger Biological Reserve","coordinates":[6.856,45.588]},{"code":"FR-14886","program":"pota","name":"Rive gauche de l'Isere entre les Brevieres et la Gurraz Biological Reserve","coordinates":[6.903,45.517]},{"code":"FR-14887","program":"pota","name":"Bois de la Balme Biological Reserve","coordinates":[6.921,45.521]},{"code":"IT-0957","program":"pota","name":"Ambienti d'alta quota delle Combe Thuilette e Sozin Natura 2000","coordinates":[6.955,45.6761]},{"code":"F/AB-022","program":"sota","name":"Mont Pourri","coordinates":[6.8603,45.5281]},{"code":"F/AB-097","program":"sota","name":"Pointe d'Archeboc","coordinates":[6.9803,45.5832]},{"code":"F/AB-104","program":"sota","name":"Aiguille Rouge","coordinates":[6.8484,45.5518]},{"code":"F/AB-108","program":"sota","name":"Bec de l'Ane","coordinates":[6.9818,45.6146]},{"code":"F/AB-122","program":"sota","name":"Pointe Léchaud","coordinates":[6.8142,45.7336]},{"code":"F/AB-130","program":"sota","name":"Mont de Mirande (ou Mont Miravidi)","coordinates":[6.8218,45.7113]},{"code":"F/AB-136","program":"sota","name":"Pointe de l'Argentière","coordinates":[6.9614,45.5797]},{"code":"F/AB-140","program":"sota","name":"Pointe du Rocher Blanc (ou Bec de Percia)","coordinates":[6.9942,45.5658]},{"code":"F/AB-145","program":"sota","name":"Aiguilles de l'Ermite","coordinates":[6.8416,45.6995]},{"code":"F/AB-152","program":"sota","name":"Sommet des Rousses (Mont de Fourclaz)","coordinates":[6.8461,45.6906]},{"code":"F/AB-162","program":"sota","name":"Les Dents Rouges","coordinates":[6.9403,45.6481]},{"code":"F/AB-163","program":"sota","name":"Pointe de la Louïe Blanche","coordinates":[6.9146,45.6612]},{"code":"F/AB-167","program":"sota","name":"Les Grandes Aiguilles","coordinates":[6.7849,45.7056]},{"code":"F/AB-222","program":"sota","name":"Aiguille Grive","coordinates":[6.8042,45.5497]},{"code":"F/AB-239","program":"sota","name":"La Clavettaz","coordinates":[6.7617,45.6942]},{"code":"F/AB-588","program":"sota","name":"Grand Assaly ou Pointe du Petit","coordinates":[6.9703,45.6542]},{"code":"F/AB-595","program":"sota","name":"Pointe des Couloureuses","coordinates":[6.9012,45.6413]},{"code":"F/AB-597","program":"sota","name":"Pointe de la Roche Jaille","coordinates":[6.9039,45.6328]},{"code":"I/VA-064","program":"sota","name":"Mont Ouille","coordinates":[6.86835,45.72795]},{"code":"I/VA-074","program":"sota","name":"Mont Lussé","coordinates":[6.99443,45.68937]},{"code":"I/VA-076","program":"sota","name":"Mont Colmet","coordinates":[6.98856,45.6997]},{"code":"I/VA-093","program":"sota","name":"Mont Belleface-Pointe Nord","coordinates":[6.91848,45.74773]},{"code":"B/F-5565","program":"wwbota","name":"BELLEGARDE","coordinates":[6.762423,45.733739]},{"code":"B/F-5567","program":"wwbota","name":"SELOGES","coordinates":[6.766722,45.725432]},{"code":"B/F-5574","program":"wwbota","name":"La COMBE","coordinates":[6.841185,45.663027]},{"code":"B/F-5575","program":"wwbota","name":"REDOUTE RUINEE","coordinates":[6.873669,45.657546]},{"code":"B/F-5576","program":"wwbota","name":"CASERNE SARDE","coordinates":[6.878923,45.657327]},{"code":"B/F-5577","program":"wwbota","name":"EUCHERTS-REDOUTE RUINEE (Station haute)","coordinates":[6.874705,45.656828]},{"code":"B/F-5578","program":"wwbota","name":"Le GAC 2","coordinates":[6.871341,45.656656]},{"code":"B/F-5579","program":"wwbota","name":"Le GAC 1","coordinates":[6.871421,45.656578]},{"code":"B/F-5580","program":"wwbota","name":"Le GAC","coordinates":[6.869591,45.655563]},{"code":"B/F-5581","program":"wwbota","name":"PLAN GERBIER 1","coordinates":[6.843138,45.655125]},{"code":"B/F-5582","program":"wwbota","name":"PLAN GERBIER 2","coordinates":[6.848358,45.65492]},{"code":"B/F-5583","program":"wwbota","name":"PLAN GERBIER","coordinates":[6.847279,45.653146]},{"code":"B/F-5584","program":"wwbota","name":"PLAN GERBIER 3","coordinates":[6.847498,45.652648]},{"code":"B/F-5585","program":"wwbota","name":"COL des EMBRASURES","coordinates":[6.862018,45.648549]},{"code":"B/F-5586","program":"wwbota","name":"COL des EMBRASURES","coordinates":[6.86155,45.648184]},{"code":"B/F-5587","program":"wwbota","name":"ROC NOIR Est 2","coordinates":[6.862647,45.646779]},{"code":"B/F-5588","program":"wwbota","name":"ROC NOIR Est 1","coordinates":[6.862448,45.646647]},{"code":"B/F-5589","program":"wwbota","name":"COMBOTTIER","coordinates":[6.804381,45.645293]},{"code":"B/F-5591","program":"wwbota","name":"PLAN du REPOS 1","coordinates":[6.863945,45.636446]},{"code":"B/F-5592","program":"wwbota","name":"PLAN du REPOS","coordinates":[6.863961,45.635986]},{"code":"B/F-5593","program":"wwbota","name":"PLAN du REPOS 2","coordinates":[6.864288,45.635811]},{"code":"B/F-5594","program":"wwbota","name":"TOUR du CHATELARD","coordinates":[6.783017,45.628269]},{"code":"B/F-5595","program":"wwbota","name":"Sa-61 - VERSOYEN 1","coordinates":[6.785865,45.627369]},{"code":"B/F-5596","program":"wwbota","name":"CHATELARD 1","coordinates":[6.783151,45.626442]},{"code":"B/F-5597","program":"wwbota","name":"EUCHERTS-REDOUTE RUINEE (Station basse)","coordinates":[6.865667,45.626426]},{"code":"B/F-5598","program":"wwbota","name":"CHATELARD 2","coordinates":[6.783199,45.626348]},{"code":"B/F-5599","program":"wwbota","name":"CHATELARD","coordinates":[6.782728,45.625489]},{"code":"B/F-5600","program":"wwbota","name":"La BOURGEAT 1","coordinates":[6.77099,45.623629]},{"code":"B/F-5601","program":"wwbota","name":"Les GLIERES 3","coordinates":[6.786267,45.620483]},{"code":"B/F-5602","program":"wwbota","name":"Les GLIERES 1","coordinates":[6.781883,45.619483]},{"code":"B/F-5603","program":"wwbota","name":"Les GLIERES 4","coordinates":[6.783371,45.618925]},{"code":"B/F-5604","program":"wwbota","name":"Les GLIERES 2","coordinates":[6.783527,45.618579]},{"code":"B/F-5605","program":"wwbota","name":"Les RIVES","coordinates":[6.798878,45.617226]},{"code":"B/F-5606","program":"wwbota","name":"CAVE a CANON","coordinates":[6.785476,45.616716]},{"code":"B/F-5607","program":"wwbota","name":"Les EULETS","coordinates":[6.781771,45.615197]},{"code":"B/F-5608","program":"wwbota","name":"PONT des CHEVRES 2","coordinates":[6.808503,45.614445]},{"code":"B/F-5609","program":"wwbota","name":"LONGEFOY","coordinates":[6.815959,45.613578]},{"code":"B/F-5610","program":"wwbota","name":"LONGEFOY 1","coordinates":[6.827316,45.611505]},{"code":"B/F-5611","program":"wwbota","name":"MONTVALEZAN 1","coordinates":[6.838504,45.608407]},{"code":"B/F-5612","program":"wwbota","name":"La BONNEVILLE Ouest","coordinates":[6.848387,45.60569]},{"code":"B/F-5613","program":"wwbota","name":"MONTVALEZAN 2","coordinates":[6.836051,45.603363]},{"code":"B/F-5614","program":"wwbota","name":"La BONNEVILLE","coordinates":[6.855877,45.602424]},{"code":"B/F-5615","program":"wwbota","name":"Les TETES 2","coordinates":[6.830471,45.599101]},{"code":"B/F-5616","program":"wwbota","name":"Les TETES 3","coordinates":[6.829913,45.598861]},{"code":"B/F-5617","program":"wwbota","name":"Les TETES 1","coordinates":[6.830943,45.598621]},{"code":"B/F-5618","program":"wwbota","name":"PRE DERRIERE","coordinates":[6.86266,45.595748]},{"code":"B/F-5619","program":"wwbota","name":"CHATELET","coordinates":[6.870707,45.594624]},{"code":"B/F-5620","program":"wwbota","name":"VILLAROGER - HARICOT Sud 1","coordinates":[6.871503,45.590041]},{"code":"B/F-5621","program":"wwbota","name":"PLANAY","coordinates":[6.874691,45.585338]},{"code":"B/F-6496","program":"wwbota","name":"VV-VULMIX","coordinates":[6.754441,45.613372]}]}