{"lat":45.5,"lon":1.25,"programs":["pota"],"count":7,"references":[{"code":"FR-4234","program":"pota","name":"Pelouses et landes serpentinicoles du sud de la Haute Vienne Natura 2000","coordinates":[1.40361,45.5822]},{"code":"FR-12009","program":"pota","name":"LANDE DU RUISSEAU DE LA ROUBARDIE Biological Reserve","coordinates":[1.448,45.554]},{"code":"FR-12010","program":"pota","name":"TOURBIERE DU BOIS DES VERGNES (VALLEE DE L'AUVEZERE) Biological Reserve","coordinates":[1.477,45.576]},{"code":"FR-12011","program":"pota","name":"VALLEE DE L'AUVEZERE Biological Reserve","coordinates":[1.473,45.518]},{"code":"FR-12012","program":"pota","name":"SERPENTINE DE LA VILLEDIEU Biological Reserve","coordinates":[1.454,45.59]},{"code":"FR-12013","program":"pota","name":"SERPENTINE DE LA FLOTTE ET DU CLUZEAU Biological Reserve","coordinates":[1.395,45.588]},{"code":"FR-12014","program":"pota","name":"SERPENTINE DE LA RIBIERE Biological Reserve","coordinates":[1.405,45.605]}]}