{"lat":45.5,"lon":4.25,"programs":["pota","wwbota"],"count":23,"references":[{"code":"FR-14347","program":"pota","name":"Cret Saint Georges Biological Reserve","coordinates":[4.492,45.519]},{"code":"FR-14348","program":"pota","name":"CONTREFORTS MERIDIONAUX DES MONTS DU LYONNAIS Biological Reserve","coordinates":[4.425,45.524]},{"code":"FR-14349","program":"pota","name":"Bois de Monichard et Bois du Roi Biological Reserve","coordinates":[4.346,45.517]},{"code":"FR-14350","program":"pota","name":"Bocage de Lapra Biological Reserve","coordinates":[4.318,45.538]},{"code":"FR-14351","program":"pota","name":"Etang de Lapra Biological Reserve","coordinates":[4.313,45.532]},{"code":"FR-14352","program":"pota","name":"Bois de Pulchere et riviere Coise Biological Reserve","coordinates":[4.379,45.621]},{"code":"FR-14353","program":"pota","name":"Vallee de l’Anzieux Biological Reserve","coordinates":[4.32,45.648]},{"code":"FR-14354","program":"pota","name":"Bocage et paysages agricoles de Marcenod et Saint Christo-en-Jarez Biological Reserve","coordinates":[4.448,45.561]},{"code":"FR-14357","program":"pota","name":"Le Couzon Biological Reserve","coordinates":[4.449,45.571]},{"code":"FR-14358","program":"pota","name":"Ruisseau du Rosson Biological Reserve","coordinates":[4.459,45.597]},{"code":"FR-14490","program":"pota","name":"Bois de la Boudiniere Biological Reserve","coordinates":[4.298,45.589]},{"code":"FR-14492","program":"pota","name":"Etangs de Cuzieu et de Saint Galmier Biological Reserve","coordinates":[4.295,45.605]},{"code":"FR-14549","program":"pota","name":"Tunnel de Viricelles Biological Reserve","coordinates":[4.382,45.656]},{"code":"FR-14579","program":"pota","name":"Ruisseau d'Orjolle Biological Reserve","coordinates":[4.481,45.699]},{"code":"FR-14580","program":"pota","name":"Haute-Rivoire, zone de La Ronze Biological Reserve","coordinates":[4.389,45.696]},{"code":"FR-14581","program":"pota","name":"Haute-Rivoire, zone de La Bourrie Biological Reserve","coordinates":[4.399,45.718]},{"code":"FR-14595","program":"pota","name":"Etangs de la Cotonne Biological Reserve","coordinates":[4.273,45.732]},{"code":"FR-14596","program":"pota","name":"Etangs et bois du Montceau Flora and Fauna Reserve","coordinates":[4.288,45.728]},{"code":"FR-14598","program":"pota","name":"Etangs du Soleillant Biological Reserve","coordinates":[4.292,45.714]},{"code":"FR-14599","program":"pota","name":"Etangs de Sury Biological Reserve","coordinates":[4.282,45.698]},{"code":"FR-14600","program":"pota","name":"Etang la Batie Biological Reserve","coordinates":[4.26,45.692]},{"code":"FR-14614","program":"pota","name":"Riviere la Curraize Biological Reserve","coordinates":[4.41,45.542]},{"code":"B/S5-0376","program":"wwbota","name":"Milanja Topniška utrdba 9","coordinates":[4.31312,45.59397]}]}