{"lat":45.5,"lon":9.25,"programs":["pota","sota"],"count":13,"references":[{"code":"IT-0408","program":"pota","name":"Lago di Sartirana Natura 2000","coordinates":[9.42583,45.7156]},{"code":"IT-0635","program":"pota","name":"Parco Regionale di Montevecchia e della Valle del Curone Regional Park","coordinates":[9.36611,45.7144]},{"code":"IT-0750","program":"pota","name":"Parco Naturale dell'Adda Nord Provincial Park","coordinates":[9.4885,45.6527]},{"code":"IT-0751","program":"pota","name":"Parco Naturale della Valle del Lambro Provincial Park","coordinates":[9.26491,45.6694]},{"code":"IT-0776","program":"pota","name":"Parco Media Valle del Lambro Provincial Park","coordinates":[9.26133,45.5339]},{"code":"IT-0822","program":"pota","name":"P.L.I.S. Cascine di Pioltello Other Conservation Area","coordinates":[9.3121,45.5068]},{"code":"IT-0824","program":"pota","name":"P.L.I.S. Alto Martesana Other Conservation Area","coordinates":[9.4406,45.5125]},{"code":"IT-0836","program":"pota","name":"P.L.I.S. Rio Vallone Other Conservation Area","coordinates":[9.4412,45.5962]},{"code":"IT-0845","program":"pota","name":"P.L.I.S. del Molgora Other Conservation Area","coordinates":[9.37005,45.5916]},{"code":"IT-0869","program":"pota","name":"Parco Agricolo La Valletta Provincial Park","coordinates":[9.29398,45.7405]},{"code":"IT-1215","program":"pota","name":"Monumento Naturale Sasso di Guidino Provincial Park","coordinates":[9.29197,45.7008]},{"code":"I/LO-432","program":"sota","name":"Canto","coordinates":[9.4872,45.7222]},{"code":"I/LO-445","program":"sota","name":"Lissolo","coordinates":[9.3447,45.7356]}]}