{"lat":45.5,"lon":14.25,"programs":["gma","pota","sota","wwbota"],"count":69,"references":[{"code":"S5/BR-001","program":"gma","name":"Veliki SneÂžnik","coordinates":[14.44779968,45.58860016]},{"code":"S5/BR-002","program":"gma","name":"Travica","coordinates":[14.39669991,45.54999924]},{"code":"S5/BR-004","program":"gma","name":"Dedna gora","coordinates":[14.3781004,45.65779877]},{"code":"S5/BR-006","program":"gma","name":"ÂŠkodovnik","coordinates":[14.40110016,45.67580032]},{"code":"S5/BR-007","program":"gma","name":"Strgarija","coordinates":[14.35830021,45.64670181]},{"code":"S5/BR-008","program":"gma","name":"Lonica","coordinates":[14.27610016,45.72579956]},{"code":"S5/BR-011","program":"gma","name":"Debela gora","coordinates":[14.31579971,45.70470047]},{"code":"S5/BR-031","program":"gma","name":"Kruljcev vrh","coordinates":[14.37919998,45.5931015]},{"code":"S50/BR-101","program":"gma","name":"Javor","coordinates":[14.384167,45.611389]},{"code":"S50/BR-102","program":"gma","name":"Ulovka","coordinates":[14.327778,45.634167]},{"code":"HR-0205","program":"pota","name":"Gomance Natura 2000","coordinates":[14.4271,45.5019]},{"code":"SI-0127","program":"pota","name":"Mašunska učna pot Park","coordinates":[14.3704,45.6305]},{"code":"SI-0128","program":"pota","name":"GUP Sviščaki Nature Park","coordinates":[14.402,45.5745]},{"code":"SI-0206","program":"pota","name":"Graščinski kompleks Snežnik Natura 2000","coordinates":[14.4692,45.6829]},{"code":"SI-0346","program":"pota","name":"Grad Feistritz IL Bistrica Historic Site","coordinates":[14.2524,45.5669]},{"code":"SI-0347","program":"pota","name":"Izvir in slap Sušec Il.Bistrica Nature Monument","coordinates":[14.2536,45.5658]},{"code":"SI-0729","program":"pota","name":"Pot kurirjev in vezistov - odsek 86 / Racna gora-Stari trg pri Ložu Recreation Site","coordinates":[14.4705,45.7144]},{"code":"SI-0730","program":"pota","name":"Pot kurirjev in vezistov - odsek 87 / Stari Trg pri Ložu-Lož Recreation Site","coordinates":[14.4683,45.7242]},{"code":"SI-0794","program":"pota","name":"Pot kurirjev in vezistov - odsek 152 / Mašun-Veliki Snežnik Recreation Site","coordinates":[14.3661,45.6282]},{"code":"SI-0795","program":"pota","name":"Pot kurirjev in vezistov - odsek 153 / Veliki Snežnik-Planinski dom na Sviščakih Recreation Site","coordinates":[14.4474,45.5884]},{"code":"SI-0796","program":"pota","name":"Pot kurirjev in vezistov - odsek 154 / Veliki Snežnik-Planinski dom na Sviščakih Recreation Site","coordinates":[14.4009,45.5742]},{"code":"SI-0797","program":"pota","name":"Pot kurirjev in vezistov - odsek 155 / Planinski dom na Sviščakih-Planinska koča na Kozleku Recreation Site","coordinates":[14.3221,45.5447]},{"code":"SI-0798","program":"pota","name":"Pot kurirjev in vezistov - odsek 156 / Planinska koča na Kozleku-Ilirska Bistrica Recreation Site","coordinates":[14.3221,45.5447]},{"code":"SI-0987","program":"pota","name":"Snežnik-Pivka Natura 2000","coordinates":[14.3712,45.6271]},{"code":"SI-1167","program":"pota","name":"Mašun  krajinski park National Park","coordinates":[14.37,45.6339]},{"code":"S5/BR-001","program":"sota","name":"Veliki Snežnik","coordinates":[14.4478,45.5886]},{"code":"S5/BR-002","program":"sota","name":"Travica","coordinates":[14.3967,45.55]},{"code":"S5/BR-004","program":"sota","name":"Dedna gora","coordinates":[14.3781,45.6578]},{"code":"S5/BR-006","program":"sota","name":"Škodovnik","coordinates":[14.4011,45.6758]},{"code":"S5/BR-007","program":"sota","name":"Strgarija","coordinates":[14.3583,45.6467]},{"code":"S5/BR-008","program":"sota","name":"Lonica","coordinates":[14.2761,45.7258]},{"code":"S5/BR-011","program":"sota","name":"Debela gora","coordinates":[14.3169,45.705]},{"code":"S5/BR-031","program":"sota","name":"Kruljčev vrh","coordinates":[14.3792,45.5931]},{"code":"S5/RG-054","program":"sota","name":"Križna gora","coordinates":[14.4583,45.7417]},{"code":"B/S5-0377","program":"wwbota","name":"Milanja Mala utrdba 8","coordinates":[14.31535,45.59032]},{"code":"B/S5-0378","program":"wwbota","name":"Milanja Mala utrdba 7","coordinates":[14.31667,45.58736]},{"code":"B/S5-0379","program":"wwbota","name":"Milanja Mala utrdba 6","coordinates":[14.31722,45.58495]},{"code":"B/S5-0380","program":"wwbota","name":"Milanja Mala utrdba 5","coordinates":[14.31976,45.58106]},{"code":"B/S5-0381","program":"wwbota","name":"Milanja Mala utrdba 4","coordinates":[14.32045,45.57624]},{"code":"B/S5-0382","program":"wwbota","name":"Milanja Srednja utrdba 3","coordinates":[14.32554,45.56855]},{"code":"B/S5-0383","program":"wwbota","name":"Milanja vojašnica utrdba - utrdba,bunker,utrjeni položaji","coordinates":[14.32523,45.56911]},{"code":"B/S5-0384","program":"wwbota","name":"Milanja Mala utrdba 2","coordinates":[14.32569,45.56671]},{"code":"B/S5-0385","program":"wwbota","name":"Milanja Srednja utrdba 1","coordinates":[14.32393,45.56412]},{"code":"B/S5-0386","program":"wwbota","name":"Snežnik zaklonišče 2-426 - bunker zaklonišče utrdba","coordinates":[14.40445,45.50653]},{"code":"B/S5-0429","program":"wwbota","name":"Otoška dolina Paličje Mala utrdba 2","coordinates":[14.35602,45.71239]},{"code":"B/S5-0430","program":"wwbota","name":"Otoška dolina Paličje Protitankovski utrjen položaj","coordinates":[14.35619,45.71271]},{"code":"B/S5-0431","program":"wwbota","name":"Otoška dolina Paličje Srednja utrdba 1","coordinates":[14.35725,45.71126]},{"code":"B/S5-0432","program":"wwbota","name":"Lome Mala utrdba 2","coordinates":[14.38286,45.69925]},{"code":"B/S5-0433","program":"wwbota","name":"Lome Mala utrdba 1","coordinates":[14.37929,45.70016]},{"code":"B/S5-0434","program":"wwbota","name":"Lome Srednja utrdba 1","coordinates":[14.381,45.70085]},{"code":"B/S5-0435","program":"wwbota","name":"Obramec Velika utrdba 2","coordinates":[14.43009,45.64643]},{"code":"B/S5-0436","program":"wwbota","name":"Obramec Velika utrdba 1","coordinates":[14.4294,45.64686]},{"code":"B/S5-0437","program":"wwbota","name":"Obramec utrjena vojašnica -utrdba,bunker","coordinates":[14.4167,45.64435]},{"code":"B/S5-0438","program":"wwbota","name":"Obramec  Protitankovski utrjen položaj","coordinates":[14.42956,45.64614]},{"code":"B/S5-0439","program":"wwbota","name":"Kalvarija Mala utrdba 1","coordinates":[14.44588,45.62502]},{"code":"B/S5-0440","program":"wwbota","name":"Kalvarija Velika utrdba 2","coordinates":[14.44578,45.62391]},{"code":"B/S5-0441","program":"wwbota","name":"Kalvarija utrjena vojašnica -utrdba,bunker","coordinates":[14.44521,45.62372]},{"code":"B/S5-0442","program":"wwbota","name":"Kozarišče utrjena vojašnica -utrdba,bunker","coordinates":[14.44114,45.62096]},{"code":"B/S5-0443","program":"wwbota","name":"Snežnik vrh utrjena opazovalnica - bunker,utrdba","coordinates":[14.4475,45.58852]},{"code":"B/S5-0444","program":"wwbota","name":"Mezelišče Srednja utrdba 2 -utrdba,bunker","coordinates":[14.48338,45.59286]},{"code":"B/S5-0445","program":"wwbota","name":"Mezelišče Srednja utrdba 1 -utrdba,bunker","coordinates":[14.48335,45.59214]},{"code":"B/S5-0446","program":"wwbota","name":"Mezelišče  utrjena vojašnica -utrdba,bunker","coordinates":[14.48263,45.59235]},{"code":"B/S5-0447","program":"wwbota","name":"Snežnik zaklonišče ID 497 bunker zaklonišče utrdba","coordinates":[14.48501,45.53744]},{"code":"B/S5-0448","program":"wwbota","name":"Mirin Velika utrdba 1 -utrdba,bunker","coordinates":[14.46381,45.54213]},{"code":"B/S5-0449","program":"wwbota","name":"Mirin Mala utrdba 2 -utrdba,bunker","coordinates":[14.4628,45.54117]},{"code":"B/S5-0450","program":"wwbota","name":"Mirin utrjena vojašnica -utrdba,bunker","coordinates":[14.46234,45.54144]},{"code":"B/S5-0451","program":"wwbota","name":"Gomance Velika utrdba 1 -utrdba,bunker","coordinates":[14.43748,45.51329]},{"code":"B/S5-0452","program":"wwbota","name":"Gomance utrjena vojašnica bunker  -utrdba,bunker","coordinates":[14.41557,45.50989]},{"code":"B/S5-0453","program":"wwbota","name":"Zabiče zaklonišče id 422 -utrdba,bunker","coordinates":[14.41557,45.5099]}]}