{"lat":45.5,"lon":12.5,"programs":["pota","wwbota"],"count":6,"references":[{"code":"IT-0559","program":"pota","name":"Bosco di Lison Natura 2000","coordinates":[12.7428,45.7478]},{"code":"IT-1592","program":"pota","name":"Bosco di Cessalto Natura 2000","coordinates":[12.6196,45.6988]},{"code":"B/IT-0137","program":"wwbota","name":"Bunker (Veneto)","coordinates":[12.71811,45.53182]},{"code":"B/IT-0138","program":"wwbota","name":"Bunker (Toscanini / Veneto)","coordinates":[12.64111,45.53749]},{"code":"B/IT-0139","program":"wwbota","name":"Bunker (Scuola  / Veneto)","coordinates":[12.63777,45.54043]},{"code":"B/IT-0295","program":"wwbota","name":"Bunker - Base ALDEBARAN Chiarano - (TV)","coordinates":[12.59372,45.74342]}]}