{"lat":45.5,"lon":9,"programs":["pota"],"count":9,"references":[{"code":"IT-0488","program":"pota","name":"Fontana del Guercio Natura 2000","coordinates":[9.197,45.724]},{"code":"IT-0617","program":"pota","name":"Parco Locale della Brughiera Briantea Other Conservation Area","coordinates":[9.14835,45.6837]},{"code":"IT-0725","program":"pota","name":"Parco Naturale Nord Milano Provincial Park","coordinates":[9.18395,45.5274]},{"code":"IT-0769","program":"pota","name":"Parco Naturale del Bosco delle Querce Provincial Park","coordinates":[9.15257,45.6475]},{"code":"IT-0792","program":"pota","name":"Parco Grugnotorto Villoresi Other Conservation Area","coordinates":[9.19236,45.5731]},{"code":"IT-0819","program":"pota","name":"Boschi delle Groane Natura 2000","coordinates":[9.115,45.6444]},{"code":"IT-0832","program":"pota","name":"P.L.I.S. della Balossa Other Conservation Area","coordinates":[9.152,45.5422]},{"code":"IT-0847","program":"pota","name":"Parco del Lura Provincial Park","coordinates":[9.0499,45.7111]},{"code":"IT-0897","program":"pota","name":"Oasi LIPU Cesano Maderno Wildlife Area","coordinates":[9.13272,45.6228]}]}