{"lat":45.5,"lon":11.25,"programs":["pota","sota","wwbota"],"count":11,"references":[{"code":"IT-1147","program":"pota","name":"Buso della Rana Natura 2000","coordinates":[11.361,45.6504]},{"code":"IT-1333","program":"pota","name":"Biotopo Le Poscole Natura 2000","coordinates":[11.385,45.6114]},{"code":"IT-1680","program":"pota","name":"Torrente Valdiezza Natura 2000","coordinates":[11.4451,45.5569]},{"code":"I/VE-249","program":"sota","name":"Monte Enna","coordinates":[11.2966,45.7374]},{"code":"I/VE-250","program":"sota","name":"Monte Civillina","coordinates":[11.2764,45.6994]},{"code":"I/VE-251","program":"sota","name":"Monte Scandolara","coordinates":[11.2892,45.6898]},{"code":"I/VE-254","program":"sota","name":"Monte Cengio","coordinates":[11.2925,45.7064]},{"code":"I/VE-259","program":"sota","name":"Monte Calvarina","coordinates":[11.281,45.5091]},{"code":"I/VE-260","program":"sota","name":"Monte Naro","coordinates":[11.3042,45.7066]},{"code":"I/VE-265","program":"sota","name":"Monte Pulgo","coordinates":[11.3848,45.6266]},{"code":"B/IT-0269","program":"wwbota","name":"Bunker (EX 67º Gruppo intercettori teleguidati MONTE CALVARINA -Ronca' )","coordinates":[11.28129,45.50932]}]}