{"lat":45.5,"lon":8.75,"programs":["pota"],"count":10,"references":[{"code":"IT-0356","program":"pota","name":"Bosco di Vanzago Natura 2000","coordinates":[8.97222,45.5192]},{"code":"IT-0616","program":"pota","name":"P.L.I.S. Mughetti Other Conservation Area","coordinates":[8.97926,45.6047]},{"code":"IT-0622","program":"pota","name":"P.L.I.S. Rile Tenore Olona Other Conservation Area","coordinates":[8.84932,45.7322]},{"code":"IT-0753","program":"pota","name":"Parco Naturale della Pineta di Appiano Gentile e Tradate Nature Park","coordinates":[8.93865,45.7347]},{"code":"IT-0815","program":"pota","name":"Parco delle Roggie Other Conservation Area","coordinates":[8.82814,45.5645]},{"code":"IT-0835","program":"pota","name":"P.L.I.S. del Roccolo Other Conservation Area","coordinates":[8.9197,45.5339]},{"code":"IT-0846","program":"pota","name":"Parco del Medio Olona Other Conservation Area","coordinates":[8.88056,45.6757]},{"code":"IT-0861","program":"pota","name":"P.L.I.S. dei Mulini Other Conservation Area","coordinates":[8.94939,45.5707]},{"code":"IT-0865","program":"pota","name":"P.L.I.S. Bosco del Rugareto Other Conservation Area","coordinates":[8.94433,45.6436]},{"code":"IT-0867","program":"pota","name":"Parco Alto Milanese Other Conservation Area","coordinates":[8.87326,45.5869]}]}