{"lat":45.75,"lon":10.5,"programs":["gma","pota","sota"],"count":32,"references":[{"code":"IT/LO-1015","program":"gma","name":"Monte Tombea","coordinates":[10.62720013,45.80609894]},{"code":"IT-0638","program":"pota","name":"Alto Garda Bresciano Natura 2000","coordinates":[10.656,45.76]},{"code":"IT-1224","program":"pota","name":"Monumento Naturale Regionale del Masso di arenaria rossa del Permico Provincial Park","coordinates":[10.5042,45.7987]},{"code":"IT-0244","program":"pota","name":"Lago d'Ampola Natura 2000","coordinates":[10.6539,45.8711]},{"code":"IT-1320","program":"pota","name":"Palu' di Boniprati Natura 2000","coordinates":[10.6027,45.9329]},{"code":"IT-1337","program":"pota","name":"Lago d'Idro Natura 2000","coordinates":[10.535,45.8078]},{"code":"IT-1753","program":"pota","name":"Monti Tremalzo e Tombea Natura 2000","coordinates":[10.6456,45.8483]},{"code":"IT-1754","program":"pota","name":"Bocca di Caset Natura 2000","coordinates":[10.69,45.8569]},{"code":"IT-1756","program":"pota","name":"Alpe di Storo e Bondone Natura 2000","coordinates":[10.6058,45.8144]},{"code":"IT-1868","program":"pota","name":"Condino Natura 2000","coordinates":[10.6025,45.8975]},{"code":"IT-2097","program":"pota","name":"Monte Rema' - Clevet Natura 2000","coordinates":[10.5258,45.935]},{"code":"I/LO-201","program":"sota","name":"Cima delle Sclape","coordinates":[10.7166,45.8224]},{"code":"I/LO-225","program":"sota","name":"Cima Gusaur","coordinates":[10.6283,45.7656]},{"code":"I/LO-321","program":"sota","name":"Monte Caplone / Cima delle Guardie","coordinates":[10.6413,45.8022]},{"code":"I/LO-423","program":"sota","name":"Monte Nai","coordinates":[10.7353,45.7762]},{"code":"I/TN-082","program":"sota","name":"Monte Corona","coordinates":[10.5881,45.9987]},{"code":"I/TN-113","program":"sota","name":"Monte Cadria","coordinates":[10.6983,45.9385]},{"code":"I/TN-116","program":"sota","name":"Monte Lavanech","coordinates":[10.5433,45.9511]},{"code":"I/TN-118","program":"sota","name":"Cingolo Rosso","coordinates":[10.5337,45.9247]},{"code":"I/TN-120","program":"sota","name":"La Roda","coordinates":[10.7104,45.954]},{"code":"I/TN-125","program":"sota","name":"Monte Altissimo","coordinates":[10.748,45.9877]},{"code":"I/TN-137","program":"sota","name":"Monte Tremalzo","coordinates":[10.6994,45.8418]},{"code":"I/TN-140","program":"sota","name":"Corno della Marogna","coordinates":[10.7069,45.8365]},{"code":"I/TN-144","program":"sota","name":"Cima Avez","coordinates":[10.6539,45.8328]},{"code":"I/TN-145","program":"sota","name":"Dos di Laven","coordinates":[10.5596,45.8954]},{"code":"I/TN-153","program":"sota","name":"Cima Spessa","coordinates":[10.5904,45.8213]},{"code":"I/TN-157","program":"sota","name":"Monte Corno – Quota 1776","coordinates":[10.7038,45.8688]},{"code":"I/TN-161","program":"sota","name":"Monte Stigolo","coordinates":[10.6109,45.8657]},{"code":"I/TN-162","program":"sota","name":"Monte Cingla","coordinates":[10.5675,45.7858]},{"code":"I/TN-165","program":"sota","name":"Cima Palone","coordinates":[10.6517,45.9113]},{"code":"I/TN-186","program":"sota","name":"Monte Melino","coordinates":[10.607,45.9264]},{"code":"I/TN-191","program":"sota","name":"Monte Gaiola","coordinates":[10.6829,45.9979]}]}