{"lat":45.75,"lon":28,"programs":["pota"],"count":6,"references":[{"code":"MD-0035","program":"pota","name":"Zona umedă Lacurile Prutului de jos (Lower Prut Lakes Ramsar Wetlands) Ramsar Site","coordinates":[28.1805,45.8522]},{"code":"MD-0112","program":"pota","name":"Parcul central Grigore Vieru Park","coordinates":[28.1886,45.9024]},{"code":"MD-0113","program":"pota","name":"Parcul Veteranilor Park","coordinates":[28.2088,45.894]},{"code":"RO-1011","program":"pota","name":"Pădurea Pogănești Protected Area","coordinates":[28.0195,45.9797]},{"code":"RO-1013","program":"pota","name":"Balta Vlădești State Fish and Wildlife Area","coordinates":[28.1047,45.8444]},{"code":"RO-1014","program":"pota","name":"Balta Sovarca State Fish and Wildlife Area","coordinates":[28.1065,45.9426]}]}