{"lat":45.75,"lon":7.75,"programs":["gma","pota","sota"],"count":39,"references":[{"code":"HB9/VS-1007","program":"gma","name":"Stockhorn","coordinates":[7.83780003,45.98559952]},{"code":"IT/PM-1006","program":"gma","name":"Faderhorn / Monte Croce","coordinates":[7.94943,45.98337]},{"code":"IT/PM-1088","program":"gma","name":"Punta Gnifetti","coordinates":[7.8769002,45.92720032]},{"code":"IT/VA-1011","program":"gma","name":"Corno del Camoscio","coordinates":[7.86639977,45.87779999]},{"code":"IT/VA-1012","program":"gma","name":"Stlolemberg","coordinates":[7.86560011,45.87919998]},{"code":"IT-0746","program":"pota","name":"Alta Val Sesia Natura 2000","coordinates":[7.8989,45.8964]},{"code":"IT-2012","program":"pota","name":"Alta Valsesia e Valli Otro, Vogna, Gronda, Artogna e Sorba Natura 2000","coordinates":[7.96925,45.7648]},{"code":"IT-2015","program":"pota","name":"Monte Rosa Natura 2000","coordinates":[7.94686,45.9379]},{"code":"IT-1199","program":"pota","name":"Ambienti Glaciali del Gruppo del Monte Rosa Natura 2000","coordinates":[7.7928,45.9011]},{"code":"HB/VS-001","program":"sota","name":"Dufourspitze/​Pointe Dufour/​Punta Dufour","coordinates":[7.8668,45.9369]},{"code":"HB/VS-003","program":"sota","name":"Liskamm Ostgipfel","coordinates":[7.8356,45.9225]},{"code":"HB/VS-011","program":"sota","name":"Castor/​Punta Castore","coordinates":[7.7932,45.9208]},{"code":"HB/VS-021","program":"sota","name":"Pollux/​Punta Polluce","coordinates":[7.7853,45.9278]},{"code":"HB/VS-048","program":"sota","name":"Cima di Jazzi","coordinates":[7.8945,45.9809]},{"code":"HB/VS-173","program":"sota","name":"Joderhorn","coordinates":[7.9891,45.9959]},{"code":"HB/VS-191","program":"sota","name":"Riffelhorn","coordinates":[7.7588,45.9814]},{"code":"I/PM-012","program":"sota","name":"Corno Bianco","coordinates":[7.879,45.8226]},{"code":"I/PM-036","program":"sota","name":"Corno Piglinò","coordinates":[7.9613,45.8975]},{"code":"I/PM-044","program":"sota","name":"Frate della Meia","coordinates":[7.9241,45.759]},{"code":"I/PM-046","program":"sota","name":"Corno Mud","coordinates":[7.9634,45.8843]},{"code":"I/PM-052","program":"sota","name":"Pizzo Montevecchio","coordinates":[7.9994,45.9129]},{"code":"I/PM-073","program":"sota","name":"Cima Carnera","coordinates":[7.9699,45.855]},{"code":"I/PM-089","program":"sota","name":"Monte Palanca","coordinates":[7.9334,45.7924]},{"code":"I/PM-112","program":"sota","name":"Corno d'Olen","coordinates":[7.9111,45.8745]},{"code":"I/PM-113","program":"sota","name":"Corno Rosso","coordinates":[7.9628,45.782]},{"code":"I/PM-118","program":"sota","name":"Cima delle Croci","coordinates":[7.9911,45.8424]},{"code":"I/PM-486","program":"sota","name":"Punta Grober o delle Locce","coordinates":[7.9236,45.9212]},{"code":"I/PM-532","program":"sota","name":"Pizzo Bianco","coordinates":[7.9398,45.9371]},{"code":"I/PM-634","program":"sota","name":"Monte Tagliaferro","coordinates":[7.9702,45.8724]},{"code":"I/VA-039","program":"sota","name":"Testa Grigia / Tête Grise","coordinates":[7.78661,45.83079]},{"code":"I/VA-060","program":"sota","name":"Punta Straling","coordinates":[7.87382,45.85375]},{"code":"I/VA-062","program":"sota","name":"Punta di Rissuolo","coordinates":[7.8636,45.81255]},{"code":"I/VA-073","program":"sota","name":"Corno Vitello / Chalberhòre","coordinates":[7.78845,45.80447]},{"code":"I/VA-084","program":"sota","name":"Cresta Rossa","coordinates":[7.8661,45.80202]},{"code":"I/VA-085","program":"sota","name":"Corno Rosso / Ròthòre","coordinates":[7.88052,45.76707]},{"code":"I/VA-087","program":"sota","name":"Monte Bettaforca","coordinates":[7.77991,45.86402]},{"code":"I/VA-109","program":"sota","name":"Mont Ciosé Nord","coordinates":[7.79381,45.77004]},{"code":"I/VA-115","program":"sota","name":"Corno del Lago Gabiet","coordinates":[7.84373,45.85048]},{"code":"I/VA-144","program":"sota","name":"Monte Sarezza","coordinates":[7.76319,45.83974]}]}