{"lat":45.75,"lon":-67.75,"programs":["pota"],"count":13,"references":[{"code":"CA-4385","program":"pota","name":"Dead Creek Protected Area","coordinates":[-67.6083,45.8916]},{"code":"CA-4391","program":"pota","name":"Eel River Protected Area","coordinates":[-67.655,45.8933]},{"code":"CA-4395","program":"pota","name":"First Eel Lake Protected Area","coordinates":[-67.6533,45.86]},{"code":"CA-4411","program":"pota","name":"Hay Brook Protected Area","coordinates":[-67.7125,45.8512]},{"code":"CA-4439","program":"pota","name":"Maxwell Protected Area","coordinates":[-67.675,45.94]},{"code":"CA-4474","program":"pota","name":"Oak Mountain Protected Natural Area","coordinates":[-67.664,45.98]},{"code":"CA-4486","program":"pota","name":"Pocowogamis Stream Protected Area","coordinates":[-67.67,45.88]},{"code":"CA-4500","program":"pota","name":"Risteen Brook Protected Area","coordinates":[-67.52,45.91]},{"code":"CA-4511","program":"pota","name":"Skiff Lake Protected Area","coordinates":[-67.517,45.812]},{"code":"CA-4527","program":"pota","name":"Tamarack Brook Protected Area","coordinates":[-67.695,45.85]},{"code":"CA-6103","program":"pota","name":"North Lake Provincial Park","coordinates":[-67.7301,45.8276]},{"code":"CA-6246","program":"pota","name":"St. David's Presbyterian Church Historic Site","coordinates":[-67.7148,45.9682]},{"code":"CA-6465","program":"pota","name":"Shrine to Saint Francis of Assisi Historic Site","coordinates":[-67.5249,45.8572]}]}