{"lat":45.75,"lon":3,"programs":["pota","sota"],"count":39,"references":[{"code":"FR-4089","program":"pota","name":"Marais sale de saint beauzire Natura 2000","coordinates":[3.16306,45.8511]},{"code":"FR-9865","program":"pota","name":"ENVIRONS DE SAINT MYON ET BEAUREGARD Biological Reserve","coordinates":[3.13537,45.9706]},{"code":"FR-9866","program":"pota","name":"VALLEE DE LA MORGE Biological Reserve","coordinates":[3.1069,45.9782]},{"code":"FR-9867","program":"pota","name":"PUY DE LOULE Biological Reserve","coordinates":[3.11478,45.9813]},{"code":"FR-9868","program":"pota","name":"LA GRANDE FONTAINE Biological Reserve","coordinates":[3.22647,45.968]},{"code":"FR-9869","program":"pota","name":"ENVIRONS DE THURET Biological Reserve","coordinates":[3.23511,45.9479]},{"code":"FR-9873","program":"pota","name":"CHAPPE Biological Reserve","coordinates":[3.23606,45.8597]},{"code":"FR-9874","program":"pota","name":"LE SELAIN-HAUT Biological Reserve","coordinates":[3.20304,45.8796]},{"code":"FR-9875","program":"pota","name":"MARAIS DE SAINT-BEAUZIRE Biological Reserve","coordinates":[3.15898,45.8527]},{"code":"FR-9876","program":"pota","name":"MARAIS DE FOSSEVELLE Biological Reserve","coordinates":[3.14658,45.8447]},{"code":"FR-9877","program":"pota","name":"MAS D'ARGNAT Biological Reserve","coordinates":[3.02068,45.8433]},{"code":"FR-9878","program":"pota","name":"LES MOULINS BLANCS Biological Reserve","coordinates":[3.06829,45.8848]},{"code":"FR-9879","program":"pota","name":"CHEYRES DE BRUVALEIX Biological Reserve","coordinates":[3.01811,45.8775]},{"code":"FR-9880","program":"pota","name":"GORGES D'ENVAL Biological Reserve","coordinates":[3.03483,45.894]},{"code":"FR-9881","program":"pota","name":"VALLEE DES PRADES VALLEE DU SANS-SOUCI Biological Reserve","coordinates":[3.04075,45.9216]},{"code":"FR-9882","program":"pota","name":"ENVIRONS DE CHAZERON Biological Reserve","coordinates":[3.03631,45.9241]},{"code":"FR-9883","program":"pota","name":"PUY DE THE Biological Reserve","coordinates":[3.07699,45.938]},{"code":"FR-9884","program":"pota","name":"FORET DE GIMEAUX Biological Reserve","coordinates":[3.10268,45.943]},{"code":"FR-9885","program":"pota","name":"MARE DE DAVAYAT Biological Reserve","coordinates":[3.11502,45.9491]},{"code":"FR-9886","program":"pota","name":"SOURCES MINERALES DE GIMEAUX Biological Reserve","coordinates":[3.09169,45.9495]},{"code":"FR-9887","program":"pota","name":"PUY DE MONTAURY Biological Reserve","coordinates":[3.08478,45.9577]},{"code":"FR-9888","program":"pota","name":"VALLON DES FOURNEAUX Biological Reserve","coordinates":[3.06968,45.9486]},{"code":"FR-9892","program":"pota","name":"BOIS DE ROUCHEYROUX Biological Reserve","coordinates":[3.06346,45.9782]},{"code":"FR-9893","program":"pota","name":"BUTTE BARBET Biological Reserve","coordinates":[3.0877,45.9739]},{"code":"FR-9903","program":"pota","name":"Faille bordiere ouest du rift oligo-miocene de Limagne Conservation Area","coordinates":[3.041,45.93]},{"code":"FR-9904","program":"pota","name":"Maar du Gour de Tazenat Biological Reserve","coordinates":[3,45.981]},{"code":"FR-10972","program":"pota","name":"COTEAUX DE VILLARS Biological Reserve","coordinates":[3.03908,45.7743]},{"code":"FR-10973","program":"pota","name":"PUY DE MONTAUDOUX Biological Reserve","coordinates":[3.06847,45.7591]},{"code":"FR-10977","program":"pota","name":"VERSANTS ET PLATEAU DE CHATEAUGAY Biological Reserve","coordinates":[3.08917,45.8644]},{"code":"FR-10978","program":"pota","name":"PUY DE VAR-LE-CAIRE Biological Reserve","coordinates":[3.0908,45.8124]},{"code":"FR-10979","program":"pota","name":"PUY DE CROUEL Biological Reserve","coordinates":[3.13576,45.7726]},{"code":"FR-10980","program":"pota","name":"LES CAQUES Biological Reserve","coordinates":[3.21262,45.7616]},{"code":"FR-10981","program":"pota","name":"PUY LONG - D'ANZELLE ET DE BANE Biological Reserve","coordinates":[3.17912,45.7542]},{"code":"FR-10991","program":"pota","name":"Sediments bitumineux de la Mine des Rois Conservation Area","coordinates":[3.22,45.77]},{"code":"FR-10992","program":"pota","name":"Complexe volcanique de Gergovie Conservation Area","coordinates":[3.12,45.75]},{"code":"FR-10993","program":"pota","name":"Volcan peperitique du Puy de Crouel Conservation Area","coordinates":[3.14,45.77]},{"code":"FR-11097","program":"pota","name":"Puy D'Anzelles Et Plateau Des Vaugondieres Biological Reserve","coordinates":[3.17448,45.756]},{"code":"FR-14780","program":"pota","name":"Parc de Montjuzet Recreation Park","coordinates":[3.074,45.789]},{"code":"F/MC-189","program":"sota","name":"Puy de Bane","coordinates":[3.1952,45.754]}]}