{"lat":45.75,"lon":-64,"programs":["pota","wwbota"],"count":6,"references":[{"code":"CA-0449","program":"pota","name":"Amherst Shore Provincial Park","coordinates":[-63.8795,45.9594]},{"code":"CA-0917","program":"pota","name":"Heather Beach Provincial Park","coordinates":[-63.7536,45.875]},{"code":"CA-0948","program":"pota","name":"Shinimicas Provincial Park","coordinates":[-63.9097,45.8719]},{"code":"CA-1810","program":"pota","name":"Northport Beach Provincial Park","coordinates":[-63.8441,45.9269]},{"code":"CA-6180","program":"pota","name":"Coldspring Head Lighthouse National Heritage Site","coordinates":[-63.8646,45.9623]},{"code":"B/CA-0922","program":"wwbota","name":"Radio: Oxford-Pugwash","coordinates":[-63.7637755,45.7935188]}]}