{"lat":45.75,"lon":14.25,"programs":["gma","pota","sota","wwbota"],"count":47,"references":[{"code":"S5/BR-005","program":"gma","name":"Veliki Javornik","coordinates":[14.29500008,45.7580986]},{"code":"S5/TK-030","program":"gma","name":"Raskovec","coordinates":[14.2572,45.9381]},{"code":"S50/RG-103","program":"gma","name":"Planina","coordinates":[14.384167,45.918889]},{"code":"S50/RG-106","program":"gma","name":"Smrekovec","coordinates":[14.42189,45.90447]},{"code":"S50/TK-103","program":"gma","name":"Raskovec","coordinates":[14.257222,45.938056]},{"code":"SI-0006","program":"pota","name":"NOTRANJSKA Regional Park","coordinates":[14.3623,45.803]},{"code":"SI-0030","program":"pota","name":"RAKOV ŠKOCJAN Landscape Park","coordinates":[14.2964,45.7906]},{"code":"SI-0096","program":"pota","name":"Rapalska meja  - Južni del 51.- 62. National Historic Trail","coordinates":[14.3184,45.798]},{"code":"SI-0369","program":"pota","name":"Grad Haasberg Historic Site","coordinates":[14.2649,45.8281]},{"code":"SI-0434","program":"pota","name":"Cerkniško jezero Natura 2000","coordinates":[14.3617,45.7545]},{"code":"SI-0731","program":"pota","name":"Pot kurirjev in vezistov - odsek 88 / Lož-Grahovo Recreation Site","coordinates":[14.4241,45.7705]},{"code":"SI-0732","program":"pota","name":"Pot kurirjev in vezistov - odsek 89 / Grahovo-Dom na Slivnici Recreation Site","coordinates":[14.4058,45.7899]},{"code":"SI-0733","program":"pota","name":"Pot kurirjev in vezistov - odsek 90 / Dom na Slivnici-Sveta Trojica Recreation Site","coordinates":[14.4795,45.8111]},{"code":"SI-0792","program":"pota","name":"Pot kurirjev in vezistov - odsek 150 / Postojna-Veliki Javornik Recreation Site","coordinates":[14.2951,45.758]},{"code":"SI-0793","program":"pota","name":"Pot kurirjev in vezistov - odsek 151 /  Veliki Javornik-Mašun Recreation Site","coordinates":[14.2952,45.7579]},{"code":"SI-0009","program":"pota","name":"LJUBLJANSKO BARJE Landscape Park","coordinates":[14.4535,45.9877]},{"code":"SI-0510","program":"pota","name":"Reka Ljubljanica Natura 2000","coordinates":[14.4245,45.9813]},{"code":"SI-1115","program":"pota","name":"Retovje Verd National Park","coordinates":[14.2977,45.9518]},{"code":"SI-1116","program":"pota","name":"Plezališče Retovje Recreation Site","coordinates":[14.2983,45.9519]},{"code":"SI-1137","program":"pota","name":"Koščeva učna pot Morost National Park","coordinates":[14.4791,45.9802]},{"code":"SI-1138","program":"pota","name":"Iški morost Park Reserve","coordinates":[14.4799,45.9831]},{"code":"S5/BR-005","program":"sota","name":"Veliki Javornik","coordinates":[14.295,45.7581]},{"code":"S5/RG-009","program":"sota","name":"Velika Slivnica","coordinates":[14.4081,45.79]},{"code":"S5/RG-010","program":"sota","name":"Krim","coordinates":[14.4711,45.9286]},{"code":"S5/RG-020","program":"sota","name":"Šop (Novaška gora)","coordinates":[14.4208,45.8867]},{"code":"S5/RG-021","program":"sota","name":"Vinji vrh (Kačarjevo)","coordinates":[14.3711,45.8672]},{"code":"S5/RG-034","program":"sota","name":"Srebotnik","coordinates":[14.3961,45.9308]},{"code":"S5/RG-060","program":"sota","name":"Ljubljanski vrh","coordinates":[14.2986,45.9311]},{"code":"S5/TK-030","program":"sota","name":"Raskovec","coordinates":[14.2572,45.9381]},{"code":"B/S5-0196","program":"wwbota","name":"Martinjak - RL 478 Skupina utrjenih položajev,bunkerjev,utrdb","coordinates":[14.41395,45.78307]},{"code":"B/S5-0412","program":"wwbota","name":"Mačkovc Planina zaklonišče bunker utrdba","coordinates":[14.25381,45.80237]},{"code":"B/S5-0413","program":"wwbota","name":"Planina 2 zaklonišče bunker utrdba","coordinates":[14.25118,45.81101]},{"code":"B/S5-0414","program":"wwbota","name":"Planina vojašnica 2 utrdba","coordinates":[14.25075,45.81087]},{"code":"B/S5-0415","program":"wwbota","name":"Unška koliševka Velika utrdba 2","coordinates":[14.26332,45.81685]},{"code":"B/S5-0416","program":"wwbota","name":"Unška koliševka protitankovski utrjeni položaji","coordinates":[14.26395,45.81706]},{"code":"B/S5-0417","program":"wwbota","name":"Unška koliševka utrjena vojašnica bunker -utrdba,bunker","coordinates":[14.26532,45.81645]},{"code":"B/S5-0418","program":"wwbota","name":"Unška koliševka Velika utrdba 1","coordinates":[14.26775,45.81652]},{"code":"B/S5-0419","program":"wwbota","name":"Unška koliševka 2 protitankovski utrjeni položaji","coordinates":[14.27099,45.81345]},{"code":"B/S5-0420","program":"wwbota","name":"Slivice Mala utrdba 2","coordinates":[14.27571,45.80708]},{"code":"B/S5-0421","program":"wwbota","name":"Slivice protitankovski utrjeni položaj","coordinates":[14.27739,45.80677]},{"code":"B/S5-0422","program":"wwbota","name":"Slivice Velika utrdba 1","coordinates":[14.28004,45.80561]},{"code":"B/S5-0423","program":"wwbota","name":"Slivice vojašnica utrdba .bunker,utrdba","coordinates":[14.28008,45.80619]},{"code":"B/S5-0424","program":"wwbota","name":"Rakov Škocjan Mejna utrjena stražarnica-utrdba,bunker","coordinates":[14.29762,45.78883]},{"code":"B/S5-0425","program":"wwbota","name":"Čelo razgledišče utrjena opazovalnica","coordinates":[14.33417,45.75995]},{"code":"B/S5-0426","program":"wwbota","name":"Tinje zaklonišče 1 utrdba,bunker,zaklonišče","coordinates":[14.32978,45.75289]},{"code":"B/S5-0427","program":"wwbota","name":"Tinje zaklonišče 2 utrdba,bunker,zaklonišče","coordinates":[14.33074,45.7544]},{"code":"B/S5-0428","program":"wwbota","name":"Tinje zaklonišče 3utrdba,bunker,zaklonišče","coordinates":[14.3268,45.75514]}]}