{"lat":45.75,"lon":22.75,"programs":["pota","sota","wwbota"],"count":13,"references":[{"code":"RO-1082","program":"pota","name":"Munții Metaliferi Natural Area","coordinates":[22.9426,45.9735]},{"code":"RO-0738","program":"pota","name":"Cetate Deva Park","coordinates":[22.8993,45.886]},{"code":"RO-0740","program":"pota","name":"Hunedoara Corvin Park","coordinates":[22.9103,45.7549]},{"code":"RO-0741","program":"pota","name":"Hunedoara Central Park","coordinates":[22.9027,45.758]},{"code":"RO-0742","program":"pota","name":"Hunedoara Tineretului Park","coordinates":[22.9098,45.7592]},{"code":"RO-0744","program":"pota","name":"Dealul Cărpiniş Recreation Site","coordinates":[22.9388,45.77]},{"code":"RO-0745","program":"pota","name":"Bejan Deva Park","coordinates":[22.9036,45.8564]},{"code":"RO-0746","program":"pota","name":"Pădurea Bejan Natura 2000","coordinates":[22.8899,45.8518]},{"code":"RO-0747","program":"pota","name":"Dealul Cetății Deva Natura 2000","coordinates":[22.8965,45.8887]},{"code":"RO-0748","program":"pota","name":"Dealul Colț și Dealul Zănoaga Natural Area","coordinates":[22.8862,45.8915]},{"code":"YO/WC-159","program":"sota","name":"Făeragu","coordinates":[22.9558,45.9908]},{"code":"YO/WC-173","program":"sota","name":"Nucet","coordinates":[22.8617,45.8725]},{"code":"B/YO-0055","program":"wwbota","name":"Bunker sub Cetatea Devei","coordinates":[22.89746,45.88874]}]}