{"lat":45.75,"lon":-70.25,"programs":["sota"],"count":6,"references":[{"code":"W1/AM-016","program":"sota","name":"Boundary Bald Mtn.","coordinates":[-70.2039,45.7667]},{"code":"W1/AM-141","program":"sota","name":"Ironbound Mtn.","coordinates":[-70.0569,45.7792]},{"code":"W1/AM-172","program":"sota","name":"Green Mtn. Old Boundary Rd","coordinates":[-70.1061,45.9439]},{"code":"W1/AM-261","program":"sota","name":"Trickey Bluffs","coordinates":[-70.1442,45.8044]},{"code":"W1/AM-293","program":"sota","name":"Et HP","coordinates":[-70.1203,45.7594]},{"code":"W1/AM-327","program":"sota","name":"Penobscot Lake HP","coordinates":[-70.1731,45.9219]}]}