{"lat":45.75,"lon":4.75,"programs":["pota","sota"],"count":29,"references":[{"code":"FR-2696","program":"pota","name":"ILE DE MIRIBEL JONAGE FR8201785 Natura 2000","coordinates":[4.98139,45.8033]},{"code":"FR-5268","program":"pota","name":"Marais des Echets Biological Reserve","coordinates":[4.92543,45.881]},{"code":"FR-5269","program":"pota","name":"Paléo-marais des Echets, plateau morainique de la Dombes Biological Reserve","coordinates":[4.9256,45.8808]},{"code":"FR-5271","program":"pota","name":"Escarpement des Guettes Biological Reserve","coordinates":[4.85988,45.8421]},{"code":"FR-5275","program":"pota","name":"COTIERE MERIDIONALE DE LA DOMBES Biological Reserve","coordinates":[4.99402,45.8422]},{"code":"FR-5316","program":"pota","name":"Bassin de Miribel-Jonage Biological Reserve","coordinates":[4.97871,45.8035]},{"code":"FR-5317","program":"pota","name":"Iles De Crepieux Charmy Biological Reserve","coordinates":[4.90269,45.7978]},{"code":"FR-5318","program":"pota","name":"Prairie de la Feyssine Biological Reserve","coordinates":[4.88144,45.7895]},{"code":"FR-5319","program":"pota","name":"Bassin du Grand Large Biological Reserve","coordinates":[4.97884,45.7843]},{"code":"FR-5320","program":"pota","name":"Cotiere de Rillieux Biological Reserve","coordinates":[4.90181,45.8132]},{"code":"FR-5323","program":"pota","name":"Ile Roy Biological Reserve","coordinates":[4.85633,45.8234]},{"code":"FR-5325","program":"pota","name":"Iles et prairies de Quincieux Biological Reserve","coordinates":[4.78662,45.9245]},{"code":"FR-7967","program":"pota","name":"Parc de la tête d'or Recreation Park","coordinates":[4.852,45.779]},{"code":"FR-14562","program":"pota","name":"Vallon des planches Biological Reserve","coordinates":[4.754,45.79]},{"code":"FR-14566","program":"pota","name":"Ravins du bois d’Ars et leurs environs Biological Reserve","coordinates":[4.752,45.834]},{"code":"FR-14567","program":"pota","name":"Bois Chatelard, bois des Roches, mont Narcel et leurs environs Biological Reserve","coordinates":[4.777,45.863]},{"code":"FR-14568","program":"pota","name":"MASSIF DES MONTS D’OR Biological Reserve","coordinates":[4.804,45.852]},{"code":"FR-14569","program":"pota","name":"Pelouses et boisements de Chasselay Biological Reserve","coordinates":[4.785,45.873]},{"code":"FR-14570","program":"pota","name":"Prairies seches de Poleymieux-au-Mont-d'Or Biological Reserve","coordinates":[4.794,45.857]},{"code":"FR-14571","program":"pota","name":"Pelouses et boisements de l’est des monts d’Or Biological Reserve","coordinates":[4.796,45.863]},{"code":"FR-14765","program":"pota","name":"Parc de Montpellas Recreation Park","coordinates":[4.83,45.799]},{"code":"FR-14766","program":"pota","name":"Parc de la Cerisaie Recreation Park","coordinates":[4.816,45.775]},{"code":"FR-14768","program":"pota","name":"Parc du Vallon Recreation Park","coordinates":[4.793,45.781]},{"code":"FR-14769","program":"pota","name":"Parc Montel Recreation Park","coordinates":[4.802,45.773]},{"code":"FR-14770","program":"pota","name":"Parc Roquette Recreation Park","coordinates":[4.805,45.777]},{"code":"FR-14771","program":"pota","name":"Parc des Hauteurs et jardins du Rosaire Recreation Park","coordinates":[4.819,45.763]},{"code":"FR-14772","program":"pota","name":"Piste de la Sarra Recreation Park","coordinates":[4.816,45.764]},{"code":"FR-14778","program":"pota","name":"Parc Georges Bazin Recreation Park","coordinates":[4.881,45.752]},{"code":"F/MC-180","program":"sota","name":"Mont Verdun","coordinates":[4.7797,45.85]}]}