{"lat":45.75,"lon":-69,"programs":["pota","sota"],"count":12,"references":[{"code":"US-2381","program":"pota","name":"Baxter State Park","coordinates":[-68.8865,45.8249]},{"code":"US-10713","program":"pota","name":"Katahdin Woods and Waters National Monument","coordinates":[-68.7604,45.9149]},{"code":"US-10714","program":"pota","name":"International Appalachian Trail--Sentier International des Appalaches National Historic Trail","coordinates":[-68.7604,45.9149]},{"code":"W1/AM-001","program":"sota","name":"Mt. Katahdin","coordinates":[-68.9214,45.9042]},{"code":"W1/AM-025","program":"sota","name":"North Turner Mtn.","coordinates":[-68.8436,45.9725]},{"code":"W1/AM-051","program":"sota","name":"North Brother","coordinates":[-68.9853,45.9572]},{"code":"W1/AM-154","program":"sota","name":"Trout Mtn.","coordinates":[-68.8494,45.8022]},{"code":"W1/AM-157","program":"sota","name":"Mullen Mtn.","coordinates":[-68.975,45.9797]},{"code":"W1/AM-208","program":"sota","name":"Barren Mtn. Baxter State Park","coordinates":[-68.9825,45.9194]},{"code":"W1/AM-325","program":"sota","name":"South Turner Mtn.","coordinates":[-68.8506,45.9411]},{"code":"W1/AM-401","program":"sota","name":"Barnard Mtn.","coordinates":[-68.7547,45.9311]},{"code":"W1/AM-407","program":"sota","name":"Hamlin Peak","coordinates":[-68.9275,45.9242]}]}