{"lat":45.75,"lon":25.5,"programs":["gma","pota","sota"],"count":7,"references":[{"code":"YP/EC-012","program":"gma","name":"Gurgau","coordinates":[25.69169998,45.89749908]},{"code":"RO-0140","program":"pota","name":"Dealul Ciocaș - Dealul Vițelului Natura 2000","coordinates":[25.688,45.7728]},{"code":"RO-0523","program":"pota","name":"CetateaFeldioara Historic Site","coordinates":[25.6061,45.8204]},{"code":"RO-0537","program":"pota","name":"Biserica fortificată din Măieruș Historic Site","coordinates":[25.5381,45.8984]},{"code":"RO-1124","program":"pota","name":"Munții Bodoc - Baraolt Protected Area","coordinates":[25.7177,45.9485]},{"code":"RO-1183","program":"pota","name":"Șugaș Băi - Vârful Șugaș - Poiana Arcușului National Recreation Trail","coordinates":[25.7052,45.8969]},{"code":"YO/EC-578","program":"sota","name":"Havad","coordinates":[25.6728,45.894]}]}