{"lat":45.75,"lon":26.25,"programs":["pota","sota"],"count":20,"references":[{"code":"RO-1121","program":"pota","name":"Munții Vrancei Natural Area","coordinates":[26.375,45.8228]},{"code":"RO-1181","program":"pota","name":"Comandău - Vf. Lăcăuți - Vf. Goru National Scenic Trail","coordinates":[26.4174,45.7966]},{"code":"RO-1217","program":"pota","name":"Pasul Mușat Natural Area","coordinates":[26.3965,45.9631]},{"code":"RO-1219","program":"pota","name":"Traseu Turistic Pasul Mușat - Vârful Mușat - Lăcăuți - Pasul Delușor National Recreation Trail","coordinates":[26.391,45.9464]},{"code":"RO-1218","program":"pota","name":"Putna-Vrancea National Park","coordinates":[26.4495,45.9712]},{"code":"RO-1223","program":"pota","name":"Vârful Lepșa Natural Area","coordinates":[26.4382,45.9897]},{"code":"YO/EC-067","program":"sota","name":"Goru","coordinates":[26.4175,45.7969]},{"code":"YO/EC-069","program":"sota","name":"Lăcăuți","coordinates":[26.3758,45.8233]},{"code":"YO/EC-076","program":"sota","name":"Giurgiu","coordinates":[26.4433,45.7575]},{"code":"YO/EC-111","program":"sota","name":"Zârna","coordinates":[26.3296,45.863]},{"code":"YO/EC-117","program":"sota","name":"Păișaua Arsă","coordinates":[26.4658,45.8025]},{"code":"YO/EC-118","program":"sota","name":"Zburătura","coordinates":[26.4442,45.8558]},{"code":"YO/EC-132","program":"sota","name":"Căbălașu","coordinates":[26.4642,45.7817]},{"code":"YO/EC-138","program":"sota","name":"Bulboace","coordinates":[26.4933,45.8458]},{"code":"YO/EC-151","program":"sota","name":"Mușat","coordinates":[26.3912,45.9469]},{"code":"YO/EC-194","program":"sota","name":"Lepșa","coordinates":[26.438,45.9899]},{"code":"YO/EC-275","program":"sota","name":"Piscul Mesteacănului","coordinates":[26.468,45.9556]},{"code":"YO/EC-290","program":"sota","name":"Bariț","coordinates":[26.3233,45.9256]},{"code":"YO/EC-457","program":"sota","name":"Titilelor","coordinates":[26.4883,45.8842]},{"code":"YO/EC-528","program":"sota","name":"Piscul Negru","coordinates":[26.3131,45.8402]}]}