{"lat":45.75,"lon":26,"programs":["pota","sota"],"count":10,"references":[{"code":"RO-0538","program":"pota","name":"Biserica Fortificată din Zăbala Historic Site","coordinates":[26.1873,45.8921]},{"code":"RO-0554","program":"pota","name":"Turbăria Ruginosu Protected Area","coordinates":[26.2229,45.7779]},{"code":"RO-0555","program":"pota","name":"Cetatea Zânelor National Historic Site","coordinates":[26.2226,45.8272]},{"code":"RO-0558","program":"pota","name":"Siklo Planul Înclinat Covasna Historic Site","coordinates":[26.2298,45.8359]},{"code":"RO-0559","program":"pota","name":"Valea Zânelor Nature Recreation Area","coordinates":[26.2172,45.841]},{"code":"RO-0560","program":"pota","name":"Parcul Central Covasna Park","coordinates":[26.1702,45.8455]},{"code":"RO-0562","program":"pota","name":"Kőrösi Csoma Sándor Memorial National Memorial","coordinates":[26.1525,45.8225]},{"code":"RO-0564","program":"pota","name":"Parcul Józsiás Park","coordinates":[26.1368,45.997]},{"code":"RO-0565","program":"pota","name":"Baross Gábor Memorial Historic Site","coordinates":[26.1375,45.9915]},{"code":"YO/EC-231","program":"sota","name":"Chiuzul Păpăuți","coordinates":[26.224,45.7927]}]}