{"lat":45.75,"lon":1.5,"programs":["pota","sota"],"count":5,"references":[{"code":"FR-3708","program":"pota","name":"FORET D EPAGNE  FR7401149 Natura 2000","coordinates":[1.60917,45.9303]},{"code":"FR-3709","program":"pota","name":"HAUTE VALLEE DE LA VIENNE  FR7401148 Natura 2000","coordinates":[1.66944,45.7578]},{"code":"FR-4257","program":"pota","name":"Ruisseau de Moissannes Natura 2000","coordinates":[1.56972,45.8642]},{"code":"FR-4528","program":"pota","name":"Foret D'Epagne Biological Reserve","coordinates":[1.60576,45.9287]},{"code":"F/MC-254","program":"sota","name":"Puy de Roche Guette","coordinates":[1.6658,45.9925]}]}