{"lat":45.75,"lon":12.25,"programs":["pota","sota"],"count":6,"references":[{"code":"IT-0249","program":"pota","name":"Bosco di Gaiarine Natura 2000","coordinates":[12.4921,45.8608]},{"code":"IT-1458","program":"pota","name":"Perdonanze e corso del Monticano Natura 2000","coordinates":[12.2656,45.9706]},{"code":"IT-1560","program":"pota","name":"Ambito fluviale del Livenza e corso inferiore del Monticano Natura 2000","coordinates":[12.4468,45.7896]},{"code":"IT-1904","program":"pota","name":"Fiume Meschio Natura 2000","coordinates":[12.4046,45.9513]},{"code":"I/VE-261","program":"sota","name":"Monte Baldo – Quota 612","coordinates":[12.2621,45.989]},{"code":"I/VE-271","program":"sota","name":"Monte Altare","coordinates":[12.2853,45.9845]}]}