{"lat":45.75,"lon":5.75,"programs":["pota","sota"],"count":19,"references":[{"code":"FR-2544","program":"pota","name":"FORETS alluviales et LONES DU HAUT RHONE FR8201771 Natura 2000","coordinates":[5.80431,45.8648]},{"code":"FR-2545","program":"pota","name":"RESEAU DE zones humides DE L ALBANAIS FR8201772 Natura 2000","coordinates":[5.95145,45.7923]},{"code":"FR-2553","program":"pota","name":"FORETS alluviales ET LONES DU HAUT RHONE FR8212004 Natura 2000","coordinates":[5.76877,45.7924]},{"code":"FR-2556","program":"pota","name":"MARAIS DE LAVOURS FR8210016 Natura 2000","coordinates":[5.75972,45.8372]},{"code":"FR-3907","program":"pota","name":"MARAIS DE LAVOURS State Natural Reserve","coordinates":[5.75489,45.8346]},{"code":"FR-3908","program":"pota","name":"Marais de Lavours Natura 2000","coordinates":[5.75972,45.8372]},{"code":"FR-4695","program":"pota","name":"Marais Et Zones Humides Des Vorges, De Chez Rigod Et De Fareuse Est Biological Reserve","coordinates":[5.99394,45.8731]},{"code":"FR-4969","program":"pota","name":"Friches a molinie sur argile de Desingy Biological Reserve","coordinates":[5.86694,45.9993]},{"code":"FR-4970","program":"pota","name":"Friche seche en rive gauche du ruisseau de la petite Craze Biological Reserve","coordinates":[5.84007,45.9925]},{"code":"FR-4971","program":"pota","name":"Friche a molinie sur argile des Teppes Biological Reserve","coordinates":[5.84564,45.999]},{"code":"F/AB-510","program":"sota","name":"Montagne du Gros Foug","coordinates":[5.8654,45.8927]},{"code":"F/AB-521","program":"sota","name":"La Ferme du Comte","coordinates":[5.8738,45.9462]},{"code":"F/AB-540","program":"sota","name":"Bois de Bornachon","coordinates":[5.9913,45.9711]},{"code":"F/AB-546","program":"sota","name":"Chainaz-les-Frasses","coordinates":[5.9984,45.7687]},{"code":"F/AB-556","program":"sota","name":"Narfé","coordinates":[5.797,45.7906]},{"code":"F/AB-618","program":"sota","name":"Bois de Charmont","coordinates":[5.9542,45.9742]},{"code":"F/AB-625","program":"sota","name":"La Muraille","coordinates":[5.8061,45.8293]},{"code":"F/JU-006","program":"sota","name":"Le Grand Colombier","coordinates":[5.7609,45.9011]},{"code":"F/JU-012","program":"sota","name":"L'Hergues","coordinates":[5.753,45.9431]}]}