{"lat":45.75,"lon":-122.25,"programs":["sota"],"count":17,"references":[{"code":"W7W/LC-052","program":"sota","name":"West Soda Peaks","coordinates":[-122.0563,45.8831]},{"code":"W7W/LC-055","program":"sota","name":"Green Lookout Mountain","coordinates":[-122.1244,45.8611]},{"code":"W7W/LC-057","program":"sota","name":"West Twin Rocks","coordinates":[-122.1007,45.8726]},{"code":"W7W/LC-059","program":"sota","name":"Timbered Peak","coordinates":[-122.0518,45.9672]},{"code":"W7W/LC-061","program":"sota","name":"Bare Mountain","coordinates":[-122.0717,45.9101]},{"code":"W7W/LC-062","program":"sota","name":"4340 Mt Continuity","coordinates":[-122.1096,45.8432]},{"code":"W7W/LC-063","program":"sota","name":"Calamity Peak","coordinates":[-122.1271,45.9162]},{"code":"W7W/LC-064","program":"sota","name":"Sister Rocks","coordinates":[-122.044,45.9352]},{"code":"W7W/LC-066","program":"sota","name":"Lookout Mountain","coordinates":[-122.1043,45.7997]},{"code":"W7W/LC-067","program":"sota","name":"4220 D-Layer Mtn","coordinates":[-122.0857,45.8173]},{"code":"W7W/LC-073","program":"sota","name":"Siouxon Peak","coordinates":[-122.1305,45.9925]},{"code":"W7W/LC-076","program":"sota","name":"Huffman Peak","coordinates":[-122.1627,45.9798]},{"code":"W7W/LC-079","program":"sota","name":"4100 Circuitboard Mtn","coordinates":[-122.0873,45.8587]},{"code":"W7W/LC-085","program":"sota","name":"3977 Discriminator Pk","coordinates":[-122.2226,45.7609]},{"code":"W7W/LC-088","program":"sota","name":"McKinley Ridge","coordinates":[-122.1702,45.7919]},{"code":"W7W/LC-089","program":"sota","name":"Saturday Rock","coordinates":[-122.163,45.8512]},{"code":"W7W/LC-096","program":"sota","name":"3685 Condenser Mtn","coordinates":[-122.1385,45.9006]}]}