{"lat":45.75,"lon":23,"programs":["pota","sota"],"count":6,"references":[{"code":"RO-0919","program":"pota","name":"Tineretului Orăștie Park","coordinates":[23.1835,45.837]},{"code":"RO-0926","program":"pota","name":"Apele mezotermale Geoagiu-Băi Protected Area","coordinates":[23.1573,45.932]},{"code":"RO-0927","program":"pota","name":"Arboretumul Simeria Protected Area","coordinates":[23.0098,45.8616]},{"code":"RO-1090","program":"pota","name":"Dealul Haitău Belvedere Area of Outstanding Natural Beauty","coordinates":[23.0542,45.9855]},{"code":"YO/MC-199","program":"sota","name":"Dealul Măgura","coordinates":[23.0583,45.7692]},{"code":"YO/WC-106","program":"sota","name":"Haitău","coordinates":[23.0425,45.985]}]}