{"lat":45.75,"lon":25.25,"programs":["pota","sota"],"count":9,"references":[{"code":"RO-0513","program":"pota","name":"Biserica fortificată din Ungra Historic Site","coordinates":[25.2637,45.9837]},{"code":"RO-0677","program":"pota","name":"Pădurea Bogății Forest Reserve","coordinates":[25.4153,45.9272]},{"code":"RO-1047","program":"pota","name":"Dumbrăvița Natura 2000","coordinates":[25.4641,45.7631]},{"code":"RO-1049","program":"pota","name":"Cetatea Heldenburg Crizbav Historic Site","coordinates":[25.4485,45.8573]},{"code":"YO/EC-326","program":"sota","name":"Cetății","coordinates":[25.4383,45.86]},{"code":"YO/EC-363","program":"sota","name":"Gârbova","coordinates":[25.3208,45.86]},{"code":"YO/EC-374","program":"sota","name":"Muntele Negru","coordinates":[25.4961,45.997]},{"code":"YO/EC-381","program":"sota","name":"Piscu Înalt","coordinates":[25.4498,45.9242]},{"code":"YO/EC-400","program":"sota","name":"Măgura Pleașa","coordinates":[25.2908,45.9217]}]}