{"lat":45.75,"lon":16,"programs":["pota","sota","wwbota"],"count":6,"references":[{"code":"HR-0222","program":"pota","name":"Sava kod Hrušćice Natura 2000","coordinates":[16.1597,45.7681]},{"code":"HR-0244","program":"pota","name":"Jezera Savica Reserve","coordinates":[16.0238,45.7766]},{"code":"HR-0357","program":"pota","name":"Vejalnica i Krč Natura 2000","coordinates":[16.091,45.901]},{"code":"9A/ZH-023","program":"sota","name":"Drenova","coordinates":[16.160393,45.972404]},{"code":"B/9A-0110","program":"wwbota","name":"Sesvete","coordinates":[16.106742,45.824251]},{"code":"B/9A-0111","program":"wwbota","name":"Sesvete","coordinates":[16.115495,45.823926]}]}