{"lat":45.75,"lon":-84.75,"programs":["pota"],"count":7,"references":[{"code":"US-1498","program":"pota","name":"Fort Michilimackinac State Park","coordinates":[-84.7323,45.7879]},{"code":"US-1517","program":"pota","name":"Mackinac Island State Park","coordinates":[-84.6222,45.8674]},{"code":"US-1543","program":"pota","name":"Straits State Park","coordinates":[-84.7195,45.8551]},{"code":"US-3308","program":"pota","name":"Father Marquette Memorial National Memorial","coordinates":[-84.7258,45.8529]},{"code":"US-6818","program":"pota","name":"Mackinac Island State Harbor","coordinates":[-84.6164,45.8495]},{"code":"US-6821","program":"pota","name":"Straits State Harbor","coordinates":[-84.7219,45.7784]},{"code":"US-13176","program":"pota","name":"North Western State Trail","coordinates":[-84.7306,45.7804]}]}