{"lat":45.75,"lon":5,"programs":["pota"],"count":20,"references":[{"code":"FR-2798","program":"pota","name":"MILIEUX ALLUVIAUX ET AQUATIQUES DU FLEUVE RHONE DE JONS A ANTHON FR8201638 NATURA 2000 Natura 2000","coordinates":[5.07756,45.8208]},{"code":"FR-2799","program":"pota","name":"STEPPES DE LA VALBONNE FR8201639 NATURA 2000 Natura 2000","coordinates":[5.1542,45.8337]},{"code":"FR-2800","program":"pota","name":"STEPPES DE LA VALBONNE FR8212011 Natura 2000","coordinates":[5.15194,45.8317]},{"code":"FR-5270","program":"pota","name":"Combe de la Sereine Biological Reserve","coordinates":[5.0547,45.8821]},{"code":"FR-5272","program":"pota","name":"Vallon du Cotey Biological Reserve","coordinates":[5.088,45.8729]},{"code":"FR-5273","program":"pota","name":"Pentes boisees de Beligneux Biological Reserve","coordinates":[5.12313,45.8734]},{"code":"FR-5274","program":"pota","name":"Basse-vallee du Longevent Biological Reserve","coordinates":[5.18893,45.8788]},{"code":"FR-5276","program":"pota","name":"Pelouses seches de la Valbonne Biological Reserve","coordinates":[5.15215,45.8373]},{"code":"FR-5284","program":"pota","name":"Brotteaux De Chazey Sur Ain Biological Reserve","coordinates":[5.23271,45.8746]},{"code":"FR-5285","program":"pota","name":"Champs des Grandes Raies et de la Terre Blanche Biological Reserve","coordinates":[5.2095,45.7869]},{"code":"FR-5289","program":"pota","name":"Champs de Loyettes Biological Reserve","coordinates":[5.20608,45.7821]},{"code":"FR-5290","program":"pota","name":"Anciennes gravieres de la Bibianne Biological Reserve","coordinates":[5.2024,45.7929]},{"code":"FR-5291","program":"pota","name":"Pelouses seches des Gaboureaux Biological Reserve","coordinates":[5.21779,45.809]},{"code":"FR-5292","program":"pota","name":"Prairie du ruisseau du Gua Biological Reserve","coordinates":[5.24206,45.8494]},{"code":"FR-5293","program":"pota","name":"Prairies du Luisard Biological Reserve","coordinates":[5.24612,45.8678]},{"code":"FR-5312","program":"pota","name":"Milieux alluviaux et lone de la Ferrande Biological Reserve","coordinates":[5.10743,45.8118]},{"code":"FR-5313","program":"pota","name":"Lones de la Chaume et du Grand Gravier Biological Reserve","coordinates":[5.10686,45.8224]},{"code":"FR-5314","program":"pota","name":"Millieux alluviaux et lone de la Negria Biological Reserve","coordinates":[5.10641,45.8014]},{"code":"FR-5315","program":"pota","name":"ENSEMBLE FORME PAR LE FLEUVE RHONE SES LONES ET SES BROTTEAUX A L’AMONT DE LYON Biological Reserve","coordinates":[5.00251,45.8031]},{"code":"FR-5321","program":"pota","name":"Boisement humide de la Boisse Biological Reserve","coordinates":[5.01713,45.8462]}]}