{"lat":45.75,"lon":1.75,"programs":["gma","pota"],"count":9,"references":[{"code":"FA/MC-052","program":"gma","name":"Bois de Crosas","coordinates":[1.84720004,45.79249954]},{"code":"FA/MC-053","program":"gma","name":"Puy de la Besse","coordinates":[1.83640003,45.78530121]},{"code":"FA/MC-054","program":"gma","name":"Pain Pot","coordinates":[1.81169999,45.78440094]},{"code":"FR-11110","program":"pota","name":"Rives sud du lac de vassiviere Biological Reserve","coordinates":[1.87145,45.783]},{"code":"FR-0187","program":"pota","name":"Millevaches en Limousin Regional Park","coordinates":[1.995,45.7853]},{"code":"FR-3711","program":"pota","name":"LANDES ET ZONES HUMIDES AUTOUR DU LAC DE VASSIVIERE  FR7401145 Natura 2000","coordinates":[1.90861,45.8103]},{"code":"FR-4261","program":"pota","name":"Tourbiere de l etang du Bourdeau Natura 2000","coordinates":[1.83194,45.9244]},{"code":"FR-4288","program":"pota","name":"Vallee du Taurion et affluents Natura 2000","coordinates":[1.79389,45.9975]},{"code":"FR-4529","program":"pota","name":"Tourbiere De L'etang Du Bourdeau Biological Reserve","coordinates":[1.83065,45.9262]}]}