{"lat":46,"lon":-60.25,"programs":["pota","wwbota"],"count":12,"references":[{"code":"CA-0459","program":"pota","name":"Dominion Beach Provincial Park","coordinates":[-60.0407,46.2216]},{"code":"CA-0472","program":"pota","name":"Petersfield Provincial Park","coordinates":[-60.2241,46.1444]},{"code":"CA-0931","program":"pota","name":"Mira River Provincial Park","coordinates":[-60.0406,46.0286]},{"code":"CA-1893","program":"pota","name":"Open Hearth Park Recreation Park","coordinates":[-60.1881,46.1468]},{"code":"CA-5443","program":"pota","name":"Membertou Heritage Park National Historical Park","coordinates":[-60.194,46.1211]},{"code":"CA-5845","program":"pota","name":"Sydney WWII Coastal Defences National Historic Site","coordinates":[-60.2115,46.2441]},{"code":"B/CA-0876","program":"wwbota","name":"FRP HKQB4","coordinates":[-60.16469,46.16738003]},{"code":"B/CA-0877","program":"wwbota","name":"FRP HKQB42","coordinates":[-60.051929,46.16865403]},{"code":"B/CA-0911","program":"wwbota","name":"FRP","coordinates":[-60.1952659,46.13713343]},{"code":"B/CA-0913","program":"wwbota","name":"RCMP Radio: Glace Bay-Sydney","coordinates":[-60.07613515,46.16702625]},{"code":"B/CA-0917","program":"wwbota","name":"RCMP Radio: Eskasoni-Sydney","coordinates":[-60.2383528,46.08728586]},{"code":"B/CA-0918","program":"wwbota","name":"Radio: Louisbourg-Coxheath","coordinates":[-60.1144359,46.01102275]}]}