{"lat":46,"lon":11,"programs":["pota","sota"],"count":32,"references":[{"code":"IT-0248","program":"pota","name":"Prati di Monte Natura 2000","coordinates":[11.243,46.2235]},{"code":"IT-0444","program":"pota","name":"Tre Cime Monte Bondone Natura 2000","coordinates":[11.0372,46.0017]},{"code":"IT-1314","program":"pota","name":"Biotopo Paludél - Adlermoesl Regional Reserve","coordinates":[11.2176,46.2449]},{"code":"IT-1326","program":"pota","name":"Monte Barco - Le Grave Natura 2000","coordinates":[11.1689,46.1308]},{"code":"IT-1331","program":"pota","name":"Lona - Lases Natura 2000","coordinates":[11.2284,46.1431]},{"code":"IT-1334","program":"pota","name":"Lago di Santa Colomba Natura 2000","coordinates":[11.1825,46.1258]},{"code":"IT-1336","program":"pota","name":"Lago Pudro Natura 2000","coordinates":[11.2242,46.0786]},{"code":"IT-1343","program":"pota","name":"Laghestel di Pine' Natura 2000","coordinates":[11.2264,46.1158]},{"code":"IT-1344","program":"pota","name":"Lagabrun Natura 2000","coordinates":[11.1983,46.2047]},{"code":"IT-1345","program":"pota","name":"La Rupe Natura 2000","coordinates":[11.0978,46.1858]},{"code":"IT-1346","program":"pota","name":"La Rocchetta Natura 2000","coordinates":[11.0603,46.2483]},{"code":"IT-1350","program":"pota","name":"Foci dell'Avisio Natura 2000","coordinates":[11.0871,46.1266]},{"code":"IT-1352","program":"pota","name":"Torbiera delle Viote Natura 2000","coordinates":[11.0428,46.0186]},{"code":"IT-1356","program":"pota","name":"Canneti di San Cristoforo Natura 2000","coordinates":[11.2415,46.0385]},{"code":"IT-1623","program":"pota","name":"Montepiano - Palù di Fornace Natura 2000","coordinates":[11.1961,46.1272]},{"code":"IT-1629","program":"pota","name":"Lago Costa Natura 2000","coordinates":[11.2375,46.0756]},{"code":"IT-1721","program":"pota","name":"Burrone di Ravina Natura 2000","coordinates":[11.0822,46.035]},{"code":"IT-1869","program":"pota","name":"Gocciadoro Natura 2000","coordinates":[11.1421,46.0577]},{"code":"IT-1870","program":"pota","name":"Doss Trento Natura 2000","coordinates":[11.1119,46.0736]},{"code":"IT-1871","program":"pota","name":"Stagni della Vela - Soprasasso Natura 2000","coordinates":[11.0903,46.0914]},{"code":"IT-1872","program":"pota","name":"Terlago Natura 2000","coordinates":[11.0569,46.0992]},{"code":"IT-1873","program":"pota","name":"Laghi e abisso di Lamar Natura 2000","coordinates":[11.0611,46.1272]},{"code":"I/TN-126","program":"sota","name":"La Paganella","coordinates":[11.0375,46.1437]},{"code":"I/TN-129","program":"sota","name":"Il Palone / Palon","coordinates":[11.0592,46.0272]},{"code":"I/TN-158","program":"sota","name":"La Marzola","coordinates":[11.1878,46.0318]},{"code":"I/TN-176","program":"sota","name":"Dosso Alto","coordinates":[11.0635,46.189]},{"code":"I/TN-192","program":"sota","name":"Monte Calisio","coordinates":[11.1433,46.0981]},{"code":"I/TN-193","program":"sota","name":"La Gorsa","coordinates":[11.2104,46.1392]},{"code":"I/TN-194","program":"sota","name":"Monte Corona","coordinates":[11.1562,46.1777]},{"code":"I/TN-195","program":"sota","name":"Celva","coordinates":[11.1842,46.0737]},{"code":"I/TN-198","program":"sota","name":"Monte Soprasasso","coordinates":[11.0847,46.0952]},{"code":"I/TN-200","program":"sota","name":"Monte Mezzana","coordinates":[11.0343,46.0924]}]}