{"lat":46,"lon":13.75,"programs":["gma","pota","sota","wwbota"],"count":137,"references":[{"code":"S5/TK-015","program":"gma","name":"Planinica","coordinates":[13.88389969,46.04669952]},{"code":"S5/TK-017","program":"gma","name":"Vrhovec","coordinates":[13.91059971,46.06359863]},{"code":"S5/TK-035","program":"gma","name":"Jelenk","coordinates":[13.98890018,46.05360031]},{"code":"S5/TK-044","program":"gma","name":"RojÄev vrh","coordinates":[13.7711,46.0308]},{"code":"S5/TK-046","program":"gma","name":"LaÅ¡Äek","coordinates":[13.7731,46.0806]},{"code":"S50/CP-103","program":"gma","name":"HoÄ","coordinates":[13.98823,46.19294]},{"code":"S50/TK-101","program":"gma","name":"Veliki ÄŒeÅ¡evnik","coordinates":[13.815556,46.0125]},{"code":"S50/TK-102","program":"gma","name":"Poldanovec","coordinates":[13.832778,46.009722]},{"code":"S50/TK-107","program":"gma","name":"Å kol","coordinates":[13.79179,46.01967]},{"code":"S50/TK-109","program":"gma","name":"Veliki vrh","coordinates":[13.77999973,46.10689926]},{"code":"SI-0480","program":"pota","name":"Alpski zid - kasarna na Možicu Historic Site","coordinates":[13.996,46.2373]},{"code":"SI-0482","program":"pota","name":"Možic Historic Site","coordinates":[13.9951,46.2421]},{"code":"SI-0831","program":"pota","name":"Preval Vrh Ravni - Kojca Recreation Site","coordinates":[13.9449,46.1562]},{"code":"SI-0894","program":"pota","name":"SPP / Bohinjsko-Tolminski greben Etapa 33 / Koča na planini Razor-Dom Z.Jelinčiča na Črni prsti Recreation Site","coordinates":[13.7934,46.2356]},{"code":"SI-0895","program":"pota","name":"SPP / S Črne prsti na Petrovo Brdo Etapa 34 / Dom Z.Jelinčiča na Črni prsti - Ex pl. dom Petrovo Brdo Recreation Site","coordinates":[13.9314,46.2309]},{"code":"SI-0896","program":"pota","name":"SPP / S Petrovega brda-na Porezn Etapa 35 / Ex pl. Dom Petrovo Brdo- Koča na Poreznu Recreation Site","coordinates":[13.9995,46.2157]},{"code":"SI-0897","program":"pota","name":"SPP / S Porezna na Ermanovec Etapa 36 / Koča na Porezu-Koča na Ermanovcu Recreation Site","coordinates":[13.9761,46.1793]},{"code":"SI-0095","program":"pota","name":"Rapalska meja - Osrednji del 29.- 51. National Historic Trail","coordinates":[13.9709,46.1771]},{"code":"SI-0173","program":"pota","name":"Boroevičeva cesta/Boroevič road Historic Site","coordinates":[13.8001,46.0947]},{"code":"SI-0197","program":"pota","name":"SPOMENIK vojnam - Lokve National Historic Site","coordinates":[13.7911,46.0125]},{"code":"SI-0198","program":"pota","name":"SPOMINKA PLOŠČA ZBIRNI CENTER 91 -Lokovec National Historic Site","coordinates":[13.7681,46.0471]},{"code":"SI-0470","program":"pota","name":"Idrijca s pritoki Natura 2000","coordinates":[13.7553,46.1486]},{"code":"SI-0484","program":"pota","name":"Črna prst: vrh in pobočja pod vrhom Park Reserve","coordinates":[13.9099,46.2224]},{"code":"SI-0532","program":"pota","name":"Partizansko grobišče Vojščica Memorial Parkway","coordinates":[13.8837,46.0509]},{"code":"SI-0533","program":"pota","name":"Del porečja Govšlarce Natura 2000","coordinates":[13.9772,46.0361]},{"code":"SI-0534","program":"pota","name":"Idrijske Krnice - Jelenk Natura 2000","coordinates":[13.9898,46.0531]},{"code":"SI-0568","program":"pota","name":"Tematska pot Lom je moj dom Recreation Site","coordinates":[13.758,46.1217]},{"code":"SI-0770","program":"pota","name":"Pot kurirjev in vezistov - odsek 127 / Petrovo Brdo- Dom Andreja Žvana-Borisa na Poreznu Recreation Site","coordinates":[13.9763,46.1793]},{"code":"SI-0772","program":"pota","name":"Pot kurirjev in vezistov - odsek 129 / Partizanska bolnišnica Franja-Cerkno Recreation Site","coordinates":[13.9893,46.1288]},{"code":"SI-0778","program":"pota","name":"Pot kurirjev in vezistov - odsek 135 / Spodnja Idrija-Partizanska tiskarna Slovenija Recreation Site","coordinates":[13.9041,46.0395]},{"code":"SI-0779","program":"pota","name":"Pot kurirjev in vezistov - odsek 136 / Partizanska tiskarna Slovenija-Vojsko Recreation Site","coordinates":[13.9021,46.025]},{"code":"SI-0780","program":"pota","name":"Pot kurirjev in vezistov - odsek 137 / Vojsko-Gorenja Trebuša Recreation Site","coordinates":[13.8393,46.0297]},{"code":"SI-0781","program":"pota","name":"Pot kurirjev in vezistov - odsek 138 / Dolenja Trebuša-Lokve Recreation Site","coordinates":[13.7917,46.0116]},{"code":"SI-0940","program":"pota","name":"Planinska pot Lokve Poldanovec Recreation Site","coordinates":[13.7922,46.0122]},{"code":"SI-0941","program":"pota","name":"Rekreacijski center in smučišče Lokve Recreation Site","coordinates":[13.7921,46.0121]},{"code":"SI-0980","program":"pota","name":"Spomenik padlim letalcem Čepovan Historic Site","coordinates":[13.797,46.0532]},{"code":"SI-1052","program":"pota","name":"JULIANA TRAIL: stage 9 Podbrdo - Grahovo ob Bači Recreation Park","coordinates":[13.9676,46.2116]},{"code":"SI-1053","program":"pota","name":"JULIANA TRAIL: stage 10 Grahovo ob Bači - Most na Soči Recreation Site","coordinates":[13.8669,46.1578]},{"code":"SI-1085","program":"pota","name":"Stara šola Puštale Historic Site","coordinates":[13.7588,46.0218]},{"code":"S5/CP-002","program":"sota","name":"Porezen","coordinates":[13.9744,46.1772]},{"code":"S5/CP-007","program":"sota","name":"Kojca","coordinates":[13.9261,46.1542]},{"code":"S5/CP-015","program":"sota","name":"Črvov vrh","coordinates":[13.8647,46.1428]},{"code":"S5/CP-038","program":"sota","name":"Veliki Kovk","coordinates":[13.9614,46.1297]},{"code":"S5/JA-030","program":"sota","name":"Rodica","coordinates":[13.8653,46.2278]},{"code":"S5/JA-035","program":"sota","name":"Slatnik","coordinates":[13.9936,46.2372]},{"code":"S5/JA-040","program":"sota","name":"Kobilja glava","coordinates":[13.7953,46.19]},{"code":"S5/JA-045","program":"sota","name":"Kotel","coordinates":[13.8533,46.1703]},{"code":"S5/JA-046","program":"sota","name":"Znojilski vrh","coordinates":[13.9108,46.1919]},{"code":"S5/JA-053","program":"sota","name":"Senica","coordinates":[13.7642,46.1578]},{"code":"S5/JA-067","program":"sota","name":"Kravja Črna gora","coordinates":[13.9603,46.24]},{"code":"S5/TK-015","program":"sota","name":"Planinica","coordinates":[13.8847,46.0467]},{"code":"S5/TK-017","program":"sota","name":"Vrhovec","coordinates":[13.9106,46.0636]},{"code":"S5/TK-035","program":"sota","name":"Jelenk","coordinates":[13.9889,46.0536]},{"code":"S5/TK-044","program":"sota","name":"Rojčev vrh","coordinates":[13.7711,46.0308]},{"code":"S5/TK-046","program":"sota","name":"Lašček","coordinates":[13.7731,46.0806]},{"code":"B/S5-0017","program":"wwbota","name":"Senica - Utrjeni obambni položaji,bunkerji,kaverne,jarki","coordinates":[13.75862,46.16066]},{"code":"B/S5-0212","program":"wwbota","name":"Italjanski bunker Porezen  - Utrjen položaj,bunker,utrdba","coordinates":[13.97669,46.17925]},{"code":"B/S5-0214","program":"wwbota","name":"Zakriž 2 - Utrjen položaj,bunker,utrdba,podzemna utrdba","coordinates":[13.96065,46.13525]},{"code":"B/S5-0215","program":"wwbota","name":"Zakriž 1 - Utrjen položaj,bunker,utrdba,podzemna utrdba","coordinates":[13.95914,46.13454]},{"code":"B/S5-0217","program":"wwbota","name":"Zgornja Sorica - Kompleks utrjenih položajev,bunkerjev,utrdb","coordinates":[13.99501,46.24175]},{"code":"B/S5-0473","program":"wwbota","name":"Srednja Kanomlja zaklonišče id: 339- utrdba,bunker","coordinates":[13.98078,46.0229]},{"code":"B/S5-0486","program":"wwbota","name":"Idrske Krnice   zaklonišče  id: 292 -utrdba,bunker","coordinates":[13.99739,46.0513]},{"code":"B/S5-0487","program":"wwbota","name":"Idrske Krnice  zaklonišče id: 291 -utrdba,bunker","coordinates":[13.99693,46.05083]},{"code":"B/S5-0488","program":"wwbota","name":"Idrske krnice utrjena vojašnica id: 293 -bunker,utrdba","coordinates":[13.99535,46.05042]},{"code":"B/S5-0489","program":"wwbota","name":"Idrske Krnice zaklonišče id: 289  -utrdba,bunker","coordinates":[13.99318,46.05196]},{"code":"B/S5-0490","program":"wwbota","name":"Jelenk Topniški položaj id: 295 -utrdba,bunker","coordinates":[13.99329,46.05232]},{"code":"B/S5-0491","program":"wwbota","name":"Jelenk Topniški položaj id: 296 -utrdba,bunker","coordinates":[13.99388,46.05228]},{"code":"B/S5-0492","program":"wwbota","name":"Jelenk Topniški položaj id: 294 -utrdba,bunker","coordinates":[13.99275,46.05258]},{"code":"B/S5-0493","program":"wwbota","name":"Jelenk  zaklonišče id: 287 -utrdba,bunker","coordinates":[13.98785,46.05364]},{"code":"B/S5-0494","program":"wwbota","name":"Jelenk utrjena vojašnica id: 288-bunker,utrdba","coordinates":[13.98687,46.05408]},{"code":"B/S5-0495","program":"wwbota","name":"Jelenk utrjena vojašnica id: 301-bunker,utrdba","coordinates":[13.98608,46.04733]},{"code":"B/S5-0496","program":"wwbota","name":"Jelenk Topniški položaj id: 523 -utrdba,bunker","coordinates":[13.97817,46.04918]},{"code":"B/S5-0497","program":"wwbota","name":"Jelenk zaklonišče id: 297 -utrdba,bunker","coordinates":[13.9758,46.04697]},{"code":"B/S5-0498","program":"wwbota","name":"Jelenk zaklonišče id: 298 -utrdba,bunker","coordinates":[13.975,46.04552]},{"code":"B/S5-0499","program":"wwbota","name":"Jelenik utrjena opazovalnica id:552 utrdba,bunker","coordinates":[13.9813,46.04433]},{"code":"B/S5-0500","program":"wwbota","name":"Straža utrjena opazovalnica id:445 utrdba,bunker","coordinates":[13.94735,46.09996]},{"code":"B/S5-0501","program":"wwbota","name":"Straža utrjen protitankovski položaj id: 627 utrdba,bunker","coordinates":[13.94665,46.10107]},{"code":"B/S5-0502","program":"wwbota","name":"Želin Mala utrdba 64  -utrdba,bunker","coordinates":[13.94523,46.10131]},{"code":"B/S5-0503","program":"wwbota","name":"Želin Srednja utrdba 63 -utrdba,bunker","coordinates":[13.94855,46.10457]},{"code":"B/S5-0504","program":"wwbota","name":"Želin Mala utrdba 61 -utrdba,bunker","coordinates":[13.9441,46.10343]},{"code":"B/S5-0505","program":"wwbota","name":"Želin  utrjena opazovalnica id: 633 utrdba,bunker","coordinates":[13.94405,46.10368]},{"code":"B/S5-0506","program":"wwbota","name":"Želin Mala utrdba 62 -utrdba,bunker","coordinates":[13.94067,46.10239]},{"code":"B/S5-0507","program":"wwbota","name":"Želin zaklonišče id: 262 -utrdba,bunker","coordinates":[13.94002,46.1025]},{"code":"B/S5-0508","program":"wwbota","name":"Želin Mala utrdba 65 -utrdba,bunker","coordinates":[13.93913,46.10147]},{"code":"B/S5-0509","program":"wwbota","name":"Želin utrjena vojašnica  id:76 - utrdba,bunker","coordinates":[13.93869,46.103]},{"code":"B/S5-0510","program":"wwbota","name":"Zakriž Srednja utrdba  id:80 -utrdba,bunker","coordinates":[13.96147,46.13361]},{"code":"B/S5-0511","program":"wwbota","name":"Zakriž Velika utrdba 3 -utrdba,bunker","coordinates":[13.96492,46.13182]},{"code":"B/S5-0512","program":"wwbota","name":"Gorje Utrdba 2 -utrdba,bunker","coordinates":[13.9682,46.14471]},{"code":"B/S5-0513","program":"wwbota","name":"Gorje Utrdba 1 -utrdba,bunker","coordinates":[13.96491,46.15253]},{"code":"B/S5-0514","program":"wwbota","name":"Poče Porezn zaklonišče id: 347 -utrdba,bunker","coordinates":[13.983,46.16922]},{"code":"B/S5-0515","program":"wwbota","name":"Poče Porezn utrjena vojašnica  id:349 - utrdba,bunker","coordinates":[13.98378,46.16633]},{"code":"B/S5-0516","program":"wwbota","name":"Poče Porezn zaklonišče id: 350 -utrdba,bunker","coordinates":[13.99303,46.1666]},{"code":"B/S5-0517","program":"wwbota","name":"Poče Porezn zaklonišče id: 344 -utrdba,bunker","coordinates":[13.99146,46.16287]},{"code":"B/S5-0518","program":"wwbota","name":"Porezen Mala utrdba 2 -utrdba,bunker","coordinates":[13.97554,46.17817]},{"code":"B/S5-0519","program":"wwbota","name":"Porezen Srednja utrdba 1 -utrdba,bunker","coordinates":[13.97489,46.17675]},{"code":"B/S5-0520","program":"wwbota","name":"Porezen utrjena vojašnica  id:39  - utrdba,bunker","coordinates":[13.98007,46.18565]},{"code":"B/S5-0521","program":"wwbota","name":"Pohoški kup Srednja utrdba 3 -utrdba,bunker","coordinates":[13.98118,46.18636]},{"code":"B/S5-0522","program":"wwbota","name":"Porezen Mala utrdba id:612  -utrdba,bunker","coordinates":[13.98128,46.1956]},{"code":"B/S5-0523","program":"wwbota","name":"Petrovo Brdo zaklonišče id: 89 -utrdba,bunker","coordinates":[13.98389,46.20543]},{"code":"B/S5-0524","program":"wwbota","name":"Petrovo Brdo zaklonišče id: 58 -utrdba,bunker","coordinates":[13.98524,46.20285]},{"code":"B/S5-0525","program":"wwbota","name":"Petrovo Brdo zaklonišče id: 477 -utrdba,bunker","coordinates":[13.9811,46.20541]},{"code":"B/S5-0526","program":"wwbota","name":"Petrovo Brdo utrjena vojašnica  id:54- utrdba,bunker","coordinates":[13.98108,46.20592]},{"code":"B/S5-0527","program":"wwbota","name":"Petrovo Brdo zaklonišče id: 56-utrdba,bunker","coordinates":[13.9843,46.20702]},{"code":"B/S5-0529","program":"wwbota","name":"Petrovo Brdo utrjena vojašnica id:52- utrdba,bunker","coordinates":[13.9997,46.21331]},{"code":"B/S5-0530","program":"wwbota","name":"Petrovo Brdo mala utrdba 709","coordinates":[13.99928,46.21384]},{"code":"B/S5-0534","program":"wwbota","name":"Petrovo Brdo mala utrdba  id:613","coordinates":[13.99711,46.2223]},{"code":"B/S5-0535","program":"wwbota","name":"Petrovo Brdo utrjena zradba bunker id: 476","coordinates":[13.99006,46.22008]},{"code":"B/S5-0536","program":"wwbota","name":"Možic zaklonišče id: 44 -utrdba,bunker","coordinates":[13.99519,46.23731]},{"code":"B/S5-0537","program":"wwbota","name":"Možic utrjena vojašnica id:43- utrdba,bunker","coordinates":[13.99599,46.23725]},{"code":"B/S5-0538","program":"wwbota","name":"Možic bojni blok id: 511","coordinates":[13.99374,46.24131]},{"code":"B/S5-0539","program":"wwbota","name":"Možic bojni blok id: 510","coordinates":[13.99328,46.24125]},{"code":"B/S5-0540","program":"wwbota","name":"Vrh Bače Mala utrdba 1 ID:41","coordinates":[13.98038,46.23699]},{"code":"B/S5-0541","program":"wwbota","name":"Ugorje utrjen Topniški položaj id: 269","coordinates":[13.95335,46.21605]},{"code":"B/S5-0542","program":"wwbota","name":"Zadlaz-Zabiče utrjen Topniški položaj id: 520","coordinates":[13.78625,46.20493]},{"code":"B/S5-0543","program":"wwbota","name":"Zadlaz-Žabiče utrjena vojašnica id:32 bunker utrdba","coordinates":[13.78452,46.20595]},{"code":"B/S5-0544","program":"wwbota","name":"Ljubinj utrjena vojašnica id:31 bunker utrdba","coordinates":[13.79705,46.2194]},{"code":"B/S5-0545","program":"wwbota","name":"Ljubinj zaklonišče utrdba,bunker id:487 bunker,zaklonišče,zavetišče","coordinates":[13.79738,46.21943]},{"code":"B/S5-0546","program":"wwbota","name":"Ljubinj utrjena zgradba bunker id:486","coordinates":[13.79688,46.21928]},{"code":"B/S5-0547","program":"wwbota","name":"Ljubinj zaklonišče id: 266 -utrdba,bunker bunker,zaklonišče,zavetišče","coordinates":[13.80489,46.23692]},{"code":"B/S5-0548","program":"wwbota","name":"Razor utrjena postojanka id:208 -bunker,vojašnica,zatočišče","coordinates":[13.79327,46.23572]},{"code":"B/S5-0549","program":"wwbota","name":"Tolminske Ravne utrjna vojašnica id: 30 - bunker ,zatočišče","coordinates":[13.80173,46.24391]},{"code":"B/S5-0550","program":"wwbota","name":"Tolminske Ravne utrjena postojanka id:8 -bunker,vojašnica,zatočišče","coordinates":[13.8025,46.24351]},{"code":"B/S5-0551","program":"wwbota","name":"Tolminske Ravne utrjna vojašnica id: 7 - bunker ,zatočišče","coordinates":[13.77188,46.22938]},{"code":"B/S5-0552","program":"wwbota","name":"Tolminske Ravne utrjna postojanka id: 73 - bunker ,zatočišče","coordinates":[13.77113,46.23222]},{"code":"B/S5-0553","program":"wwbota","name":"Tolminske Ravne utrjen Topniški položaj id: 519  -bunker,položaj","coordinates":[13.75879,46.23288]},{"code":"B/S5-0554","program":"wwbota","name":"Tolminske Ravne utrjena postojanka id:419 -bunker,vojašnica,zatočišče","coordinates":[13.76362,46.23925]},{"code":"B/S5-0555","program":"wwbota","name":"Tolminske Ravne utrjena opazovalnica id:362 utrdba,biunker,opazovalnica","coordinates":[13.75039,46.23902]},{"code":"B/S5-0557","program":"wwbota","name":"Podmelc-Hum Mala utrdba 2 id:35","coordinates":[13.79991,46.16914]},{"code":"B/S5-0558","program":"wwbota","name":"Podmelc-Hum Mala utrdba 1 ID:34","coordinates":[13.79945,46.16802]},{"code":"B/S5-0559","program":"wwbota","name":"Sela nad Podmelcem utrjena vojašnica id:10 -utrdba,zavetišče,zaklonišče","coordinates":[13.81568,46.17825]},{"code":"B/S5-0560","program":"wwbota","name":"Koritnica  utrjena vojašnica id:20 -utrdba,zavetišče,zaklonišče","coordinates":[13.87103,46.16478]},{"code":"B/S5-0561","program":"wwbota","name":"Bukovo utrjena vojašnica id:92 -utrdba,zavetišče,zaklonišče","coordinates":[13.90427,46.15017]},{"code":"B/S5-0562","program":"wwbota","name":"Bača pri Modreju Srednja utrdba 1 id:72","coordinates":[13.76627,46.14367]},{"code":"B/S5-0563","program":"wwbota","name":"Bača pri Modreju Srednja utrdba 2 id:71","coordinates":[13.76945,46.14566]},{"code":"B/S5-0564","program":"wwbota","name":"Bača pri Modreju Mala utrdba 3 id:447","coordinates":[13.7658,46.14607]},{"code":"B/S5-0565","program":"wwbota","name":"Bača pri Modreju Protitankovski položaj 3 id:73","coordinates":[13.76675,46.14611]},{"code":"B/S5-0566","program":"wwbota","name":"Bača pri Modreju zaklonišče id: 74 -utrdba,bunker","coordinates":[13.7636,46.14757]}]}