{"lat":46,"lon":11.75,"programs":["gma","pota","sota"],"count":36,"references":[{"code":"XI/TN-072","program":"gma","name":"Sass de Mura","coordinates":[11.9254,46.1636]},{"code":"XI/TN-087","program":"gma","name":"Piz di Sagron","coordinates":[11.9285,46.176]},{"code":"IT-2074","program":"pota","name":"Val Noana Natura 2000","coordinates":[11.8503,46.1183]},{"code":"IT-0102","program":"pota","name":"Lago di Busche - Vincheto di Cellarda - Fontane Natura 2000","coordinates":[11.969,46.008]},{"code":"IT-0103","program":"pota","name":"Riserva Naturale Vette Feltrine State Natural Reserve","coordinates":[11.8497,46.0825]},{"code":"IT-0264","program":"pota","name":"Riserva Statale Piazza del Diavolo State Reserve","coordinates":[11.8777,46.1118]},{"code":"IT-0372","program":"pota","name":"Riserva Naturale Monte Pavione Provincial Park","coordinates":[11.8161,46.0986]},{"code":"IT-1901","program":"pota","name":"Torbiera di Lipoi Natura 2000","coordinates":[11.9567,46.0386]},{"code":"IT-1925","program":"pota","name":"Torbiere di Lac Torond Natura 2000","coordinates":[11.9914,46.2381]},{"code":"I/TN-038","program":"sota","name":"Sass Maor / Cima della Madonna","coordinates":[11.8485,46.2324]},{"code":"I/TN-042","program":"sota","name":"Cima di Ball","coordinates":[11.8444,46.2433]},{"code":"I/TN-060","program":"sota","name":"Sasso d'Ortiga","coordinates":[11.9156,46.2375]},{"code":"I/TN-067","program":"sota","name":"Sasso delle Lede","coordinates":[11.8732,46.2393]},{"code":"I/TN-079","program":"sota","name":"Punta della Madonna","coordinates":[11.913,46.2317]},{"code":"I/TN-093","program":"sota","name":"Cima Scanaiol","coordinates":[11.7658,46.2147]},{"code":"I/TN-110","program":"sota","name":"Le Rocchette","coordinates":[11.9044,46.2167]},{"code":"I/TN-115","program":"sota","name":"Monte Ramezza","coordinates":[11.8783,46.1178]},{"code":"I/TN-123","program":"sota","name":"Pale del Garofolo – Quota 2150","coordinates":[11.9269,46.1804]},{"code":"I/TN-152","program":"sota","name":"Spiz del Doch","coordinates":[11.7985,46.2001]},{"code":"I/TN-172","program":"sota","name":"Monte Vederna","coordinates":[11.7889,46.1294]},{"code":"I/TN-332","program":"sota","name":"Cima Folga","coordinates":[11.7545,46.1984]},{"code":"I/VE-027","program":"sota","name":"Croda Granda","coordinates":[11.9291,46.2487]},{"code":"I/VE-109","program":"sota","name":"Monte Pavione","coordinates":[11.8214,46.1045]},{"code":"I/VE-111","program":"sota","name":"Cimon del Piz / Punta del Comedon","coordinates":[11.9556,46.1683]},{"code":"I/VE-144","program":"sota","name":"Monte Brandol","coordinates":[11.9789,46.1704]},{"code":"I/VE-161","program":"sota","name":"Monte Pala del Ciso","coordinates":[11.9883,46.1367]},{"code":"I/VE-167","program":"sota","name":"Monte Colsento","coordinates":[11.9203,46.1385]},{"code":"I/VE-178","program":"sota","name":"Monte Tre Pietre","coordinates":[11.9806,46.1212]},{"code":"I/VE-185","program":"sota","name":"Monte San Mauro – Quota 1872","coordinates":[11.909,46.0971]},{"code":"I/VE-227","program":"sota","name":"Monte Avena","coordinates":[11.8221,46.0313]},{"code":"I/VE-228","program":"sota","name":"Monte Gardellon","coordinates":[11.9751,46.2312]},{"code":"I/VE-243","program":"sota","name":"Cima di Lan","coordinates":[11.7563,46.0098]},{"code":"I/VE-258","program":"sota","name":"Monte Aurin","coordinates":[11.8412,46.0092]},{"code":"I/VE-263","program":"sota","name":"Monte Telva","coordinates":[11.9371,46.0151]},{"code":"I/VE-289","program":"sota","name":"Sass de Mura","coordinates":[11.9254,46.1636]},{"code":"I/VE-291","program":"sota","name":"Piz di Sagron","coordinates":[11.9285,46.176]}]}