{"lat":46,"lon":-63,"programs":["pota","wwbota"],"count":10,"references":[{"code":"CA-4662","program":"pota","name":"Clarkin Bog Natural Area","coordinates":[-62.868,46.247]},{"code":"CA-4684","program":"pota","name":"Hancock-Macdonald Belle River Forest Natural Area","coordinates":[-62.795,46.005]},{"code":"CA-4691","program":"pota","name":"Jenkins Complex Natural Area","coordinates":[-62.9123,46.2457]},{"code":"CA-4702","program":"pota","name":"MacLeans Pond Natural Area","coordinates":[-62.8359,46.2028]},{"code":"CA-4708","program":"pota","name":"Mary Swanston Woodlands Natural Area","coordinates":[-62.81,46.097]},{"code":"CA-4730","program":"pota","name":"Pinette Hemlocks Woodland Natural Area","coordinates":[-62.869,46.082]},{"code":"CA-4753","program":"pota","name":"Southern Queens Hardwoods (Ronald And Mary Mackay Natural Area","coordinates":[-62.756,46.065]},{"code":"CA-5791","program":"pota","name":"Sir Andrew MacPhail Homestead National Historic Site","coordinates":[-62.8233,46.1614]},{"code":"B/CA-0988","program":"wwbota","name":"Telegraph: Murray Harbour-Charlottetown CNR","coordinates":[-62.8233944,46.1205671]},{"code":"B/CA-0989","program":"wwbota","name":"RCMP Radio: Montague-Charlottetown","coordinates":[-62.88954555,46.2016532]}]}