{"lat":46,"lon":10.25,"programs":["gma","pota","sota"],"count":23,"references":[{"code":"XI/LO-338","program":"gma","name":"Cimone della Bagozza","coordinates":[10.25059986,46.01169968]},{"code":"IT-0449","program":"pota","name":"Incisioni rupestri di Ceto, Cimbergo e Paspardo World Heritage Site","coordinates":[10.3603,46.0311]},{"code":"IT-0640","program":"pota","name":"Parco Naturale Adamello Natura 2000","coordinates":[10.4641,46.0429]},{"code":"IT-2098","program":"pota","name":"Foresta di Legnoli Natura 2000","coordinates":[10.2616,46.0561]},{"code":"IT-2099","program":"pota","name":"Belvedere - Tri Plane Natura 2000","coordinates":[10.3761,46.0567]},{"code":"IT-2100","program":"pota","name":"Lago di Pile Natura 2000","coordinates":[10.4531,46.0147]},{"code":"I/LO-006","program":"sota","name":"Monte Adamello","coordinates":[10.4964,46.1561]},{"code":"I/LO-013","program":"sota","name":"Corno Baitone","coordinates":[10.4414,46.1728]},{"code":"I/LO-050","program":"sota","name":"Corno di Mezzodì","coordinates":[10.4533,46.201]},{"code":"I/LO-066","program":"sota","name":"Monte Frisozzo","coordinates":[10.4488,46.0243]},{"code":"I/LO-068","program":"sota","name":"Monte Aviolo","coordinates":[10.3987,46.1851]},{"code":"I/LO-079","program":"sota","name":"Monte Campellio","coordinates":[10.4775,46.0514]},{"code":"I/LO-082","program":"sota","name":"Monte Marser","coordinates":[10.4294,46.1112]},{"code":"I/LO-100","program":"sota","name":"Cima della Bacchetta","coordinates":[10.28,46.0107]},{"code":"I/LO-121","program":"sota","name":"Cima Cadi","coordinates":[10.2945,46.2232]},{"code":"I/LO-139","program":"sota","name":"Monte Pagano","coordinates":[10.3424,46.2477]},{"code":"I/LO-141","program":"sota","name":"Motto della Scala","coordinates":[10.282,46.2136]},{"code":"I/LO-152","program":"sota","name":"Pizzo di Tanerle","coordinates":[10.2811,46.0514]},{"code":"I/LO-157","program":"sota","name":"Monte Campione","coordinates":[10.2506,46.0359]},{"code":"I/LO-462","program":"sota","name":"Cima Plem","coordinates":[10.46326,46.15141]},{"code":"I/LO-470","program":"sota","name":"Cima Mengol","coordinates":[10.25717,46.01583]},{"code":"I/LO-472","program":"sota","name":"Monte Cuel","coordinates":[10.26475,46.04626]},{"code":"I/TN-031","program":"sota","name":"Monte Re di Castello","coordinates":[10.4832,46.0216]}]}