{"lat":46,"lon":19.75,"programs":["pota"],"count":5,"references":[{"code":"RS-0017","program":"pota","name":"Palić Nature Park","coordinates":[19.7584,46.0983]},{"code":"RS-0060","program":"pota","name":"Ludoško jezero Nature Reserve","coordinates":[19.822,46.104]},{"code":"RS-0086","program":"pota","name":"Selevenjske pustare Nature Reserve","coordinates":[19.9053,46.1465]},{"code":"RS-0015","program":"pota","name":"Kamaraš Nature Park","coordinates":[19.99,46.1568]},{"code":"RS-0233","program":"pota","name":"Kanjiški Jaraši Area of Outstanding Natural Beauty","coordinates":[19.988,46.0417]}]}