{"lat":46,"lon":13,"programs":["pota","sota"],"count":13,"references":[{"code":"IT-0547","program":"pota","name":"Riserva Naturale del Lago di Cornino Regional Reserve","coordinates":[13.0357,46.2335]},{"code":"IT-1282","program":"pota","name":"Biotopo Torbiera di Lazzacco Other Conservation Area","coordinates":[13.1599,46.1327]},{"code":"IT-1285","program":"pota","name":"Torbiera di Casasola e Andreuzza Natura 2000","coordinates":[13.0761,46.1969]},{"code":"IT-1286","program":"pota","name":"Biotopo Torbiera di Borgo Pegoraro Other Conservation Area","coordinates":[13.1149,46.1254]},{"code":"IT-1287","program":"pota","name":"Biotopo Torbiera Cichinot Other Conservation Area","coordinates":[13.1745,46.2016]},{"code":"IT-1299","program":"pota","name":"Quadri di Fagagna Natura 2000","coordinates":[13.0795,46.1307]},{"code":"IT-1300","program":"pota","name":"Biotopo Prati della piana di Bertrando Other Conservation Area","coordinates":[13.1611,46.0631]},{"code":"IT-1301","program":"pota","name":"Biotopo Prati del Lavia Other Conservation Area","coordinates":[13.1636,46.0452]},{"code":"IT-1310","program":"pota","name":"Biotopo Palude di Fontana Abisso Other Conservation Area","coordinates":[13.0959,46.202]},{"code":"IT-1330","program":"pota","name":"Biotopo Magredi di San Canciano Other Conservation Area","coordinates":[13.1749,46.023]},{"code":"IT-1353","program":"pota","name":"Biotopo Dell'Acqua Caduta Other Conservation Area","coordinates":[13.0216,46.205]},{"code":"IT-1448","program":"pota","name":"Lago di Ragogna Natura 2000","coordinates":[13.0025,46.1744]},{"code":"I/FV-177","program":"sota","name":"Monte Stella","coordinates":[13.236,46.2472]}]}