{"lat":46,"lon":13.25,"programs":["gma","pota","sota","wwbota"],"count":21,"references":[{"code":"S50/TK-108","program":"gma","name":"Mija","coordinates":[13.47939968,46.2256012]},{"code":"IT-0555","program":"pota","name":"Forra del Cornappo Natura 2000","coordinates":[13.2969,46.2425]},{"code":"IT-0588","program":"pota","name":"Rio Chiarò di Cialla Natura 2000","coordinates":[13.4639,46.0654]},{"code":"IT-0813","program":"pota","name":"Magredi di Firmano Natura 2000","coordinates":[13.4086,46.0753]},{"code":"IT-0942","program":"pota","name":"Palude di Racchiuso Natura 2000","coordinates":[13.3103,46.1668]},{"code":"IT-1547","program":"pota","name":"Torrente Lerada Natura 2000","coordinates":[13.3933,46.2114]},{"code":"IT-1548","program":"pota","name":"Forra del Pradolino e Monte Mia Natura 2000","coordinates":[13.4661,46.2097]},{"code":"SI-0089","program":"pota","name":"Alpe Adria Trail E10 - Breg pri Golem Brdu - Dobrovo National Recreation Trail","coordinates":[13.4983,46.0495]},{"code":"SI-0366","program":"pota","name":"Razgledna točka Logje Scenic Site","coordinates":[13.433,46.2364]},{"code":"SI-0367","program":"pota","name":"Napoleonov most Nadiža Historic Site","coordinates":[13.4388,46.2293]},{"code":"SI-0368","program":"pota","name":"Reka Nadiža National Park","coordinates":[13.4643,46.2456]},{"code":"SI-1120","program":"pota","name":"BIMOBIS Kolesarski krog Robič-Tolmin Recreation Site","coordinates":[13.4973,46.2175]},{"code":"I/FV-145","program":"sota","name":"Monte Mia","coordinates":[13.4763,46.2215]},{"code":"I/FV-152","program":"sota","name":"Monte Ioànaz","coordinates":[13.4171,46.1886]},{"code":"I/FV-156","program":"sota","name":"Monte Vogu","coordinates":[13.4496,46.2071]},{"code":"I/FV-158","program":"sota","name":"Monte Cripia","coordinates":[13.3587,46.2311]},{"code":"I/FV-167","program":"sota","name":"Monte Iauar","coordinates":[13.38,46.1878]},{"code":"I/FV-170","program":"sota","name":"Monti la Bernadia – Quota 878","coordinates":[13.2555,46.2386]},{"code":"I/FV-173","program":"sota","name":"Monte Cladis","coordinates":[13.3176,46.2384]},{"code":"B/IT-0162","program":"wwbota","name":"Bunker (Platischis Casermetta  / FVG)","coordinates":[13.39071,46.23967]},{"code":"B/IT-0163","program":"wwbota","name":"Bunker (Postazioni  / FVG)","coordinates":[13.39397,46.18118]}]}