{"lat":46,"lon":21.25,"programs":["pota"],"count":5,"references":[{"code":"RO-0032","program":"pota","name":"Muresului Park","coordinates":[21.3433,46.1684]},{"code":"RO-0072","program":"pota","name":"Eminescu Park","coordinates":[21.3204,46.1753]},{"code":"RO-0073","program":"pota","name":"Children’s Park","coordinates":[21.3206,46.1734]},{"code":"RO-0074","program":"pota","name":"Pãdurice Park","coordinates":[21.3223,46.1838]},{"code":"RO-0393","program":"pota","name":"Europa Park","coordinates":[21.3333,46.1787]}]}