{"lat":46,"lon":26.25,"programs":["pota","sota"],"count":11,"references":[{"code":"RO-1023","program":"pota","name":"Nemira Nature Reserve","coordinates":[26.313,46.2445]},{"code":"RO-1118","program":"pota","name":"Munții Nemira Protected Area","coordinates":[26.4526,46.2136]},{"code":"RO-1179","program":"pota","name":"Traseul de creastă - Munții Nemira National Recreation Trail","coordinates":[26.3613,46.0624]},{"code":"RO-1225","program":"pota","name":"Munții Nemira Natural Area","coordinates":[26.3444,46.1376]},{"code":"YO/EC-097","program":"sota","name":"Șandrul Mare","coordinates":[26.3394,46.1993]},{"code":"YO/EC-100","program":"sota","name":"Nemira Mică","coordinates":[26.325,46.2308]},{"code":"YO/EC-268","program":"sota","name":"Muntele Negru","coordinates":[26.3675,46.0183]},{"code":"YO/EC-346","program":"sota","name":"Pufu","coordinates":[26.4258,46.2275]},{"code":"YO/EC-351","program":"sota","name":"Piatra Runcului","coordinates":[26.4992,46.1242]},{"code":"YO/EC-357","program":"sota","name":"Păltiniș","coordinates":[26.4608,46.1925]},{"code":"YO/EC-399","program":"sota","name":"Pravila","coordinates":[26.4742,46.2492]}]}