{"lat":46,"lon":8.25,"programs":["gma","pota","sota"],"count":30,"references":[{"code":"HB9/TI-1009","program":"gma","name":"Pizzo dell'Alpe Gelato","coordinates":[8.44439983,46.24919891]},{"code":"IT-0171","program":"pota","name":"Sacro Monte Calvario di Domodossola World Heritage Site","coordinates":[8.2873,46.1069]},{"code":"IT-0374","program":"pota","name":"Riserva Naturale Monte Mottac Provincial Park","coordinates":[8.41315,46.0653]},{"code":"IT-0672","program":"pota","name":"Parco Nazionale della Val Grande National Park","coordinates":[8.46085,46.0294]},{"code":"IT-1507","program":"pota","name":"Greto Torrente Toce tra Domodossola e Villadossola Natura 2000","coordinates":[8.27,46.0435]},{"code":"IT-2016","program":"pota","name":"Val Formazza Natura 2000","coordinates":[8.37954,46.2437]},{"code":"HB/TI-069","program":"sota","name":"Pizzo del Lago Gelato/​Pizzo dell'Alpe Gelato","coordinates":[8.4441,46.2498]},{"code":"HB/TI-076","program":"sota","name":"Pizz da Madèi/​Pizzo Medaro","coordinates":[8.4686,46.233]},{"code":"I/PM-122","program":"sota","name":"Pizzo la Scheggia","coordinates":[8.4151,46.1842]},{"code":"I/PM-128","program":"sota","name":"Punta di Pezza Comune","coordinates":[8.4594,46.2236]},{"code":"I/PM-131","program":"sota","name":"Cima dei Casaletti","coordinates":[8.4222,46.1933]},{"code":"I/PM-140","program":"sota","name":"Cima di Canogia","coordinates":[8.4138,46.2079]},{"code":"I/PM-144","program":"sota","name":"Pizzo di Campolatte","coordinates":[8.4487,46.2132]},{"code":"I/PM-145","program":"sota","name":"Monte Togano","coordinates":[8.3947,46.0897]},{"code":"I/PM-146","program":"sota","name":"Pizzo Ragno","coordinates":[8.4219,46.1014]},{"code":"I/PM-147","program":"sota","name":"Pizzo Ruggia","coordinates":[8.4827,46.1927]},{"code":"I/PM-152","program":"sota","name":"Pizzo Tignolino","coordinates":[8.3734,46.0848]},{"code":"I/PM-153","program":"sota","name":"Monte Larone","coordinates":[8.3625,46.219]},{"code":"I/PM-157","program":"sota","name":"Testa di Menta","coordinates":[8.3733,46.0758]},{"code":"I/PM-159","program":"sota","name":"Pizzo di Fontanalba","coordinates":[8.4667,46.1995]},{"code":"I/PM-160","program":"sota","name":"Cima della Laurasca","coordinates":[8.4756,46.0583]},{"code":"I/PM-161","program":"sota","name":"Pizzo Stagno","coordinates":[8.459,46.0773]},{"code":"I/PM-164","program":"sota","name":"Bocchetta di Ruggia – Quota 2170","coordinates":[8.4825,46.1853]},{"code":"I/PM-166","program":"sota","name":"Monte Loccia di Paver / Pieve","coordinates":[8.4065,46.1654]},{"code":"I/PM-168","program":"sota","name":"Pizzo della Rossola","coordinates":[8.3517,46.0381]},{"code":"I/PM-171","program":"sota","name":"Pizzo delle Pecore","coordinates":[8.3257,46.035]},{"code":"I/PM-174","program":"sota","name":"Pizzo del Lesino","coordinates":[8.4073,46.0217]},{"code":"I/PM-185","program":"sota","name":"La Forculla – Quota 1850","coordinates":[8.4907,46.0858]},{"code":"I/PM-199","program":"sota","name":"Torrione di Bettola","coordinates":[8.4252,46.0038]},{"code":"I/PM-329","program":"sota","name":"Pizzo Proman","coordinates":[8.3945,46.0242]}]}