{"lat":46,"lon":-73.25,"programs":["pota","wwbota"],"count":9,"references":[{"code":"CA-0963","program":"pota","name":"Parc Carré Royal (Royal Square) National Historic Site","coordinates":[-73.1151,46.044]},{"code":"CA-0971","program":"pota","name":"Parc de la Pointe-aux-Pins Recreation Park","coordinates":[-73.1274,46.0479]},{"code":"CA-1002","program":"pota","name":"Parc Regard-sur-le-Fleuve Recreation Park","coordinates":[-73.1064,46.0472]},{"code":"CA-1954","program":"pota","name":"Parc de la Maison-des-Gouverneurs National Historic Site","coordinates":[-73.1165,46.0325]},{"code":"CA-2021","program":"pota","name":"Refuge faunique de la Grande-Île Wildlife Reserve","coordinates":[-73.0225,46.1204]},{"code":"CA-2045","program":"pota","name":"Parc Hervé-Larivière Recreation Park","coordinates":[-73.1042,46.0312]},{"code":"CA-2250","program":"pota","name":"Fort Richelieu National Historic Site","coordinates":[-73.1171,46.0459]},{"code":"CA-5008","program":"pota","name":"Societe de conservation d'interpretation et de recherche de Berthier et ses Iles Regional Park","coordinates":[-73.1642,46.0847]},{"code":"B/CA-1241","program":"wwbota","name":"FRP BB4","coordinates":[-73.113754,46.03894403]}]}