{"lat":46,"lon":10.75,"programs":["gma","pota","sota"],"count":32,"references":[{"code":"IT/TN-1011","program":"gma","name":"Croz dell'Altissimo","coordinates":[10.94110012,46.16939926]},{"code":"IT-1338","program":"pota","name":"Lago di Toblino Natura 2000","coordinates":[10.9681,46.0556]},{"code":"IT-1759","program":"pota","name":"Dolomiti di Brenta Natura 2000","coordinates":[10.91,46.1942]},{"code":"I/TN-011","program":"sota","name":"Cima Tosa","coordinates":[10.872,46.1556]},{"code":"I/TN-013","program":"sota","name":"Cima Brenta","coordinates":[10.9,46.1797]},{"code":"I/TN-018","program":"sota","name":"Cima Falkner","coordinates":[10.9052,46.1931]},{"code":"I/TN-022","program":"sota","name":"Torre di Brenta","coordinates":[10.8949,46.1677]},{"code":"I/TN-027","program":"sota","name":"Pietra Grande","coordinates":[10.8958,46.2317]},{"code":"I/TN-028","program":"sota","name":"Corno di Flavona","coordinates":[10.897,46.246]},{"code":"I/TN-036","program":"sota","name":"Corno di Senaso","coordinates":[10.858,46.1267]},{"code":"I/TN-040","program":"sota","name":"Cima di Brenta Bassa","coordinates":[10.8936,46.1552]},{"code":"I/TN-047","program":"sota","name":"Cima Gess / Ghez","coordinates":[10.9028,46.1241]},{"code":"I/TN-051","program":"sota","name":"Monte Serodoli","coordinates":[10.7696,46.238]},{"code":"I/TN-052","program":"sota","name":"Doss di Dalum","coordinates":[10.9016,46.1336]},{"code":"I/TN-053","program":"sota","name":"Monte Daino","coordinates":[10.915,46.1506]},{"code":"I/TN-054","program":"sota","name":"Termoncello","coordinates":[10.9469,46.2193]},{"code":"I/TN-058","program":"sota","name":"Cima Gaiarda","coordinates":[10.9308,46.189]},{"code":"I/TN-070","program":"sota","name":"Monte Corona","coordinates":[10.9698,46.2156]},{"code":"I/TN-074","program":"sota","name":"Castello dei Camosci","coordinates":[10.8432,46.0994]},{"code":"I/TN-094","program":"sota","name":"Cima dei Lasteri","coordinates":[10.9482,46.1764]},{"code":"I/TN-096","program":"sota","name":"Pizzo Gallino / Piz Galin","coordinates":[10.9624,46.1777]},{"code":"I/TN-104","program":"sota","name":"Monte Turrion Basso","coordinates":[10.9281,46.2085]},{"code":"I/TN-109","program":"sota","name":"Pala dei Mughi","coordinates":[10.826,46.1506]},{"code":"I/TN-128","program":"sota","name":"Doss del Sabion","coordinates":[10.8065,46.1676]},{"code":"I/TN-132","program":"sota","name":"La Petta","coordinates":[10.7884,46.1074]},{"code":"I/TN-142","program":"sota","name":"Cima Sera","coordinates":[10.7896,46.0229]},{"code":"I/TN-150","program":"sota","name":"Monte Ranzo","coordinates":[10.9778,46.1008]},{"code":"I/TN-151","program":"sota","name":"Cima Durmonte","coordinates":[10.7595,46.0835]},{"code":"I/TN-166","program":"sota","name":"Monte Casale","coordinates":[10.9271,46.0317]},{"code":"I/TN-177","program":"sota","name":"Granzoline","coordinates":[10.9109,46.0049]},{"code":"I/TN-183","program":"sota","name":"Monte San Martino","coordinates":[10.8089,46.0381]},{"code":"I/TN-196","program":"sota","name":"Monte Garzolet / Piccolo Dain","coordinates":[10.9481,46.0527]}]}