{"lat":46,"lon":-123.5,"programs":["pota","sota"],"count":6,"references":[{"code":"US-0582","program":"pota","name":"Julia Butler Hansen National Wildlife Refuge","coordinates":[-123.399,46.2322]},{"code":"US-10607","program":"pota","name":"Bradley State Park","coordinates":[-123.437,46.1712]},{"code":"US-12983","program":"pota","name":"Gnat Creek State Fish Hatchery","coordinates":[-123.487,46.1696]},{"code":"W7O/NC-013","program":"sota","name":"Nicolai Mountain","coordinates":[-123.4579,46.0873]},{"code":"W7O/NC-039","program":"sota","name":"Clatskanie Mountain","coordinates":[-123.2823,46.066]},{"code":"W7W/LC-152","program":"sota","name":"1510 Deviation Mtn","coordinates":[-123.3166,46.1795]}]}