{"lat":46,"lon":-115.5,"programs":["sota"],"count":7,"references":[{"code":"W7I/IC-126","program":"sota","name":"Chimney Peak","coordinates":[-115.2596,46.1913]},{"code":"W7I/IC-160","program":"sota","name":"Gedney Mountain","coordinates":[-115.2596,46.1499]},{"code":"W7I/IC-194","program":"sota","name":"Coolwater Mountain","coordinates":[-115.4571,46.1544]},{"code":"W7I/IC-273","program":"sota","name":"5916","coordinates":[-115.4051,46.0001]},{"code":"W7I/IC-279","program":"sota","name":"Glover Ridge","coordinates":[-115.3271,46.121]},{"code":"W7I/IC-283","program":"sota","name":"Sheep Hill","coordinates":[-115.429,46.1871]},{"code":"W7I/IC-290","program":"sota","name":"Saddle Ridge","coordinates":[-115.4632,46.0466]}]}