{"lat":46,"lon":-60.75,"programs":["pota","sota","wwbota"],"count":6,"references":[{"code":"CA-0951","program":"pota","name":"St. Anns Provincial Park","coordinates":[-60.6222,46.2068]},{"code":"CA-1790","program":"pota","name":"MacAulays Hill Nature Reserve","coordinates":[-60.662,46.1377]},{"code":"CA-4826","program":"pota","name":"Alexander Graham Bell National Historic Site","coordinates":[-60.7458,46.1031]},{"code":"CA-5446","program":"pota","name":"Ross Ferry Provincial Park","coordinates":[-60.5855,46.1442]},{"code":"VE1/CB-016","program":"sota","name":"Blueberry Barren","coordinates":[-60.6103,46.0005]},{"code":"B/CA-0915","program":"wwbota","name":"RCMP Radio: Inverness-Sydney","coordinates":[-60.74982435,46.1839805]}]}