{"lat":46,"lon":12.25,"programs":["gma","pota","sota"],"count":31,"references":[{"code":"IT/VE-1012","program":"gma","name":"Monte Serva","coordinates":[12.3888998,46.23720169]},{"code":"IT-0121","program":"pota","name":"Palù di Livenza World Heritage Site","coordinates":[12.4873,46.0159]},{"code":"IT-0683","program":"pota","name":"Parco Rurale di San Floriano Other Conservation Area","coordinates":[12.4992,46.0257]},{"code":"IT-1447","program":"pota","name":"Foresta del Cansiglio (Friuli V.G.) Natura 2000","coordinates":[12.4459,46.0685]},{"code":"IT-0303","program":"pota","name":"Pian Di Landro Baldassare Provincial Park Reserve","coordinates":[12.4345,46.0963]},{"code":"IT-0376","program":"pota","name":"Riserva Naturale Monte Faverghera State Natural Reserve","coordinates":[12.2977,46.0842]},{"code":"IT-0428","program":"pota","name":"Riserva Naturale Integrale Piaie Longhe - Millifret Provincial Park","coordinates":[12.3597,46.0615]},{"code":"IT-0572","program":"pota","name":"Riserva Naturale Campo di Mezzo-Pian Parrocchia Provincial Park","coordinates":[12.3754,46.0508]},{"code":"IT-0576","program":"pota","name":"Riserva Naturale Bus della Genziana Provincial Park","coordinates":[12.4003,46.058]},{"code":"IT-1446","program":"pota","name":"Foresta del Cansiglio (Veneto) Natura 2000","coordinates":[12.4133,46.0827]},{"code":"IT-1452","program":"pota","name":"Lago di Santa Croce Natura 2000","coordinates":[12.3403,46.1101]},{"code":"IT-1486","program":"pota","name":"Monte Dolada Versante S.E. Natura 2000","coordinates":[12.3475,46.1932]},{"code":"I/FV-034","program":"sota","name":"Cimon del Cavallo","coordinates":[12.4967,46.13]},{"code":"I/FV-098","program":"sota","name":"Monte Frugna","coordinates":[12.4289,46.2411]},{"code":"I/FV-110","program":"sota","name":"Monte Castello – Quota 1714","coordinates":[12.456,46.2203]},{"code":"I/FV-114","program":"sota","name":"Monte Provagna","coordinates":[12.4695,46.2295]},{"code":"I/FV-118","program":"sota","name":"Cima di Campo","coordinates":[12.3844,46.246]},{"code":"I/VE-076","program":"sota","name":"Col Nudo","coordinates":[12.4033,46.2275]},{"code":"I/VE-108","program":"sota","name":"Cimon","coordinates":[12.4033,46.2092]},{"code":"I/VE-128","program":"sota","name":"Monte Messer","coordinates":[12.4554,46.1742]},{"code":"I/VE-131","program":"sota","name":"Monte Venale","coordinates":[12.4439,46.1856]},{"code":"I/VE-133","program":"sota","name":"Monte Castelat","coordinates":[12.4803,46.137]},{"code":"I/VE-134","program":"sota","name":"Crep Nudo","coordinates":[12.4461,46.2075]},{"code":"I/VE-174","program":"sota","name":"Col Mat","coordinates":[12.3694,46.2086]},{"code":"I/VE-181","program":"sota","name":"Cima Mora","coordinates":[12.3429,46.2406]},{"code":"I/VE-182","program":"sota","name":"Monte Dolada","coordinates":[12.3363,46.1934]},{"code":"I/VE-195","program":"sota","name":"Croda Bianca – Quota 1784","coordinates":[12.3508,46.2361]},{"code":"I/VE-198","program":"sota","name":"Col Visentin","coordinates":[12.2822,46.0561]},{"code":"I/VE-209","program":"sota","name":"Cima Calda","coordinates":[12.3281,46.2075]},{"code":"I/VE-214","program":"sota","name":"Monte Millifret","coordinates":[12.3486,46.0533]},{"code":"I/VE-219","program":"sota","name":"Spiz Gallina","coordinates":[12.3212,46.2271]}]}