{"lat":46,"lon":12,"programs":["gma","pota","sota"],"count":44,"references":[{"code":"IT/VE-1014","program":"gma","name":"Monte Boral","coordinates":[12.20419979,46.02170181]},{"code":"IT-0106","program":"pota","name":"Riserva Naturale Valle Scura State Natural Reserve","coordinates":[12.0037,46.1295]},{"code":"IT-0107","program":"pota","name":"Riserva Naturale Valle Imperina State Natural Reserve","coordinates":[12.0404,46.244]},{"code":"IT-0194","program":"pota","name":"Riserva Naturale Schiara Occidentale Provincial Park","coordinates":[12.1495,46.2017]},{"code":"IT-0363","program":"pota","name":"Monti del Sole State Natural Reserve","coordinates":[12.0921,46.205]},{"code":"IT-0664","program":"pota","name":"Parco Nazionale delle Dolomiti Bellunesi National Park","coordinates":[12.0486,46.1854]},{"code":"IT-1456","program":"pota","name":"Dorsale prealpina tra Valdobbiadene e Serravalle Natura 2000","coordinates":[12.14,46.0001]},{"code":"IT-1482","program":"pota","name":"Fontane di Nogare' Natura 2000","coordinates":[12.2358,46.1459]},{"code":"IT-1593","program":"pota","name":"Fiume Piave dai Maserot alle grave di Pederobba Natura 2000","coordinates":[12.0707,46.0791]},{"code":"IT-1902","program":"pota","name":"Aree palustri di Melere - Monte Gal e boschi di Col d'Ongia Natura 2000","coordinates":[12.2153,46.0469]},{"code":"IT-1903","program":"pota","name":"Valpiana - Valmorel (Aree palustri) Natura 2000","coordinates":[12.2272,46.0744]},{"code":"IT-1905","program":"pota","name":"Torbiera di Antole Natura 2000","coordinates":[12.1753,46.1376]},{"code":"I/VE-056","program":"sota","name":"Monte Schiara","coordinates":[12.1823,46.23]},{"code":"I/VE-065","program":"sota","name":"Monte Pelf – Quota 2506","coordinates":[12.1958,46.2317]},{"code":"I/VE-127","program":"sota","name":"Piz Di Mezzodì","coordinates":[12.0361,46.2189]},{"code":"I/VE-139","program":"sota","name":"Monte Pizzocco","coordinates":[12.0098,46.14]},{"code":"I/VE-146","program":"sota","name":"Cima Bus del Diaol","coordinates":[12.078,46.2096]},{"code":"I/VE-148","program":"sota","name":"Monte Agnellezze","coordinates":[12.0046,46.1843]},{"code":"I/VE-150","program":"sota","name":"Monte Serva","coordinates":[12.2327,46.2014]},{"code":"I/VE-152","program":"sota","name":"Passo di Cimia – Quota 2127","coordinates":[12.003,46.1424]},{"code":"I/VE-154","program":"sota","name":"Monte Feruch","coordinates":[12.0675,46.2174]},{"code":"I/VE-160","program":"sota","name":"Monte Alto","coordinates":[12.082,46.1971]},{"code":"I/VE-170","program":"sota","name":"Monte Duron / Tiron De Mompiana","coordinates":[12.1704,46.2073]},{"code":"I/VE-172","program":"sota","name":"Pizzo Di Mezzo","coordinates":[12.0484,46.2306]},{"code":"I/VE-173","program":"sota","name":"Monte Coro","coordinates":[12.1408,46.2304]},{"code":"I/VE-175","program":"sota","name":"Cimon di Peralora","coordinates":[12.0796,46.1894]},{"code":"I/VE-183","program":"sota","name":"Pala Alta","coordinates":[12.1489,46.1958]},{"code":"I/VE-187","program":"sota","name":"Pala Bassa","coordinates":[12.1584,46.2042]},{"code":"I/VE-189","program":"sota","name":"Monte Cervoi / Zervoi","coordinates":[12.2287,46.2185]},{"code":"I/VE-194","program":"sota","name":"Monte Terne / Zimon de Terne","coordinates":[12.1808,46.1998]},{"code":"I/VE-203","program":"sota","name":"Monte Roa Bianca","coordinates":[12.0364,46.1709]},{"code":"I/VE-211","program":"sota","name":"Punta della Spirlonga","coordinates":[12.1318,46.2252]},{"code":"I/VE-216","program":"sota","name":"Punta delle Antenne","coordinates":[12.088,46.2255]},{"code":"I/VE-220","program":"sota","name":"La Rocchetta","coordinates":[12.1088,46.215]},{"code":"I/VE-221","program":"sota","name":"Col Alt","coordinates":[12.0005,46.2395]},{"code":"I/VE-225","program":"sota","name":"Monte Peron","coordinates":[12.1355,46.1766]},{"code":"I/VE-226","program":"sota","name":"Col Pizzon","coordinates":[12.0815,46.2384]},{"code":"I/VE-231","program":"sota","name":"Col de Moi","coordinates":[12.1283,46.0017]},{"code":"I/VE-234","program":"sota","name":"Colon de Forcellon","coordinates":[12.1466,46.2184]},{"code":"I/VE-236","program":"sota","name":"Monte Vedana","coordinates":[12.0915,46.1692]},{"code":"I/VE-239","program":"sota","name":"Monte Cimone","coordinates":[12.1887,46.0092]},{"code":"I/VE-240","program":"sota","name":"Cima Vallon Scuro","coordinates":[12.1438,46.0016]},{"code":"I/VE-241","program":"sota","name":"Monte Coi Alti","coordinates":[12.1193,46.2371]},{"code":"I/VE-242","program":"sota","name":"Monte Sperone","coordinates":[12.0666,46.155]}]}