{"lat":46,"lon":4.5,"programs":["gma","pota","sota"],"count":28,"references":[{"code":"FA/MC-022","program":"gma","name":"Montagne de Montclair","coordinates":[4.51970005,46.1330986]},{"code":"FR-4075","program":"pota","name":"Gite a chauves-souris des mines de Vallossieres Natura 2000","coordinates":[4.53833,46.0775]},{"code":"FR-5328","program":"pota","name":"Lit majeur de la Saone Biological Reserve","coordinates":[4.74328,46.0603]},{"code":"FR-5329","program":"pota","name":"Bois Baron Biological Reserve","coordinates":[4.70968,46.0345]},{"code":"FR-5330","program":"pota","name":"Bocage du bois Baron Biological Reserve","coordinates":[4.70492,46.044]},{"code":"FR-5332","program":"pota","name":"Riviere de l'Ardieres Biological Reserve","coordinates":[4.7491,46.1175]},{"code":"FR-5334","program":"pota","name":"Ancienne sabliere de Lancie Biological Reserve","coordinates":[4.74275,46.1718]},{"code":"FR-11365","program":"pota","name":"Landes du haut-Beaujolais Biological Reserve","coordinates":[4.5836,46.0848]},{"code":"FR-11368","program":"pota","name":"Ruisseau de Marchampt Biological Reserve","coordinates":[4.55317,46.1187]},{"code":"FR-11387","program":"pota","name":"Mines des Brosses Biological Reserve","coordinates":[4.61804,46.1699]},{"code":"FR-11388","program":"pota","name":"Col du fut d'Avenas Biological Reserve","coordinates":[4.62748,46.1891]},{"code":"FR-11389","program":"pota","name":"Ruisseau de Changy Biological Reserve","coordinates":[4.64224,46.2317]},{"code":"FR-11391","program":"pota","name":"Prairies des Rousses Biological Reserve","coordinates":[4.71718,46.1]},{"code":"FR-11392","program":"pota","name":"Mares des Rousses Biological Reserve","coordinates":[4.70551,46.0888]},{"code":"FR-11393","program":"pota","name":"Mines du bout du monde Biological Reserve","coordinates":[4.55656,46.066]},{"code":"FR-11996","program":"pota","name":"Croix des Essards Biological Reserve","coordinates":[4.552,46.212]},{"code":"FR-12008","program":"pota","name":"Abords du col de Crie Biological Reserve","coordinates":[4.537,46.21]},{"code":"FR-13031","program":"pota","name":"Ruisseau des planches et ses affluents, mines de Monsols Biological Reserve","coordinates":[4.51,46.215]},{"code":"FR-13041","program":"pota","name":"Riviere de l’Ardieres et ses aflluents Biological Reserve","coordinates":[4.539,46.186]},{"code":"FR-13624","program":"pota","name":"Bocage et forets du nord d’Ouroux Biological Reserve","coordinates":[4.589,46.238]},{"code":"FR-13639","program":"pota","name":"BEAUJOLAIS SEPTENTRIONAL : HAUT-BASSIN DES GROSNES Biological Reserve","coordinates":[4.567,46.22]},{"code":"FR-14609","program":"pota","name":"Riviere de la Grosne orientale et ses affluents Biological Reserve","coordinates":[4.582,46.239]},{"code":"F/MC-096","program":"sota","name":"Mont Tourvéon","coordinates":[4.5069,46.1589]},{"code":"F/MC-112","program":"sota","name":"Mont Soubran","coordinates":[4.5323,46.109]},{"code":"F/MC-113","program":"sota","name":"Montagne de Rochefort","coordinates":[4.5859,46.1823]},{"code":"F/MC-116","program":"sota","name":"La Pyramide","coordinates":[4.5331,46.0503]},{"code":"F/MC-119","program":"sota","name":"Fôret de la Cantinière","coordinates":[4.5496,46.009]},{"code":"F/MC-260","program":"sota","name":"Mont Brouilly","coordinates":[4.6536,46.1087]}]}