{"lat":46,"lon":3.75,"programs":["pota","sota"],"count":8,"references":[{"code":"FR-2640","program":"pota","name":"BOIS DE LESPINASSE, DE LA BENISSON-DIEU ET DE LA PACAUDIERE - FR8201764 Natura 2000","coordinates":[3.97167,46.1614]},{"code":"FR-2763","program":"pota","name":"MONTS DE LA MADELEINE FR8301019 NATURA 2000 Natura 2000","coordinates":[3.80056,46.0089]},{"code":"FR-12803","program":"pota","name":"Etangs de la Borde Biological Reserve","coordinates":[3.9,46.169]},{"code":"FR-12804","program":"pota","name":"Etangs de Coree Biological Reserve","coordinates":[3.902,46.183]},{"code":"FR-12805","program":"pota","name":"MASSIF FORESTIER DE L’ESPINASSE ET LA BENISSON -DIEU Biological Reserve","coordinates":[3.97,46.163]},{"code":"FR-12806","program":"pota","name":"Foret de Lespinasse Biological Reserve","coordinates":[3.99,46.165]},{"code":"FR-12807","program":"pota","name":"Ruisseau de la Teyssonne Biological Reserve","coordinates":[3.829,46.119]},{"code":"F/MC-063","program":"sota","name":"Pierres du Jour","coordinates":[3.7992,46.0003]}]}