{"lat":46,"lon":3.5,"programs":["pota"],"count":8,"references":[{"code":"FR-3921","program":"pota","name":"Rivieres de la Montagne Bourbonnaise Natura 2000","coordinates":[3.6461,46.0127]},{"code":"FR-4076","program":"pota","name":"Gites a chauves-souris, Contreforts et Montagne Bourbonnaise Natura 2000","coordinates":[3.50967,46.0408]},{"code":"FR-12802","program":"pota","name":"ETANG DE LA GODINIERE Biological Reserve","coordinates":[3.693,46.232]},{"code":"FR-12808","program":"pota","name":"SECTEUR ENTRE ISSERPENT ET CHATEL-MONTAGNE Biological Reserve","coordinates":[3.649,46.132]},{"code":"FR-12809","program":"pota","name":"VALLEE DU SICHON A L'ARDOISIERE Biological Reserve","coordinates":[3.506,46.099]},{"code":"FR-12811","program":"pota","name":"ENVIRONS DE BUSSET Biological Reserve","coordinates":[3.523,46.068]},{"code":"FR-12812","program":"pota","name":"MINE DE FLUORINE DE BUSSET Biological Reserve","coordinates":[3.514,46.024]},{"code":"FR-12813","program":"pota","name":"ENVIRONS DE RIS Biological Reserve","coordinates":[3.514,46.001]}]}