{"lat":46.25,"lon":-115.25,"programs":["sota"],"count":8,"references":[{"code":"W7I/IC-144","program":"sota","name":"7530","coordinates":[-115.1274,46.2897]},{"code":"W7I/IC-151","program":"sota","name":"Eagle Mountain","coordinates":[-115.117,46.3379]},{"code":"W7I/IC-156","program":"sota","name":"Wounded Doe Ridge","coordinates":[-115.0264,46.3003]},{"code":"W7I/IC-226","program":"sota","name":"Castle Butte","coordinates":[-115.2201,46.4341]},{"code":"W7I/IC-230","program":"sota","name":"6615","coordinates":[-115.1462,46.4845]},{"code":"W7I/IC-237","program":"sota","name":"Bald Mountain","coordinates":[-115.2426,46.4544]},{"code":"W7I/IC-254","program":"sota","name":"Grave Butte","coordinates":[-115.1157,46.4613]},{"code":"W7I/IC-268","program":"sota","name":"Doe Point","coordinates":[-115.0393,46.2521]}]}