{"lat":46.25,"lon":-123.25,"programs":["sota"],"count":8,"references":[{"code":"W7W/LC-128","program":"sota","name":"2643 Bandplan Pk","coordinates":[-123.1774,46.3258]},{"code":"W7W/LC-129","program":"sota","name":"Abernathy Mountain","coordinates":[-123.0964,46.3355]},{"code":"W7W/LC-149","program":"sota","name":"1660 Bandpass Mtn","coordinates":[-123.0141,46.362]},{"code":"W7W/PL-098","program":"sota","name":"Boistfort Peak","coordinates":[-123.2144,46.4877]},{"code":"W7W/PL-100","program":"sota","name":"3020 General Class Butte","coordinates":[-123.2161,46.4341]},{"code":"W7W/PL-110","program":"sota","name":"2700 Encoder Mtn","coordinates":[-123.2483,46.3977]},{"code":"W7W/PL-128","program":"sota","name":"Clinton Knob","coordinates":[-123.1596,46.4157]},{"code":"W7W/PL-148","program":"sota","name":"Sure Shot Mountain","coordinates":[-123.1404,46.476]}]}