{"lat":46.25,"lon":4.5,"programs":["pota","sota"],"count":52,"references":[{"code":"FR-11390","program":"pota","name":"Flanc est du col de Gerbet Biological Reserve","coordinates":[4.66287,46.2606]},{"code":"FR-13607","program":"pota","name":"Bocage de la Salle et bois des Serpeux Biological Reserve","coordinates":[4.584,46.264]},{"code":"FR-2702","program":"pota","name":"GROSNE ET CLUNISOIS FR2601016 Natura 2000","coordinates":[4.62167,46.4614]},{"code":"FR-2703","program":"pota","name":"PELOUSES CALCICOLES DU MACONNAIS FR2600972 Natura 2000","coordinates":[4.72139,46.3003]},{"code":"FR-5248","program":"pota","name":"Ruisseau de la Petite Grosne Biological Reserve","coordinates":[4.6557,46.2767]},{"code":"FR-7629","program":"pota","name":"HAUT CLUNYSOIS Biological Reserve","coordinates":[4.55331,46.3222]},{"code":"FR-13679","program":"pota","name":"Riviere de la Grosne orientale et ses affluents Biological Reserve","coordinates":[4.585,46.257]},{"code":"FR-15004","program":"pota","name":"ROCHES SUD-MCONNAISES Biological Reserve","coordinates":[4.696,46.313]},{"code":"FR-15005","program":"pota","name":"MONT DE BESSET A SAINT-VERAND Biological Reserve","coordinates":[4.708,46.253]},{"code":"FR-15006","program":"pota","name":"CARRIERE LES MALATRAYS Biological Reserve","coordinates":[4.716,46.258]},{"code":"FR-15007","program":"pota","name":"PELOUSES DU TELEGRAPHE A PRUZILLY Biological Reserve","coordinates":[4.69,46.259]},{"code":"FR-15008","program":"pota","name":"RUISSEAU DE L'ARLOIS Biological Reserve","coordinates":[4.722,46.272]},{"code":"FR-15009","program":"pota","name":"PELOUSE DE LEYNES ET BOIS DE LA FEE Biological Reserve","coordinates":[4.735,46.27]},{"code":"FR-15010","program":"pota","name":"ROCHE DE SOLUTRE, MONT DE POUILLY Biological Reserve","coordinates":[4.72,46.299]},{"code":"FR-15011","program":"pota","name":"ROCHE DE VERGISSON Biological Reserve","coordinates":[4.717,46.314]},{"code":"FR-15012","program":"pota","name":"LE TORVON ET LES BRUYERES A SERRIERES ET VERGISSON Biological Reserve","coordinates":[4.695,46.307]},{"code":"FR-15013","program":"pota","name":"MONSARD Biological Reserve","coordinates":[4.711,46.343]},{"code":"FR-15014","program":"pota","name":"MONTAGNE DE CRAS Biological Reserve","coordinates":[4.686,46.348]},{"code":"FR-15015","program":"pota","name":"ANCIENNE CARRIERE DU COL DES ENCEINTS Biological Reserve","coordinates":[4.677,46.35]},{"code":"FR-15016","program":"pota","name":"PRES, ZONES HUMIDES ET RUISSEAU A BOURGVILAIN ET SAINT-POINT Biological Reserve","coordinates":[4.667,46.352]},{"code":"FR-15017","program":"pota","name":"LA MERE BOITIER A TRAMAYES Biological Reserve","coordinates":[4.623,46.305]},{"code":"FR-15018","program":"pota","name":"RUISSEAU DE SEVES A TRAMAYES ET GERMOLLES-SUR-GROSNE Biological Reserve","coordinates":[4.593,46.29]},{"code":"FR-15019","program":"pota","name":"BOCAGE, ZONES HUMIDES, BOIS A SAINT-LEGER-SOUS-LA-BUSSIERE Biological Reserve","coordinates":[4.579,46.296]},{"code":"FR-15020","program":"pota","name":"RUISSEAUX DU MASSIF DU BEAUJOLAIS Biological Reserve","coordinates":[4.532,46.281]},{"code":"FR-15023","program":"pota","name":"CARRIERE DE SAINTE-CECILE Biological Reserve","coordinates":[4.612,46.379]},{"code":"FR-15024","program":"pota","name":"RUISSEAUX DE L'EST DU CHAROLAIS GRANITIQUE Biological Reserve","coordinates":[4.588,46.363]},{"code":"FR-15025","program":"pota","name":"BOCAGE ET RUISSEAUX A MONTAGNY-SUR-GROSNE Biological Reserve","coordinates":[4.546,46.358]},{"code":"FR-15030","program":"pota","name":"FORET DES TROIS MONTS ET BOCAGE DE SIVIGNON Biological Reserve","coordinates":[4.557,46.417]},{"code":"FR-15031","program":"pota","name":"RUISSEAUX, BOCAGE ET ZONES HUMIDES DU SUD DE LA COTE CHALONNAISE Biological Reserve","coordinates":[4.635,46.441]},{"code":"FR-15032","program":"pota","name":"RUISSEAUX, PRAIRIES ET ETANG A DONZY-LE-NATIONAL ET PRESSY-SOUS-DONDIN Biological Reserve","coordinates":[4.564,46.454]},{"code":"FR-15033","program":"pota","name":"CLUNYSOIS CALCAIRE Biological Reserve","coordinates":[4.646,46.465]},{"code":"FR-15035","program":"pota","name":"GROSNE ET GUYE Biological Reserve","coordinates":[4.57,46.489]},{"code":"FR-15042","program":"pota","name":"RUISSEAU DE JOUX A AZE ET COTEAU DE VAUX SUR AINE Biological Reserve","coordinates":[4.74,46.452]},{"code":"FR-15059","program":"pota","name":"COTE DU BOIS DE LA ROCHE ET DE MONTERIN DE DONZY-LE-PERTUIS A CHISSEY-LES-MACON Biological Reserve","coordinates":[4.727,46.494]},{"code":"FR-15060","program":"pota","name":"RUISSEAUX, BOCAGE ET ZONES HUMIDES DE LA SOURCE VERNAT A BRAY Biological Reserve","coordinates":[4.727,46.494]},{"code":"FR-15061","program":"pota","name":"MARAIS, FORETS MARECAGEUSES ET RUISSEAU DE CORTAMBERT Biological Reserve","coordinates":[4.688,46.48]},{"code":"FR-15062","program":"pota","name":"RUISSEAUX DES ARGOLETS ET DE GESSY A CORTAMBERT Biological Reserve","coordinates":[4.686,46.456]},{"code":"FR-15063","program":"pota","name":"ZONES HUMIDES ET SOURCES DES BROSSES A DONZY-LE-PERTUIS Biological Reserve","coordinates":[4.737,46.443]},{"code":"FR-15064","program":"pota","name":"BOIS DE BOURCIER, BOIS DE VAUX ET LEURS RUISSEAUX Biological Reserve","coordinates":[4.708,46.427]},{"code":"FR-15065","program":"pota","name":"BOIS ET BOCAGE AUTOUR DU TUNNEL DU BOIS CLAIR A BERZE-LE-CHATEL Biological Reserve","coordinates":[4.676,46.398]},{"code":"FR-15066","program":"pota","name":"LA GRANDE CHASSAIGNE Biological Reserve","coordinates":[4.724,46.389]},{"code":"FR-15067","program":"pota","name":"RUISSEAU DE VAUX-PRE A VERZE Biological Reserve","coordinates":[4.711,46.388]},{"code":"FR-15068","program":"pota","name":"MONTAGNE DE LA FA ET ROCHE COCHE A VERZE ET BERZE-LA-VILLE Biological Reserve","coordinates":[4.712,46.368]},{"code":"FR-15069","program":"pota","name":"GROTTE DE BERZE-LA-VILLE Biological Reserve","coordinates":[4.699,46.366]},{"code":"FR-15070","program":"pota","name":"BAS-CLUNYSOIS Biological Reserve","coordinates":[4.56,46.416]},{"code":"FL/VL-012","program":"sota","name":"Mont de Mandé","coordinates":[4.7145,46.4252]},{"code":"FL/VL-013","program":"sota","name":"Bois de Châtelaine","coordinates":[4.5572,46.4069]},{"code":"FL/VL-031","program":"sota","name":"La Mère Boitier","coordinates":[4.6317,46.3025]},{"code":"FL/VL-032","program":"sota","name":"La Pierre de Fay","coordinates":[4.645,46.3325]},{"code":"FL/VL-041","program":"sota","name":"Roche Claye","coordinates":[4.6,46.3492]},{"code":"FL/VL-054","program":"sota","name":"Rouvray","coordinates":[4.5167,46.3542]},{"code":"FL/VL-082","program":"sota","name":"La Rochette","coordinates":[4.7333,46.3483]}]}