{"lat":46.25,"lon":-112.5,"programs":["sota"],"count":9,"references":[{"code":"W7M/GA-080","program":"sota","name":"Bison Mountain","coordinates":[-112.3965,46.3952]},{"code":"W7M/GA-109","program":"sota","name":"Treasure Mountain","coordinates":[-112.3847,46.4574]},{"code":"W7M/HB-040","program":"sota","name":"Jack Mountain","coordinates":[-112.2914,46.3385]},{"code":"W7M/HB-046","program":"sota","name":"Thunderbolt Mountain","coordinates":[-112.4539,46.3291]},{"code":"W7M/HB-047","program":"sota","name":"Middle Three Brothers","coordinates":[-112.2607,46.3915]},{"code":"W7M/HB-058","program":"sota","name":"8251","coordinates":[-112.2556,46.4205]},{"code":"W7M/HB-066","program":"sota","name":"8074","coordinates":[-112.4318,46.349]},{"code":"W7M/HB-085","program":"sota","name":"Pole Mountain","coordinates":[-112.3023,46.2818]},{"code":"W7M/HB-086","program":"sota","name":"7589","coordinates":[-112.3733,46.3402]}]}