{"lat":46.25,"lon":-67.75,"programs":["pota","sota","wwbota"],"count":17,"references":[{"code":"CA-1220","program":"pota","name":"Arthur Kyle Nature Reserve","coordinates":[-67.5324,46.302]},{"code":"CA-1228","program":"pota","name":"Clarke Brook Nature Reserve","coordinates":[-67.6417,46.3421]},{"code":"CA-1246","program":"pota","name":"Oakland Mountain Nature Reserve","coordinates":[-67.5592,46.42]},{"code":"CA-1259","program":"pota","name":"Williamstown Lake Protected Area","coordinates":[-67.7064,46.2917]},{"code":"CA-4406","program":"pota","name":"Green Island Nature Reserve","coordinates":[-67.6019,46.4611]},{"code":"CA-4423","program":"pota","name":"Lakeville Protected Area","coordinates":[-67.6733,46.3466]},{"code":"CA-4520","program":"pota","name":"Stickney Protected Area","coordinates":[-67.54,46.366]},{"code":"CA-4532","program":"pota","name":"Two Mile Brook Fen Protected Area","coordinates":[-67.673,46.362]},{"code":"CA-5167","program":"pota","name":"Eagle's Eye Nature Reserve","coordinates":[-67.5616,46.3599]},{"code":"CA-5245","program":"pota","name":"Hartland Covered Bridge National Historic Site","coordinates":[-67.5278,46.2969]},{"code":"CA-6517","program":"pota","name":"Shogomoc Railway Site Historic Site","coordinates":[-67.5795,46.4727]},{"code":"CA-6522","program":"pota","name":"Stickney Area Veterans National Memorial","coordinates":[-67.5665,46.3855]},{"code":"CA-6540","program":"pota","name":"New Brunswick #10 Wildlife Management Area","coordinates":[-67.6662,46.3665]},{"code":"CA-6580","program":"pota","name":"Hartland Veterans' Memorial National Memorial","coordinates":[-67.5286,46.2985]},{"code":"VE9/CA-006","program":"sota","name":"Oakland","coordinates":[-67.55944,46.42028]},{"code":"VE9/CA-007","program":"sota","name":"Pinnacle","coordinates":[-67.56944,46.44194]},{"code":"B/CA-0766","program":"wwbota","name":"FRP NB22","coordinates":[-67.613276,46.44279303]}]}