{"lat":46.25,"lon":9.5,"programs":["gma","pota","sota"],"count":44,"references":[{"code":"HB9/GR-1004","program":"gma","name":"Piz Lunghin","coordinates":[9.67029953,46.41059875]},{"code":"HB9/GR-1017","program":"gma","name":"Punta Pioda di Sciora","coordinates":[9.62749958,46.30310059]},{"code":"CH-0215","program":"pota","name":"Val Bondasca – Val da l’Albigna Natural Monument","coordinates":[9.58562,46.2967]},{"code":"HB/GR-016","program":"sota","name":"Piz Platta","coordinates":[9.5617,46.4871]},{"code":"HB/GR-020","program":"sota","name":"Cima di Castello","coordinates":[9.6775,46.3019]},{"code":"HB/GR-021","program":"sota","name":"Pizzo Cengalo","coordinates":[9.602,46.2949]},{"code":"HB/GR-022","program":"sota","name":"Cima di Rosso","coordinates":[9.7184,46.3065]},{"code":"HB/GR-046","program":"sota","name":"Monte del Forno","coordinates":[9.7247,46.3382]},{"code":"HB/GR-057","program":"sota","name":"Piz Fedoz","coordinates":[9.7407,46.3596]},{"code":"HB/GR-064","program":"sota","name":"Pizzo di Zocca","coordinates":[9.6498,46.2898]},{"code":"HB/GR-071","program":"sota","name":"Piz Lagrev","coordinates":[9.723,46.4457]},{"code":"HB/GR-073","program":"sota","name":"Mazzaspitz","coordinates":[9.5741,46.4652]},{"code":"HB/GR-076","program":"sota","name":"Piz da la Margna","coordinates":[9.73,46.382]},{"code":"HB/GR-092","program":"sota","name":"Piz Duan","coordinates":[9.5833,46.3757]},{"code":"HB/GR-122","program":"sota","name":"Pizzo Badile","coordinates":[9.5877,46.2948]},{"code":"HB/GR-130","program":"sota","name":"Usser Wissberg","coordinates":[9.5199,46.4939]},{"code":"HB/GR-163","program":"sota","name":"Piz Bacun","coordinates":[9.6824,46.3422]},{"code":"HB/GR-164","program":"sota","name":"Punta Pioda","coordinates":[9.6276,46.3032]},{"code":"HB/GR-173","program":"sota","name":"Piz Surpare","coordinates":[9.5953,46.4652]},{"code":"HB/GR-199","program":"sota","name":"Tscheischhorn","coordinates":[9.5174,46.4278]},{"code":"HB/GR-201","program":"sota","name":"Piz Turba","coordinates":[9.6057,46.4103]},{"code":"HB/GR-203","program":"sota","name":"Grauhörner","coordinates":[9.578,46.4149]},{"code":"HB/GR-215","program":"sota","name":"Wissberg","coordinates":[9.5288,46.3931]},{"code":"HB/GR-220","program":"sota","name":"Piz Materdell","coordinates":[9.6937,46.4356]},{"code":"HB/GR-221","program":"sota","name":"Bödengrat","coordinates":[9.5226,46.4071]},{"code":"HB/GR-223","program":"sota","name":"Piz Cänt dal Gerl","coordinates":[9.5456,46.3709]},{"code":"HB/GR-226","program":"sota","name":"Piz Valletta Nordgipfel","coordinates":[9.7321,46.487]},{"code":"HB/GR-232","program":"sota","name":"Piz Neir","coordinates":[9.6802,46.4844]},{"code":"HB/GR-249","program":"sota","name":"Punkt 2848 bei Sur al Cant","coordinates":[9.6098,46.4231]},{"code":"HB/GR-252","program":"sota","name":"Piz Bardella","coordinates":[9.7029,46.4823]},{"code":"HB/GR-266","program":"sota","name":"Uf da Flüe","coordinates":[9.604,46.4369]},{"code":"HB/GR-269","program":"sota","name":"Roccabella","coordinates":[9.6814,46.4474]},{"code":"HB/GR-275","program":"sota","name":"Motta da Sett","coordinates":[9.6483,46.4133]},{"code":"HB/GR-276","program":"sota","name":"Piz Cam","coordinates":[9.6108,46.3699]},{"code":"HB/GR-281","program":"sota","name":"Pizzi di Maroz","coordinates":[9.6231,46.3833]},{"code":"HB/GR-346","program":"sota","name":"Torrone Occidentale","coordinates":[9.6873,46.294]},{"code":"HB/GR-347","program":"sota","name":"Torrone Orientale","coordinates":[9.7017,46.2909]},{"code":"HB/GR-348","program":"sota","name":"Cima della Bondasca","coordinates":[9.6223,46.2878]},{"code":"HB/GR-349","program":"sota","name":"Gletscherhorn","coordinates":[9.5606,46.3874]},{"code":"HB/GR-350","program":"sota","name":"Monte Rosso","coordinates":[9.7179,46.323]},{"code":"HB/GR-354","program":"sota","name":"Pizzun","coordinates":[9.5137,46.3696]},{"code":"I/LO-003","program":"sota","name":"Monte Disgrazia","coordinates":[9.7492,46.2693]},{"code":"I/LO-012","program":"sota","name":"Monte Sissone","coordinates":[9.7144,46.2928]},{"code":"I/LO-056","program":"sota","name":"Monte Gruf / Cima di Droso","coordinates":[9.5057,46.2865]}]}