{"lat":46.25,"lon":26.5,"programs":["pota","sota"],"count":5,"references":[{"code":"RO-1123","program":"pota","name":"Munții Berzunți Natural Area","coordinates":[26.6069,46.359]},{"code":"YO/EC-034","program":"sota","name":"Drăcoaia","coordinates":[26.5704,46.3055]},{"code":"YO/EC-365","program":"sota","name":"Măgura Berzunți","coordinates":[26.6075,46.3608]},{"code":"YO/EC-368","program":"sota","name":"Bulimandru","coordinates":[26.5592,46.4067]},{"code":"YO/EC-495","program":"sota","name":"Chitlăiele","coordinates":[26.5375,46.265]}]}