{"lat":46.25,"lon":-122.25,"programs":["pota","sota"],"count":25,"references":[{"code":"US-3385","program":"pota","name":"Mt. St. Helens National Monument","coordinates":[-122.217,46.2769]},{"code":"W7W/LC-004","program":"sota","name":"Mount Whittier","coordinates":[-122.1332,46.3256]},{"code":"W7W/LC-006","program":"sota","name":"Mount Venus","coordinates":[-122.162,46.3427]},{"code":"W7W/LC-008","program":"sota","name":"Coldwater Peak","coordinates":[-122.1817,46.3]},{"code":"W7W/LC-009","program":"sota","name":"Strawberry Mountain","coordinates":[-122.036,46.3838]},{"code":"W7W/LC-015","program":"sota","name":"Minnie Peak","coordinates":[-122.1897,46.3277]},{"code":"W7W/LC-018","program":"sota","name":"Strawberry Benchmark","coordinates":[-122.0458,46.3402]},{"code":"W7W/LC-021","program":"sota","name":"Goat Mountain","coordinates":[-122.1021,46.3637]},{"code":"W7W/LC-023","program":"sota","name":"Black Mountain","coordinates":[-122.1863,46.3585]},{"code":"W7W/LC-027","program":"sota","name":"5245 End Fed Pk","coordinates":[-122.1004,46.2994]},{"code":"W7W/LC-038","program":"sota","name":"4900 CW Ops Pk","coordinates":[-122.2238,46.3363]},{"code":"W7W/LC-044","program":"sota","name":"4657 Mt Duplex","coordinates":[-122.2177,46.3512]},{"code":"W7W/LC-045","program":"sota","name":"Bismark Mountain","coordinates":[-122.074,46.3053]},{"code":"W7W/LC-048","program":"sota","name":"Windy Ridge","coordinates":[-122.1239,46.2569]},{"code":"W7W/LC-054","program":"sota","name":"4500 High Power Mtn","coordinates":[-122.0317,46.2522]},{"code":"W7W/LC-078","program":"sota","name":"4100 Display Pk","coordinates":[-122.075,46.256]},{"code":"W7W/PL-044","program":"sota","name":"Tumwater Mountain","coordinates":[-122.1037,46.4282]},{"code":"W7W/PL-053","program":"sota","name":"Vanson Peak","coordinates":[-122.1516,46.4101]},{"code":"W7W/PL-092","program":"sota","name":"Huffaker Mountain","coordinates":[-122.0025,46.4751]},{"code":"W7W/PL-112","program":"sota","name":"Big Bottom Butte","coordinates":[-122.1458,46.4955]},{"code":"W7W/PL-127","program":"sota","name":"Glenoma Benchmark","coordinates":[-122.1003,46.4983]},{"code":"W7W/PL-129","program":"sota","name":"2340 Dummy Load Hill","coordinates":[-122.1555,46.4837]},{"code":"W7W/PL-139","program":"sota","name":"2060 Mt Capacitor","coordinates":[-122.0131,46.4418]},{"code":"W7W/PL-151","program":"sota","name":"1580 Dipole Hill","coordinates":[-122.1441,46.4651]},{"code":"W7W/PL-153","program":"sota","name":"1540 D-Layer Hill","coordinates":[-122.1051,46.472]}]}