{"lat":46.25,"lon":8.75,"programs":["gma","pota","sota"],"count":27,"references":[{"code":"HB9/TI-1014","program":"gma","name":"Cima di Precastello","coordinates":[8.90639973,46.28580093]},{"code":"CH-0198","program":"pota","name":"Val Verzasca Natural Monument","coordinates":[8.82369,46.2934]},{"code":"CH-0200","program":"pota","name":"Campolungo – Campo Tencia – Piumogna Natural Monument","coordinates":[8.79543,46.4767]},{"code":"CH-0241","program":"pota","name":"Lanche di Iragna Nature Reserve","coordinates":[8.97337,46.3291]},{"code":"CH-0246","program":"pota","name":"Lanche di Iragna Nord Wetland Reserve","coordinates":[8.96985,46.3358]},{"code":"CH-0252","program":"pota","name":"Bidré Protected Area","coordinates":[8.8188,46.4887]},{"code":"HB/TI-030","program":"sota","name":"Pizzo Forno","coordinates":[8.777,46.433]},{"code":"HB/TI-039","program":"sota","name":"Cima di Gana Bianca","coordinates":[8.9921,46.4712]},{"code":"HB/TI-048","program":"sota","name":"Pizzo di Piancói","coordinates":[8.7607,46.3983]},{"code":"HB/TI-053","program":"sota","name":"Madom Gröss","coordinates":[8.8313,46.3667]},{"code":"HB/TI-059","program":"sota","name":"Pizzo di Mezzodì","coordinates":[8.8294,46.3784]},{"code":"HB/TI-070","program":"sota","name":"Cima Bianca","coordinates":[8.8124,46.3878]},{"code":"HB/TI-073","program":"sota","name":"Pizzo Molare","coordinates":[8.8651,46.4886]},{"code":"HB/TI-074","program":"sota","name":"Punta di Stou","coordinates":[8.8651,46.4966]},{"code":"HB/TI-079","program":"sota","name":"Cima di Bri","coordinates":[8.8841,46.3051]},{"code":"HB/TI-080","program":"sota","name":"Cima di Gagnone","coordinates":[8.8469,46.3268]},{"code":"HB/TI-081","program":"sota","name":"El Ponción Söü/​Poncione Rosso","coordinates":[8.9115,46.2992]},{"code":"HB/TI-084","program":"sota","name":"El Ponción dal Vènn","coordinates":[8.9071,46.2743]},{"code":"HB/TI-088","program":"sota","name":"El Ponción Piòta","coordinates":[8.9243,46.2538]},{"code":"HB/TI-090","program":"sota","name":"Pizzo Erra","coordinates":[8.8932,46.4383]},{"code":"HB/TI-100","program":"sota","name":"Motto Crostel","coordinates":[8.8669,46.4651]},{"code":"HB/TI-114","program":"sota","name":"Poncione della Marcia","coordinates":[8.7658,46.3195]},{"code":"HB/TI-116","program":"sota","name":"Poncione d'Alnasca","coordinates":[8.8237,46.2921]},{"code":"HB/TI-118","program":"sota","name":"Pizzo Ricuca","coordinates":[8.9198,46.3296]},{"code":"HB/TI-120","program":"sota","name":"Madom da Sgióf","coordinates":[8.776,46.268]},{"code":"HB/TI-127","program":"sota","name":"La Scíma da Negröüsg","coordinates":[8.939,46.3037]},{"code":"HB/TI-160","program":"sota","name":"La Scíma da Visghéd Westgipfel","coordinates":[8.9557,46.2727]}]}