{"lat":46.25,"lon":11,"programs":["gma","pota","sota"],"count":15,"references":[{"code":"IT/AA-1026","program":"gma","name":"Monte Lira","coordinates":[11.21140003,46.39250183]},{"code":"IT/TA-1003","program":"gma","name":"Penegal","coordinates":[11.2165,46.438226]},{"code":"IT-1315","program":"pota","name":"Palu' Tremole Natura 2000","coordinates":[11.0756,46.4794]},{"code":"IT-1316","program":"pota","name":"Palu' Longia Natura 2000","coordinates":[11.085,46.4733]},{"code":"IT-1318","program":"pota","name":"Palu' di Tuenno Natura 2000","coordinates":[11.03,46.3419]},{"code":"IT-1357","program":"pota","name":"Biotopo Buche di Ghiaccio Natura 2000","coordinates":[11.2478,46.4453]},{"code":"IT-1763","program":"pota","name":"Torbiere di Monte Sous Natura 2000","coordinates":[11.0581,46.4956]},{"code":"IT-1764","program":"pota","name":"Laghetto delle Regole Natura 2000","coordinates":[11.1097,46.4764]},{"code":"I/TN-146","program":"sota","name":"Cima Roccapiana / Craunel","coordinates":[11.1341,46.26]},{"code":"I/TN-148","program":"sota","name":"Macaion / Gantkofel","coordinates":[11.21,46.4895]},{"code":"I/TN-155","program":"sota","name":"Corno di Tres","coordinates":[11.1642,46.2964]},{"code":"I/TN-156","program":"sota","name":"Monte Cuc","coordinates":[11.1348,46.2669]},{"code":"I/TN-174","program":"sota","name":"Monte Ozol","coordinates":[11.0535,46.4187]},{"code":"I/TN-319","program":"sota","name":"Monte Penegal","coordinates":[11.2168,46.4386]},{"code":"I/TN-342","program":"sota","name":"Monte Roen / Rhönberg","coordinates":[11.1911,46.3589]}]}