{"lat":46.25,"lon":25.75,"programs":["pota","sota","wwbota"],"count":12,"references":[{"code":"RO-1115","program":"pota","name":"Munții Ciucului Natural Area","coordinates":[25.987,46.439]},{"code":"RO-0264","program":"pota","name":"Castelul Mikó / Parcul Castelului Mikó Historic Site","coordinates":[25.8032,46.356]},{"code":"RO-0280","program":"pota","name":"Șaua Frumoasa, Munții Ciucului Recreation Site","coordinates":[25.9865,46.4388]},{"code":"RO-0281","program":"pota","name":"Șaua Făgețel Recreation Site","coordinates":[25.9226,46.4673]},{"code":"RO-0282","program":"pota","name":"Muntele Șumuleu-Ciuc Historic Site","coordinates":[25.8423,46.3725]},{"code":"RO-0283","program":"pota","name":"Conacul Henter, Sântimbru Historic Site","coordinates":[25.8666,46.2799]},{"code":"RO-0286","program":"pota","name":"Frumoasa Nature and Landscape Complex","coordinates":[25.889,46.4469]},{"code":"RO-0528","program":"pota","name":"Miercurea Ciuc Central Park","coordinates":[25.8018,46.3594]},{"code":"RO-1234","program":"pota","name":"Miercurea Ciuc Libertății Park","coordinates":[25.809,46.3613]},{"code":"YO/EC-218","program":"sota","name":"Păgânilor","coordinates":[25.901,46.4731]},{"code":"YO/EC-349","program":"sota","name":"Șumuleul Mare","coordinates":[25.8425,46.3728]},{"code":"B/YO-0243","program":"wwbota","name":"Miercurea-Ciuc Bunker","coordinates":[25.807762,46.355205]}]}