{"lat":46.25,"lon":-72.75,"programs":["pota","wwbota"],"count":11,"references":[{"code":"CA-0969","program":"pota","name":"Parc de l'Île Saint-Quentin Regional Park","coordinates":[-72.5212,46.352]},{"code":"CA-2126","program":"pota","name":"Marcel-Léger Ecological Reserve","coordinates":[-72.6257,46.2851]},{"code":"CA-2201","program":"pota","name":"Refuge faunique de Pointe-du-Lac Nature Reserve","coordinates":[-72.6953,46.2681]},{"code":"CA-4903","program":"pota","name":"Forges du Saint Maurice National Historic Site","coordinates":[-72.6596,46.3951]},{"code":"CA-4961","program":"pota","name":"Parc Nature La Gabelle Regional Park","coordinates":[-72.7378,46.4502]},{"code":"CA-4979","program":"pota","name":"Parc ecologique Godefroy Regional Park","coordinates":[-72.5355,46.3027]},{"code":"CA-4997","program":"pota","name":"Parc écomaritime de l'Anse-du-Port Regional Park","coordinates":[-72.6392,46.2516]},{"code":"CA-5898","program":"pota","name":"Fort Trois-Rivières National Historic Site","coordinates":[-72.5386,46.3423]},{"code":"B/CA-1308","program":"wwbota","name":"FRP CB3","coordinates":[-72.539787,46.34156403]},{"code":"B/CA-1309","program":"wwbota","name":"FRP CB34","coordinates":[-72.539635,46.34235003]},{"code":"B/CA-1584","program":"wwbota","name":"Telephone: Trois-Rivières - Shawinigan","coordinates":[-72.6507573,46.44624905]}]}