{"lat":46.25,"lon":-79,"programs":["pota","sota","wwbota"],"count":9,"references":[{"code":"CA-0373","program":"pota","name":"Samuel de Champlain Provincial Park","coordinates":[-78.8545,46.2839]},{"code":"CA-1038","program":"pota","name":"Amable du Fond River Provincial Park","coordinates":[-78.9324,46.2617]},{"code":"CA-1287","program":"pota","name":"Alexander Lake Forest Provincial Park","coordinates":[-78.9152,46.4565]},{"code":"CA-1386","program":"pota","name":"Eau Claire Gorge Conservation Reserve","coordinates":[-78.9141,46.2536]},{"code":"VE2/OU-067","program":"sota","name":"VE2/OU-067","coordinates":[-78.8292,46.4432]},{"code":"VE3/NE-479","program":"sota","name":"VE3/NE-479","coordinates":[-78.9635,46.3996]},{"code":"VE3/NE-514","program":"sota","name":"VE3/NE-514","coordinates":[-78.8081,46.3818]},{"code":"VE3/SO-121","program":"sota","name":"Elm Point","coordinates":[-78.9517,46.297]},{"code":"B/CA-1102","program":"wwbota","name":"FRP MB3","coordinates":[-78.8544047,46.2839009]}]}