{"lat":46.25,"lon":12.75,"programs":["gma","pota","sota","wwbota"],"count":32,"references":[{"code":"IT/FV-1003","program":"gma","name":"Monte Pala d'Altei","coordinates":[12.93000031,46.25030136]},{"code":"IT/FV-1004","program":"gma","name":"Monte Arvenis","coordinates":[12.9357996,46.49250031]},{"code":"IT/FV-1006","program":"gma","name":"Monte Cuar","coordinates":[12.98830032,46.45640182]},{"code":"IT-0790","program":"pota","name":"Parco Intercomunale delle Colline Carniche Other Conservation Area","coordinates":[12.8865,46.4262]},{"code":"IT-1284","program":"pota","name":"Biotopo Torbiera di Curiedi Other Conservation Area","coordinates":[12.9805,46.4262]},{"code":"IT-1531","program":"pota","name":"Col Gentile Natura 2000","coordinates":[12.8072,46.4597]},{"code":"IT-1553","program":"pota","name":"Monti Verzegnis e Valcalda Natura 2000","coordinates":[12.8644,46.3572]},{"code":"IT-1554","program":"pota","name":"Torrente Arzino Natura 2000","coordinates":[12.9344,46.2833]},{"code":"I/FV-050","program":"sota","name":"Col Gentile","coordinates":[12.8056,46.4656]},{"code":"I/FV-064","program":"sota","name":"Monte Novarza","coordinates":[12.7524,46.4923]},{"code":"I/FV-070","program":"sota","name":"Monte Tamai","coordinates":[12.9374,46.4907]},{"code":"I/FV-085","program":"sota","name":"Monte Valcalda","coordinates":[12.8352,46.3437]},{"code":"I/FV-096","program":"sota","name":"Monte Colmaier","coordinates":[12.7578,46.4314]},{"code":"I/FV-097","program":"sota","name":"Monte Burlat","coordinates":[12.8433,46.3516]},{"code":"I/FV-105","program":"sota","name":"Monte Dauda","coordinates":[12.9706,46.4778]},{"code":"I/FV-108","program":"sota","name":"Monte Piombada","coordinates":[12.9579,46.3486]},{"code":"I/FV-113","program":"sota","name":"Monte Auda","coordinates":[12.8086,46.3629]},{"code":"I/FV-117","program":"sota","name":"Monte Roppa Buffon","coordinates":[12.7665,46.3241]},{"code":"I/FV-129","program":"sota","name":"Monte Cuar","coordinates":[12.9967,46.2743]},{"code":"I/FV-134","program":"sota","name":"Monte Marsins","coordinates":[12.9372,46.4509]},{"code":"I/FV-137","program":"sota","name":"Monte Taiet","coordinates":[12.8799,46.2744]},{"code":"I/FV-139","program":"sota","name":"Monte Gran Pala","coordinates":[12.9704,46.3135]},{"code":"I/FV-141","program":"sota","name":"Monfredda","coordinates":[12.8134,46.4331]},{"code":"I/FV-142","program":"sota","name":"Zuc di Santins","coordinates":[12.8588,46.2938]},{"code":"I/FV-159","program":"sota","name":"Monte Celant","coordinates":[12.8193,46.2666]},{"code":"I/FV-161","program":"sota","name":"Forchedana","coordinates":[12.9556,46.4295]},{"code":"I/FV-166","program":"sota","name":"Monte Dobis","coordinates":[12.9831,46.4181]},{"code":"I/FV-174","program":"sota","name":"Monte Zouf","coordinates":[12.9869,46.3728]},{"code":"I/FV-301","program":"sota","name":"Monte Rest","coordinates":[12.8024,46.352]},{"code":"I/FV-304","program":"sota","name":"Monte Verzegnis / Pizzat","coordinates":[12.9055,46.3631]},{"code":"I/FV-313","program":"sota","name":"Monte Flagel / Flagjel","coordinates":[12.9687,46.2831]},{"code":"B/IT-0167","program":"wwbota","name":"Bunker (Fortino Vallo Alpino  / FVG)","coordinates":[12.92796,46.40142]}]}