{"lat":46.25,"lon":16,"programs":["gma","pota","sota","wwbota"],"count":7,"references":[{"code":"S50/GS-110","program":"gma","name":"VrbanjÅ¡ak","coordinates":[16.020556,46.369722]},{"code":"S50/GS-111","program":"gma","name":"Jeruzalem","coordinates":[16.18943,46.47898]},{"code":"HR-0067","program":"pota","name":"Vršni dio Ravne gore Natura 2000","coordinates":[16.0465,46.2945]},{"code":"SI-0028","program":"pota","name":"JERUZALEMSKO ORMOŠKE  GORICE Landscape Park","coordinates":[16.1793,46.4665]},{"code":"9A/ZH-029","program":"sota","name":"Kukelj","coordinates":[16.033432,46.292496]},{"code":"9A/ZH-037","program":"sota","name":"Babjak","coordinates":[16.04885,46.2981]},{"code":"B/S5-0328","program":"wwbota","name":"Jastrebci - Nemški obrambni  bunker","coordinates":[16.24842,46.44158]}]}