{"lat":46.25,"lon":22.5,"programs":["pota","sota"],"count":7,"references":[{"code":"RO-1075","program":"pota","name":"Munții Bihorului National Recreation Area","coordinates":[22.6888,46.4407]},{"code":"YO/WC-001","program":"sota","name":"Cucurbăta Mare","coordinates":[22.6889,46.4409]},{"code":"YO/WC-017","program":"sota","name":"Măgura Băița","coordinates":[22.5891,46.466]},{"code":"YO/WC-051","program":"sota","name":"Găina","coordinates":[22.7442,46.3458]},{"code":"YO/WC-118","program":"sota","name":"Dobrinu","coordinates":[22.5933,46.385]},{"code":"YO/WC-120","program":"sota","name":"Țiclu","coordinates":[22.625,46.3592]},{"code":"YO/WC-220","program":"sota","name":"Piatra Grăitoare","coordinates":[22.673,46.4903]}]}