{"lat":46.25,"lon":26.25,"programs":["pota","sota"],"count":11,"references":[{"code":"RO-1018","program":"pota","name":"Moinești Municipal Osoiu Park","coordinates":[26.483,46.483]},{"code":"RO-1021","program":"pota","name":"Pădurea de pini de la Moinești Nature Reserve","coordinates":[26.483,46.4749]},{"code":"RO-1022","program":"pota","name":"Lacul Bălătău National Nature Reserve","coordinates":[26.3358,46.2601]},{"code":"YO/EC-094","program":"sota","name":"Nemira Mare","coordinates":[26.3238,46.256]},{"code":"YO/EC-148","program":"sota","name":"Cărunta","coordinates":[26.25,46.4192]},{"code":"YO/EC-207","program":"sota","name":"Piscul Bașca","coordinates":[26.25,46.2975]},{"code":"YO/EC-209","program":"sota","name":"Mueruș","coordinates":[26.2633,46.38]},{"code":"YO/EC-225","program":"sota","name":"Obcina Lapoșului","coordinates":[26.3358,46.3708]},{"code":"YO/EC-292","program":"sota","name":"Plaiul Ciungetului","coordinates":[26.3767,46.2625]},{"code":"YO/EC-415","program":"sota","name":"Nineasa","coordinates":[26.4792,46.275]},{"code":"YO/EC-577","program":"sota","name":"Edera","coordinates":[26.3221,46.4301]}]}