{"lat":46.25,"lon":-124,"programs":["pota","sota","wwbota"],"count":12,"references":[{"code":"US-0597","program":"pota","name":"Willapa National Wildlife Refuge","coordinates":[-123.934,46.4147]},{"code":"US-3189","program":"pota","name":"Fort Columbia State Park","coordinates":[-123.918,46.2577]},{"code":"US-12495","program":"pota","name":"Chinook State Wildlife Area","coordinates":[-123.943,46.2837]},{"code":"W7W/PL-141","program":"sota","name":"Cowan Lookout","coordinates":[-123.7808,46.4169]},{"code":"W7W/PL-147","program":"sota","name":"Bear River Ridge","coordinates":[-123.8782,46.3432]},{"code":"W7W/PL-158","program":"sota","name":"1375 Field Effect Hill","coordinates":[-123.8972,46.2862]},{"code":"W7W/PL-164","program":"sota","name":"875 Doppler Shift Hill","coordinates":[-123.785,46.2921]},{"code":"W7W/PL-165","program":"sota","name":"675 EClearwater Hill","coordinates":[-123.8885,46.443]},{"code":"B/US-0115","program":"wwbota","name":"Fort Columbia Battery 246 (WA)","coordinates":[-123.9209,46.25196]},{"code":"B/US-0116","program":"wwbota","name":"Fort Columbia Battery Ord (WA)","coordinates":[-123.92068,46.25289]},{"code":"B/US-0117","program":"wwbota","name":"Fort Columbia Battery Van Horn (WA)","coordinates":[-123.91932,46.25229]},{"code":"B/US-0118","program":"wwbota","name":"Fort Columbia Battery Murphy (WA)","coordinates":[-123.92099,46.2516]}]}