{"lat":46.5,"lon":-116,"programs":["sota"],"count":9,"references":[{"code":"W7I/NI-193","program":"sota","name":"5180","coordinates":[-115.753,46.5568]},{"code":"W7I/NI-195","program":"sota","name":"Dull Axe Mountain","coordinates":[-115.7769,46.6888]},{"code":"W7I/NI-198","program":"sota","name":"Bald Mountain","coordinates":[-115.8991,46.5752]},{"code":"W7I/NI-236","program":"sota","name":"Silver Butte","coordinates":[-115.8135,46.7152]},{"code":"W7I/NI-250","program":"sota","name":"Whiskey Butte","coordinates":[-115.9789,46.5819]},{"code":"W7I/NI-252","program":"sota","name":"Snake Creek Ridge","coordinates":[-115.8633,46.6025]},{"code":"W7I/NI-262","program":"sota","name":"John Lewis Mountain","coordinates":[-115.9466,46.6941]},{"code":"W7I/NI-285","program":"sota","name":"Riverview Point","coordinates":[-115.9983,46.7097]},{"code":"W7I/NI-300","program":"sota","name":"Bear Butte","coordinates":[-115.8957,46.6982]}]}