{"lat":46.5,"lon":11,"programs":["gma","pota","sota","wwbota"],"count":34,"references":[{"code":"IT/AA-1013","program":"gma","name":"Cima del Vento","coordinates":[11.1722002,46.67499924]},{"code":"IT/AA-1014","program":"gma","name":"Cima Grava","coordinates":[11.1722002,46.70420074]},{"code":"IT/AA-1022","program":"gma","name":"Monte Mutta","coordinates":[11.121239,46.712472]},{"code":"IT/AA-1025","program":"gma","name":"Pietrarossa","coordinates":[11.21529961,46.62189865]},{"code":"IT/AA-1039","program":"gma","name":"Mutkopf","coordinates":[11.137869,46.710771]},{"code":"IT/AA-1040","program":"gma","name":"Fischbühel","coordinates":[11.103918,46.728892]},{"code":"IT/AA-1041","program":"gma","name":"Hochsulfen","coordinates":[11.204742,46.640971]},{"code":"IT/AA-1042","program":"gma","name":"Schwarzkopf","coordinates":[11.101748,46.741818]},{"code":"IT/AA-1043","program":"gma","name":"Segenbühel","coordinates":[11.165536,46.676903]},{"code":"IT/AA-1044","program":"gma","name":"Larchbüchel","coordinates":[11.098084,46.637109]},{"code":"IT/AA-1046","program":"gma","name":"Hirschenbichl","coordinates":[11.231669,46.622915]},{"code":"IT/AA-1047","program":"gma","name":"Kleine Rötelspitze","coordinates":[11.0985,46.7201]},{"code":"IT/AA-1049","program":"gma","name":"St.Hippolyt","coordinates":[11.1618,46.5814]},{"code":"IT/AA-1050","program":"gma","name":"Kleiner Laugen Piccolo Luco","coordinates":[11.0960712,46.5376504]},{"code":"IT/AA-1051","program":"gma","name":"Knopfberg","coordinates":[11.100263,46.5287897]},{"code":"IT/AA-1052","program":"gma","name":"Wolfsbühel Monte Lupo","coordinates":[11.2133718,46.6077789]},{"code":"IT/AA-1053","program":"gma","name":"Beimsteinknott","coordinates":[11.2297225,46.6064079]},{"code":"IT/TA-1004","program":"gma","name":"Wolfsgrube","coordinates":[11.21069,46.596589]},{"code":"IT-1270","program":"pota","name":"Biotopo Wangerau Provincial Park","coordinates":[11.0303,46.6554]},{"code":"IT-1298","program":"pota","name":"Biotopo Delta del Valsura Natura 2000","coordinates":[11.1757,46.6278]},{"code":"IT-1324","program":"pota","name":"Biotopo Ontaneti di Postal Regional Reserve","coordinates":[11.1925,46.5918]},{"code":"IT-1341","program":"pota","name":"Biotopo Laghetto di Gargazzone Regional Reserve","coordinates":[11.1891,46.5876]},{"code":"IT-1582","program":"pota","name":"Gaulschlucht Natura 2000","coordinates":[11.1262,46.6083]},{"code":"IT-1767","program":"pota","name":"Biotopo Palude della Volpe Natura 2000","coordinates":[11.2389,46.503]},{"code":"I/AA-024","program":"sota","name":"Cima Bianca Grande / Hohe Weiße","coordinates":[11.0375,46.7456]},{"code":"I/AA-028","program":"sota","name":"Cima Fiammante / Lodnerspitze","coordinates":[11.0403,46.7338]},{"code":"I/AA-138","program":"sota","name":"Cima Rosa / Rötl","coordinates":[11.0941,46.7209]},{"code":"I/AA-142","program":"sota","name":"Guardia Alta / Hochwart","coordinates":[11.0205,46.6004]},{"code":"I/AA-203","program":"sota","name":"Belvedere / Hochkührast","coordinates":[11.1825,46.5098]},{"code":"I/AA-205","program":"sota","name":"Monte di Fuori / Außerberg","coordinates":[11.1098,46.5723]},{"code":"I/AA-208","program":"sota","name":"Monte Gall / Tisner Gall","coordinates":[11.1435,46.5607]},{"code":"I/AA-324","program":"sota","name":"Monte Luco / Laugen","coordinates":[11.0858,46.5345]},{"code":"I/AA-331","program":"sota","name":"Monte Cigot / Tschigat","coordinates":[11.06,46.72]},{"code":"B/IT-0181","program":"wwbota","name":"Bunker (Opere Tel  / Trentino a a )","coordinates":[11.09356,46.67961]}]}