{"lat":46.5,"lon":2.75,"programs":["pota"],"count":5,"references":[{"code":"FR-12719","program":"pota","name":"FORET DE SOULONGIS Biological Reserve","coordinates":[2.773,46.533]},{"code":"FR-12740","program":"pota","name":"ENVIRONS DU CHATEAU DE LEVIS Biological Reserve","coordinates":[2.928,46.718]},{"code":"FR-12741","program":"pota","name":"ETANGS DE BILLOT Biological Reserve","coordinates":[2.947,46.704]},{"code":"FR-12742","program":"pota","name":"ETANG DES BRUYERES Biological Reserve","coordinates":[2.947,46.689]},{"code":"FR-12743","program":"pota","name":"ENVIRONS DE COULEUVRE Biological Reserve","coordinates":[2.915,46.68]}]}