{"lat":46.5,"lon":10.75,"programs":["gma","pota","sota"],"count":19,"references":[{"code":"IT/AA-1000","program":"gma","name":"Monte Croce","coordinates":[10.83889961,46.7242012]},{"code":"IT/AA-1023","program":"gma","name":"Crodarotta","coordinates":[10.88609982,46.73609924]},{"code":"IT/AA-1055","program":"gma","name":"Schönputz","coordinates":[10.80386,46.65052]},{"code":"IT/TA-1011","program":"gma","name":"Muteg","coordinates":[10.9032,46.54141]},{"code":"IT/TA-1015","program":"gma","name":"Marteller Höhenweg Felsplatte","coordinates":[10.77221566,46.58248758]},{"code":"IT-1045","program":"pota","name":"Biotopo Vegetazione Steppica Sonnenberg Natura 2000","coordinates":[10.9531,46.65]},{"code":"IT-1358","program":"pota","name":"Biotopo Alte Etsch - Colsano Provincial Park","coordinates":[10.9308,46.632]},{"code":"IT-1765","program":"pota","name":"Biotopo Sonnenberg Vegetazione Steppica Schlanderser Leiten Natura 2000","coordinates":[10.7923,46.6283]},{"code":"I/AA-012","program":"sota","name":"Gioveretto / Zufrittspitze","coordinates":[10.7822,46.5019]},{"code":"I/AA-020","program":"sota","name":"Monte Rosso / Roteck","coordinates":[10.9844,46.7233]},{"code":"I/AA-026","program":"sota","name":"L'Orecchia di Lepre / Hasenöhrl","coordinates":[10.8589,46.5442]},{"code":"I/AA-030","program":"sota","name":"Mastaun / Mastaunspitze","coordinates":[10.8021,46.6931]},{"code":"I/AA-033","program":"sota","name":"Croda del Tovale / Gfallwand","coordinates":[10.9962,46.6991]},{"code":"I/AA-037","program":"sota","name":"Punta della Croce / Kreuzspitz","coordinates":[10.8057,46.7046]},{"code":"I/AA-040","program":"sota","name":"Pulpito di Flim / Flimspitze","coordinates":[10.816,46.5306]},{"code":"I/AA-064","program":"sota","name":"Gruberspitze","coordinates":[10.8679,46.6592]},{"code":"I/AA-110","program":"sota","name":"Fossa della Mutta / Muttegrub","coordinates":[10.9566,46.5767]},{"code":"I/AA-111","program":"sota","name":"Gran Ladro / Hoher Dieb","coordinates":[10.9305,46.572]},{"code":"I/AA-137","program":"sota","name":"Vedetta Alta / Hochwart","coordinates":[10.9997,46.5117]}]}