{"lat":46.5,"lon":-0.25,"programs":["pota"],"count":9,"references":[{"code":"FR-4258","program":"pota","name":"Ruisseau le Magot Natura 2000","coordinates":[-0.04333,46.6214]},{"code":"FR-14189","program":"pota","name":"Bocage de Gourge Biological Reserve","coordinates":[-0.172,46.716]},{"code":"FR-14190","program":"pota","name":"ETANG DE LA BARRE Biological Reserve","coordinates":[-0.199,46.714]},{"code":"FR-14191","program":"pota","name":"CARRIERES DE VIENNAY Biological Reserve","coordinates":[-0.246,46.703]},{"code":"FR-14192","program":"pota","name":"COTEAU DU PUYROULEAU Biological Reserve","coordinates":[-0.174,46.665]},{"code":"FR-14193","program":"pota","name":"ETANG DE COIGNE Biological Reserve","coordinates":[-0.152,46.666]},{"code":"FR-14195","program":"pota","name":"VALLEE DU MAGOT Biological Reserve","coordinates":[-0.023,46.619]},{"code":"FR-14196","program":"pota","name":"BOIS DE L'ABBESSE Biological Reserve","coordinates":[-0.082,46.522]},{"code":"FR-14197","program":"pota","name":"VALLEE DE LA VONNE Biological Reserve","coordinates":[-0.096,46.501]}]}