{"lat":46.5,"lon":12.25,"programs":["gma","pota","sota","wwbota"],"count":67,"references":[{"code":"IT/AA-1009","program":"gma","name":"Monte  Castelliere","coordinates":[12.36219978,46.52190018]},{"code":"IT/VE-1011","program":"gma","name":"Mo0nte Paterno","coordinates":[12.30140018,46.61669922]},{"code":"IT/VE-1016","program":"gma","name":"Cima dei Colesei","coordinates":[12.4212593,46.6428693]},{"code":"IT/VE-1018","program":"gma","name":"Col Rosson","coordinates":[12.497184,46.6435769]},{"code":"IT/VE-1019","program":"gma","name":"Colle della Crodata","coordinates":[12.4856561,46.6540127]},{"code":"IT/VE-1020","program":"gma","name":"Monte Croce","coordinates":[12.4311,46.6552]},{"code":"IT/VE-1021","program":"gma","name":"Col Caradies","coordinates":[12.49673,46.57509]},{"code":"IT/VE-1023","program":"gma","name":"Col Vidal","coordinates":[12.430869,46.516864]},{"code":"OE/TI-153","program":"gma","name":"Eisenreich","coordinates":[12.46889973,46.6875]},{"code":"OE/TI-201","program":"gma","name":"Hollbrucker Spitze","coordinates":[12.42689991,46.69919968]},{"code":"OE0/TI-1033","program":"gma","name":"Schöntalhöhe","coordinates":[12.45330048,46.68970108]},{"code":"OE0/TI-1041","program":"gma","name":"Demut","coordinates":[12.44610023,46.69029999]},{"code":"OE0/TI-1043","program":"gma","name":"Hornischegg","coordinates":[12.41390038,46.70080185]},{"code":"OE0/TI-1046","program":"gma","name":"Hochgruben","coordinates":[12.40999985,46.70610046]},{"code":"OE0/TI-1057","program":"gma","name":"Helm","coordinates":[12.38720036,46.71500015]},{"code":"OE0/TI-1058","program":"gma","name":"Gatterspitze","coordinates":[12.48139954,46.69810104]},{"code":"IT-0238","program":"pota","name":"Biotopo Monte Covolo - Alpe di Nemes Natura 2000","coordinates":[12.4172,46.6686]},{"code":"IT-0743","program":"pota","name":"Parco Naturale Tre Cime Natura 2000","coordinates":[12.2992,46.6667]},{"code":"IT-0190","program":"pota","name":"Riserva Naturale Somadida State Natural Reserve","coordinates":[12.2676,46.5134]},{"code":"IT-1453","program":"pota","name":"Torbiere di Danta Natura 2000","coordinates":[12.4992,46.5633]},{"code":"IT-1455","program":"pota","name":"Gruppo del Popera - Dolomiti di Auronzo e di Val Comelico Natura 2000","coordinates":[12.3863,46.6025]},{"code":"IT-1681","program":"pota","name":"Gruppo Antelao - Marmarole - Sorapis Natura 2000","coordinates":[12.2894,46.5022]},{"code":"IT-1683","program":"pota","name":"Lago di Misurina Natura 2000","coordinates":[12.2597,46.5833]},{"code":"I/AA-036","program":"sota","name":"Cima dei Tre Scarperi / Dreischusterspitze","coordinates":[12.3175,46.6692]},{"code":"I/AA-041","program":"sota","name":"Cima Undici","coordinates":[12.3785,46.6361]},{"code":"I/AA-052","program":"sota","name":"Cima Grande di Lavaredo / Große Zinne","coordinates":[12.3027,46.6193]},{"code":"I/AA-057","program":"sota","name":"Cima Ovest / Westliche Zinne","coordinates":[12.2972,46.6189]},{"code":"I/AA-059","program":"sota","name":"La Rocca dei Baranci / Haunoldköpfl","coordinates":[12.2779,46.6887]},{"code":"I/AA-060","program":"sota","name":"Croda Rossa di Sesto / Sextener Rotwand","coordinates":[12.3816,46.6437]},{"code":"I/AA-071","program":"sota","name":"Croda dei Baranci / Birkenkofel","coordinates":[12.2572,46.6802]},{"code":"I/AA-076","program":"sota","name":"Croda dei Rondoi / Schwalbenkofel","coordinates":[12.2718,46.65]},{"code":"I/AA-079","program":"sota","name":"Cima di Sesto Sud / Südlichen Gsellknoten","coordinates":[12.3265,46.6753]},{"code":"I/AA-083","program":"sota","name":"Cima Piccola di Lavaredo / Kleine Zinne","coordinates":[12.3065,46.6192]},{"code":"I/AA-085","program":"sota","name":"Cima Bulla Sud / Südlicher Bullkopf","coordinates":[12.2609,46.6632]},{"code":"I/AA-107","program":"sota","name":"Monte Paterno / Paternkofel","coordinates":[12.3157,46.6299]},{"code":"I/AA-118","program":"sota","name":"Cima Una / Einserkofel","coordinates":[12.3477,46.6392]},{"code":"I/AA-121","program":"sota","name":"Torre dei Scarperi / Schwabenalpenkopf","coordinates":[12.2871,46.6456]},{"code":"I/AA-139","program":"sota","name":"Torre di Toblin / Toblinger Knoten","coordinates":[12.3078,46.6421]},{"code":"I/AA-147","program":"sota","name":"Pala di Popera","coordinates":[12.3988,46.6425]},{"code":"I/VE-012","program":"sota","name":"Croda dei Toni – Cima Dodici / Zwölferkofel","coordinates":[12.3599,46.619]},{"code":"I/VE-017","program":"sota","name":"Cima Bagni","coordinates":[12.4104,46.6153]},{"code":"I/VE-018","program":"sota","name":"Cimon del Froppa","coordinates":[12.3405,46.5073]},{"code":"I/VE-023","program":"sota","name":"Cima d'Ambata","coordinates":[12.418,46.6058]},{"code":"I/VE-025","program":"sota","name":"Pala di Meduce","coordinates":[12.2976,46.5011]},{"code":"I/VE-029","program":"sota","name":"Croda Bianca","coordinates":[12.3515,46.5051]},{"code":"I/VE-030","program":"sota","name":"Cima Cadin di San Lucano","coordinates":[12.2884,46.5776]},{"code":"I/VE-032","program":"sota","name":"Monticello","coordinates":[12.3167,46.5024]},{"code":"I/VE-035","program":"sota","name":"Cima Cadin della Neve","coordinates":[12.2793,46.573]},{"code":"I/VE-036","program":"sota","name":"Punta dell'Agnello","coordinates":[12.3604,46.6051]},{"code":"I/VE-038","program":"sota","name":"Croda Passaporto","coordinates":[12.3187,46.6238]},{"code":"I/VE-040","program":"sota","name":"Croda da Campo","coordinates":[12.4344,46.5892]},{"code":"I/VE-047","program":"sota","name":"Cima Padola","coordinates":[12.4334,46.6035]},{"code":"I/VE-048","program":"sota","name":"Campanili di Val dei Toni","coordinates":[12.3534,46.6095]},{"code":"I/VE-050","program":"sota","name":"Cima del Carro Armato","coordinates":[12.3775,46.5112]},{"code":"I/VE-055","program":"sota","name":"Cimon di Croda Liscia","coordinates":[12.2958,46.5858]},{"code":"I/VE-064","program":"sota","name":"Torre Wundt","coordinates":[12.2872,46.588]},{"code":"I/VE-066","program":"sota","name":"Monte Ciarido","coordinates":[12.3864,46.5139]},{"code":"I/VE-069","program":"sota","name":"Col Quaternà","coordinates":[12.4724,46.6674]},{"code":"I/VE-092","program":"sota","name":"Monte Peronat","coordinates":[12.364,46.5052]},{"code":"I/VE-125","program":"sota","name":"Croda dell'Arghena","coordinates":[12.2689,46.6222]},{"code":"I/VE-145","program":"sota","name":"Col di Vezza","coordinates":[12.3294,46.577]},{"code":"I/VE-190","program":"sota","name":"Prati di Rusiana – Quota 1830","coordinates":[12.3678,46.5561]},{"code":"I/VE-202","program":"sota","name":"Monte Piedo","coordinates":[12.4992,46.5428]},{"code":"OE/TI-153","program":"sota","name":"Eisenreich","coordinates":[12.4689,46.6875]},{"code":"OE/TI-201","program":"sota","name":"Hollbrucker Spitze","coordinates":[12.4269,46.6992]},{"code":"B/IT-0262","program":"wwbota","name":"Bunker (Opera 9  / Trentino a a )","coordinates":[12.25017,46.73538]},{"code":"B/IT-0264","program":"wwbota","name":"Bunker (Opera 8 -Dobbiaco BZ )","coordinates":[12.25297,46.73298]}]}