{"lat":46.5,"lon":26.25,"programs":["pota","sota"],"count":8,"references":[{"code":"RO-1117","program":"pota","name":"Munţii Goşman Natura 2000","coordinates":[26.2645,46.7199]},{"code":"YO/EC-183","program":"sota","name":"Cracu Geamăna","coordinates":[26.3008,46.65]},{"code":"YO/EC-222","program":"sota","name":"Aluniș","coordinates":[26.3075,46.5217]},{"code":"YO/EC-373","program":"sota","name":"Stogul de Piatră","coordinates":[26.4535,46.5944]},{"code":"YO/EC-395","program":"sota","name":"Piatra Crăpată","coordinates":[26.4933,46.5283]},{"code":"YO/EC-396","program":"sota","name":"Sârghinel","coordinates":[26.4208,46.7425]},{"code":"YO/EC-398","program":"sota","name":"Măgura Mare","coordinates":[26.4458,46.7008]},{"code":"YO/EC-586","program":"sota","name":"Babele","coordinates":[26.3867,46.735]}]}