{"lat":46.5,"lon":14.75,"programs":["gma","pota","sota"],"count":60,"references":[{"code":"OE/KT-212","program":"gma","name":"Kasparstein","coordinates":[14.86919975,46.67689896]},{"code":"OE/KT-366","program":"gma","name":"Koemmelgupf","coordinates":[14.8591,46.6177]},{"code":"OE/KT-371","program":"gma","name":"Weissenegger Berg","coordinates":[14.7944,46.6642]},{"code":"OE/KT-376","program":"gma","name":"Motschulaberg","coordinates":[14.9157,46.6348]},{"code":"OE/KT-412","program":"gma","name":"Donnerbauer Riegel","coordinates":[14.7974,46.7312]},{"code":"OE0/KT-1006","program":"gma","name":"Feistritzer Spitze (Hochpetzen)","coordinates":[14.75,46.51110077]},{"code":"OE0/KT-1017","program":"gma","name":"Martinikogel","coordinates":[14.85358,46.67775]},{"code":"OE0/KT-1018","program":"gma","name":"Kinzelkogel","coordinates":[14.82262,46.66718]},{"code":"OE0/KT-1019","program":"gma","name":"Lippekogel","coordinates":[14.75264,46.64248]},{"code":"OE0/KT-1022","program":"gma","name":"Lubitschkogel","coordinates":[14.92044,46.68544]},{"code":"OE0/KT-1024","program":"gma","name":"Pichlingkogel","coordinates":[14.88329983,46.71670151]},{"code":"OE0/KT-1030","program":"gma","name":"Motschulaberg","coordinates":[14.91596,46.62803]},{"code":"OE0/KT-1032","program":"gma","name":"Zwölferkoge","coordinates":[14.83596,46.67393]},{"code":"OE0/KT-1034","program":"gma","name":"Libitsch","coordinates":[14.77953,46.58746]},{"code":"OE0/KT-1035","program":"gma","name":"Rinkenberg","coordinates":[14.76498,46.61741]},{"code":"OE0/KT-1037","program":"gma","name":"Zellbach","coordinates":[14.79737,46.73116]},{"code":"OE0/KT-1059","program":"gma","name":"Kleinalpl","coordinates":[14.98719978,46.74169922]},{"code":"OE0/KT-1100","program":"gma","name":"Stroppitzberg","coordinates":[14.79721,46.5309]},{"code":"OE0/KT-1105","program":"gma","name":"Kortnikkogel","coordinates":[14.83963,46.63016]},{"code":"OE0/KT-1119","program":"gma","name":"Rainkogel","coordinates":[14.89999962,46.70000076]},{"code":"OE0/KT-1121","program":"gma","name":"Ferrakogel","coordinates":[14.75,46.54999924]},{"code":"OE0/KT-1125","program":"gma","name":"Gärtnerkogel","coordinates":[14.88329983,46.71670151]},{"code":"OE0/KT-1132","program":"gma","name":"Rabenstein","coordinates":[14.9833,46.6132]},{"code":"S5/KS-009","program":"gma","name":"KordeÂževa glava (Peca)","coordinates":[14.77999973,46.50030136]},{"code":"S5/KS-034","program":"gma","name":"Jesenik","coordinates":[14.83110046,46.50529861]},{"code":"S5/KS-038","program":"gma","name":"Å teknetov vrh","coordinates":[14.96310043,46.58499908]},{"code":"S5/KS-060","program":"gma","name":"Kranj&#269;ev vrh (Kota 1226)","coordinates":[14.89610004,46.50249863]},{"code":"S5/KS-066","program":"gma","name":"Hom","coordinates":[14.9394,46.5081]},{"code":"S50/KS-106","program":"gma","name":"Å teharnikov vrh","coordinates":[14.985,46.572222]},{"code":"S50/KS-113","program":"gma","name":"Strojna","coordinates":[14.91279984,46.6006012]},{"code":"AT-0151","program":"pota","name":"Untere Lavant Natura 2000","coordinates":[14.8858,46.7044]},{"code":"AT-0375","program":"pota","name":"Wunderstätten Natura 2000","coordinates":[14.8713,46.6602]},{"code":"AT-0376","program":"pota","name":"Motschulagraben Natura 2000","coordinates":[14.9044,46.6348]},{"code":"SI-0466","program":"pota","name":"Grajski Park Ravne Park","coordinates":[14.9596,46.5423]},{"code":"SI-0467","program":"pota","name":"Bike park Poseka Recreation Park","coordinates":[14.9571,46.5404]},{"code":"SI-0468","program":"pota","name":"Grad Ravne Historic Site","coordinates":[14.9567,46.5418]},{"code":"SI-0469","program":"pota","name":"Temeljev hrib - Zagrad Recreation Site","coordinates":[14.9238,46.5366]},{"code":"SI-0513","program":"pota","name":"Koroška planinska pot Recreation Park","coordinates":[14.9627,46.5451]},{"code":"SI-0515","program":"pota","name":"Prežihov spomenik National Memorial","coordinates":[14.959,46.5423]},{"code":"SI-0516","program":"pota","name":"Ribnik Brdinje Recreation Site","coordinates":[14.9822,46.5375]},{"code":"SI-0517","program":"pota","name":"Drevored miru koroških občin Memorial Parkway","coordinates":[14.8719,46.5456]},{"code":"SI-0518","program":"pota","name":"Spomenik svobodi in miru Memorial Parkway","coordinates":[14.8693,46.5455]},{"code":"SI-0519","program":"pota","name":"Ruševine gradu Šrotnek National Park","coordinates":[14.9727,46.517]},{"code":"SI-0520","program":"pota","name":"Spomenik in grobisce NOB pri Rimskem vrelcu Memorial Parkway","coordinates":[14.9852,46.5136]},{"code":"SI-0521","program":"pota","name":"Malgajev spomenik Memorial Parkway","coordinates":[14.9874,46.5504]},{"code":"SI-0522","program":"pota","name":"Športni park Mežica Recreation Park","coordinates":[14.8554,46.5163]},{"code":"SI-0523","program":"pota","name":"Spominski park Mežica Memorial Parkway","coordinates":[14.8547,46.5168]},{"code":"SI-0672","program":"pota","name":"Pot kurirjev in vezistov - odsek 29 / Leše-Poljana Recreation Park","coordinates":[14.9012,46.5309]},{"code":"SI-0673","program":"pota","name":"Pot kurirjev in vezistov - odsek 30 / Poljana-Mežica Recreation Park","coordinates":[14.8733,46.5449]},{"code":"SI-0674","program":"pota","name":"Pot kurirjev in vezistov - odsek 31 / Mežica -Dom na Peci Recreation Park","coordinates":[14.8524,46.5215]},{"code":"OE/KT-212","program":"sota","name":"Kasparstein","coordinates":[14.8692,46.6769]},{"code":"OE/KT-366","program":"sota","name":"Koemmelgupf","coordinates":[14.8591,46.6177]},{"code":"OE/KT-371","program":"sota","name":"Weissenegger Berg","coordinates":[14.7944,46.6642]},{"code":"OE/KT-376","program":"sota","name":"Motschulaberg","coordinates":[14.9157,46.6348]},{"code":"OE/KT-412","program":"sota","name":"Donnerbauer Riegel","coordinates":[14.7974,46.7312]},{"code":"S5/KS-009","program":"sota","name":"Kordeževa glava","coordinates":[14.78,46.5003]},{"code":"S5/KS-034","program":"sota","name":"Jesenik","coordinates":[14.8311,46.5053]},{"code":"S5/KS-038","program":"sota","name":"Šteknetov vrh","coordinates":[14.9631,46.585]},{"code":"S5/KS-060","program":"sota","name":"Kranjčev vrh (Kota 1226)","coordinates":[14.8961,46.5025]},{"code":"S5/KS-066","program":"sota","name":"Hom","coordinates":[14.9394,46.5081]}]}