{"lat":46.5,"lon":-0.5,"programs":["pota"],"count":9,"references":[{"code":"FR-4174","program":"pota","name":"Bassin du Thouet amont Natura 2000","coordinates":[-0.30389,46.6239]},{"code":"FR-4267","program":"pota","name":"Vallee de l Aucize Natura 2000","coordinates":[-0.48333,46.5119]},{"code":"FR-14216","program":"pota","name":"BOIS DE PICHENIN Biological Reserve","coordinates":[-0.485,46.51]},{"code":"FR-7903","program":"pota","name":"LES SOURCES DE LA SEVRE NANTAISE Biological Reserve","coordinates":[-0.49873,46.6158]},{"code":"FR-7904","program":"pota","name":"LES SOURCES DU THOUET Biological Reserve","coordinates":[-0.47952,46.6111]},{"code":"FR-7905","program":"pota","name":"VALLEE DU THOUET Biological Reserve","coordinates":[-0.35473,46.5952]},{"code":"FR-7906","program":"pota","name":"BOIS DE LA BOUCHERIE Biological Reserve","coordinates":[-0.46956,46.5927]},{"code":"FR-7907","program":"pota","name":"FORET DE SECONDIGNY Biological Reserve","coordinates":[-0.44652,46.5768]},{"code":"FR-7908","program":"pota","name":"BOIS DES GRAIS Biological Reserve","coordinates":[-0.27714,46.6212]}]}