{"lat":46.5,"lon":-1,"programs":["pota"],"count":14,"references":[{"code":"FR-14194","program":"pota","name":"FORET DU ROUX Biological Reserve","coordinates":[-0.995,46.645]},{"code":"FR-4301","program":"pota","name":"Cavites a chiropteres de Saint-Michel-le-Cloucq et Pissotte Natura 2000","coordinates":[-0.78333,46.6583]},{"code":"FR-7879","program":"pota","name":"COTEAUX CALCAIRES À L'EST DE CHANTONNAY Biological Reserve","coordinates":[-0.99314,46.6859]},{"code":"FR-7881","program":"pota","name":"LE CUL DE SAC Biological Reserve","coordinates":[-0.97139,46.6755]},{"code":"FR-7887","program":"pota","name":"VALLEE DU LAY, AFFLUENTS ET ZONES VOISINES DANS LE SECTEUR SAINT-PROUANT-MONSIREIGNE Biological Reserve","coordinates":[-0.93332,46.7408]},{"code":"FR-7888","program":"pota","name":"LA ROCHE BATIOT Biological Reserve","coordinates":[-0.95616,46.7421]},{"code":"FR-7889","program":"pota","name":"LE BOIS DE LA BENETIERE Biological Reserve","coordinates":[-0.93174,46.7365]},{"code":"FR-7891","program":"pota","name":"LE BOIS GARANDON Biological Reserve","coordinates":[-0.91147,46.7474]},{"code":"FR-7892","program":"pota","name":"VALLEE DU RUISSEAU DES TOUCHES Biological Reserve","coordinates":[-0.92469,46.7231]},{"code":"FR-7893","program":"pota","name":"TOUS VENTS Biological Reserve","coordinates":[-0.92546,46.6905]},{"code":"FR-7894","program":"pota","name":"BOIS DU PALIGNY ET BOIS ROUNAUX Biological Reserve","coordinates":[-0.83737,46.7075]},{"code":"FR-7895","program":"pota","name":"LES MOULINS ET ROCHERS DE MOUILLERON-EN-PAREDS Biological Reserve","coordinates":[-0.82105,46.6706]},{"code":"FR-7896","program":"pota","name":"AFFLEUREMENTS ROCHEUX DE MOUILLERON-EN-PAREDS,CHEFFOIS,LA CHATAIGNERAIE Biological Reserve","coordinates":[-0.79758,46.6643]},{"code":"FR-7897","program":"pota","name":"ROCHER DE CHEFFOIS Biological Reserve","coordinates":[-0.77546,46.6631]}]}