{"lat":46.5,"lon":25.75,"programs":["pota","sota"],"count":12,"references":[{"code":"RO-0263","program":"pota","name":"Cheile Bicazului - Hășmaș National Park","coordinates":[25.8046,46.7039]},{"code":"RO-0493","program":"pota","name":"Traseul de creastă al Munților Hășmaș National Recreation Trail","coordinates":[25.8423,46.6725]},{"code":"RO-0929","program":"pota","name":"Piatra Singuratică National Recreation Area","coordinates":[25.8248,46.6839]},{"code":"RO-0930","program":"pota","name":"Lacu Roșu - Poiana Albă - Piatra Singuratică National Recreation Trail","coordinates":[25.7996,46.7161]},{"code":"RO-0931","program":"pota","name":"Bălan - Piatra Singuratică - Hășmașul Mare National Recreation Trail","coordinates":[25.8199,46.6758]},{"code":"RO-0333","program":"pota","name":"Valea Bicăjelului Nature Recreation Area","coordinates":[25.858,46.7006]},{"code":"YO/EC-012","program":"sota","name":"Hășmașul Mare","coordinates":[25.8044,46.7041]},{"code":"YO/EC-070","program":"sota","name":"Hășmașul Negru","coordinates":[25.8192,46.74]},{"code":"YO/EC-078","program":"sota","name":"Ecem","coordinates":[25.839,46.6741]},{"code":"YO/EC-135","program":"sota","name":"Noșcolat","coordinates":[25.9094,46.608]},{"code":"YO/EC-182","program":"sota","name":"Iavardi","coordinates":[25.914,46.6417]},{"code":"YO/EC-238","program":"sota","name":"Orodic","coordinates":[25.9907,46.6229]}]}