{"lat":46.5,"lon":4,"programs":["pota","sota"],"count":14,"references":[{"code":"FR-7451","program":"pota","name":"BASSE VALLEE DE L'ARROUX Biological Reserve","coordinates":[4.04402,46.5644]},{"code":"FR-7452","program":"pota","name":"L'ARROUX D'AUTUN A DIGOIN Biological Reserve","coordinates":[4.12404,46.7387]},{"code":"FR-7453","program":"pota","name":"MASSIF FORESTIER ET BOCAGE DE CLESSY Biological Reserve","coordinates":[4.08955,46.5489]},{"code":"FR-7454","program":"pota","name":"BOIS ET BOCAGE DE CLESSY Biological Reserve","coordinates":[4.09474,46.5422]},{"code":"FR-9809","program":"pota","name":"BOCAGE D' ISSY-L'EVEQUE ET SAINTE RADEGONDE Biological Reserve","coordinates":[4.04775,46.706]},{"code":"FR-9812","program":"pota","name":"RUISSEAU DE ROCHEFORT A UXEAU Biological Reserve","coordinates":[4.04358,46.6442]},{"code":"FR-9814","program":"pota","name":"BASSE VALLEE DE L'ARROUX Biological Reserve","coordinates":[4.04402,46.5644]},{"code":"FR-9815","program":"pota","name":"BOIS DE BEAUMONT A MARLY-SUR-ARROUX Biological Reserve","coordinates":[4.10964,46.6286]},{"code":"FR-9826","program":"pota","name":"BASSE VALLEE DE L'ARROUX Biological Reserve","coordinates":[4.04402,46.5644]},{"code":"FR-9827","program":"pota","name":"VALLEE DE LA BOURBINCE Biological Reserve","coordinates":[4.20305,46.5383]},{"code":"FR-9828","program":"pota","name":"BOIS DU CHEVANNET A PALINGES Biological Reserve","coordinates":[4.17354,46.5287]},{"code":"FR-9829","program":"pota","name":"PRAIRIES ET MARES A OUDRY ET PALINGES Biological Reserve","coordinates":[4.18955,46.5708]},{"code":"FR-9834","program":"pota","name":"MONTAGNE DE LA CHAÎNE A DETTEY Biological Reserve","coordinates":[4.19557,46.7478]},{"code":"FL/VL-016","program":"sota","name":"Mont Dardon","coordinates":[4.0372,46.6772]}]}