{"lat":46.5,"lon":-1.25,"programs":["pota"],"count":11,"references":[{"code":"FR-7869","program":"pota","name":"VALLEE DE LA DOULAYE Biological Reserve","coordinates":[-1.18897,46.5836]},{"code":"FR-7872","program":"pota","name":"ETANG BRUNEAU Biological Reserve","coordinates":[-1.16156,46.6868]},{"code":"FR-7873","program":"pota","name":"VALLEE DE LA VOURAIE ET VALLONS ANNEXES A SAINT-HILAIRE-LE-VOUHIS, BOURNEZEAU Biological Reserve","coordinates":[-1.1714,46.6726]},{"code":"FR-7874","program":"pota","name":"VALEÉE DU PETIT LAY AUX ALENTOURS DE FRILOT Biological Reserve","coordinates":[-1.11796,46.6787]},{"code":"FR-7875","program":"pota","name":"VALLEE DU PETIT LAY DE PART ET D'AUTRE DE SAINT-HILAIRE-LE-VOUHIS Biological Reserve","coordinates":[-1.12021,46.6903]},{"code":"FR-7876","program":"pota","name":"VALLEE DU PETIT LAY AUX ALENTOURS DES AUBLINIERES Biological Reserve","coordinates":[-1.10998,46.6575]},{"code":"FR-7877","program":"pota","name":"GRAND BOIS DU PALLY Biological Reserve","coordinates":[-1.07297,46.6672]},{"code":"FR-7878","program":"pota","name":"LE FIEF DES CORNIERES Biological Reserve","coordinates":[-1.01261,46.7067]},{"code":"FR-7880","program":"pota","name":"LE RITAY ET LE CORPS DU LOUP Biological Reserve","coordinates":[-1.00201,46.6934]},{"code":"FR-7884","program":"pota","name":"LE FIEF DU REINERET Biological Reserve","coordinates":[-1.05167,46.7366]},{"code":"FR-7885","program":"pota","name":"LES BATARDES ET LE FIEF DU CHAMP BLANC Biological Reserve","coordinates":[-1.00269,46.7196]}]}