{"lat":46.5,"lon":-114,"programs":["pota","sota"],"count":8,"references":[{"code":"US-12701","program":"pota","name":"Threemile Wildlife Management Area","coordinates":[-113.891,46.5903]},{"code":"W7M/GA-098","program":"sota","name":"Welcome Benchmark","coordinates":[-113.7569,46.6264]},{"code":"W7M/GA-112","program":"sota","name":"Cinnabar Point","coordinates":[-113.8044,46.5658]},{"code":"W7M/LM-100","program":"sota","name":"7003","coordinates":[-113.8231,46.6712]},{"code":"W7M/LM-129","program":"sota","name":"Elk Mountain","coordinates":[-113.7921,46.7321]},{"code":"W7M/LM-132","program":"sota","name":"6180","coordinates":[-113.9483,46.7068]},{"code":"W7M/LM-137","program":"sota","name":"Baldy Mountain","coordinates":[-113.9806,46.7078]},{"code":"W7M/LM-188","program":"sota","name":"5460","coordinates":[-113.9603,46.7484]}]}