{"lat":46.5,"lon":24.5,"programs":["pota"],"count":7,"references":[{"code":"RO-0040","program":"pota","name":"Dealul Mic Park","coordinates":[24.5769,46.514]},{"code":"RO-0059","program":"pota","name":"Fărăgău Lake Natura 2000","coordinates":[24.5583,46.7094]},{"code":"RO-0066","program":"pota","name":"Platoul Cornești Recreation Park","coordinates":[24.5878,46.5494]},{"code":"RO-0153","program":"pota","name":"Weekend Recreation Park","coordinates":[24.5693,46.5622]},{"code":"RO-0288","program":"pota","name":"Cetatea Târgu-Mureș Historic Site","coordinates":[24.5661,46.5479]},{"code":"RO-0289","program":"pota","name":"Conacul Zichy, Voivodeni Historic Site","coordinates":[24.6271,46.702]},{"code":"RO-0295","program":"pota","name":"Castelul Teleki, Gornești Historic Site","coordinates":[24.6449,46.6702]}]}