{"lat":46.5,"lon":24.25,"programs":["pota"],"count":10,"references":[{"code":"RO-0057","program":"pota","name":"Pajiștile Sărmășel - Milaș - Urmeniș Habitat Protection Area","coordinates":[24.4662,46.7481]},{"code":"RO-0061","program":"pota","name":"Fânețele de pe Dealul Corhan - Săbed Other Conservation Area","coordinates":[24.4342,46.6631]},{"code":"RO-0062","program":"pota","name":"Padurea Săbed Other Conservation Area","coordinates":[24.4664,46.6742]},{"code":"RO-0166","program":"pota","name":"Lacul Văleni State Fishing Lake","coordinates":[24.2555,46.6538]},{"code":"RO-0175","program":"pota","name":"Gheorghe Șincai Memorial National Memorial","coordinates":[24.396,46.6892]},{"code":"RO-0176","program":"pota","name":"Dealul Sânpetru Natural Area","coordinates":[24.2773,46.7395]},{"code":"RO-0381","program":"pota","name":"Râciu Forestry Area 1 At-Large, Generic","coordinates":[24.4052,46.6943]},{"code":"RO-0382","program":"pota","name":"Râciu Forestry Area 2 Ecological Area","coordinates":[24.3916,46.7052]},{"code":"RO-0383","program":"pota","name":"Râciu Forest Reserve","coordinates":[24.3562,46.7418]},{"code":"RO-0384","program":"pota","name":"Dealul Sânmărtin Natural Area","coordinates":[24.4179,46.7183]}]}