{"lat":46.5,"lon":-67.75,"programs":["pota","sota","wwbota"],"count":8,"references":[{"code":"CA-4371","program":"pota","name":"Blind Gully Brook Protected Area","coordinates":[-67.6166,46.689]},{"code":"CA-4501","program":"pota","name":"River de Chute Protected Area","coordinates":[-67.743,46.59]},{"code":"CA-6235","program":"pota","name":"Victoria County Court House Historic Site","coordinates":[-67.7046,46.7395]},{"code":"CA-6247","program":"pota","name":"Mineral Free Baptist Meetinghouse Historic Site","coordinates":[-67.5956,46.5897]},{"code":"CA-6498","program":"pota","name":"Beechwood Community Park","coordinates":[-67.6792,46.5491]},{"code":"CA-6574","program":"pota","name":"Perth-Andover Veterans' Field National Memorial","coordinates":[-67.7077,46.7322]},{"code":"VE9/VT-017","program":"sota","name":"Peak 40-37","coordinates":[-67.61083,46.66139]},{"code":"B/CA-0768","program":"wwbota","name":"FRP NB24","coordinates":[-67.6977721,46.74581173]}]}