{"lat":46.5,"lon":-120.5,"programs":["pota","sota"],"count":5,"references":[{"code":"US-3291","program":"pota","name":"Yakima Sportsman State Park","coordinates":[-120.456,46.5919]},{"code":"US-12902","program":"pota","name":"Selah Cliffs State Nature Preserve","coordinates":[-120.467,46.7082]},{"code":"W7W/MC-069","program":"sota","name":"Selah Butte","coordinates":[-120.4296,46.7355]},{"code":"W7W/MC-076","program":"sota","name":"Elephant Mountain","coordinates":[-120.3346,46.5221]},{"code":"W7W/MC-077","program":"sota","name":"2008 Mt Propagation","coordinates":[-120.4016,46.5172]}]}