{"lat":46.5,"lon":-66,"programs":["pota"],"count":6,"references":[{"code":"CA-1234","program":"pota","name":"Dungarvon Whooper Spring Woodlot Nature Reserve","coordinates":[-65.9932,46.7481]},{"code":"CA-4380","program":"pota","name":"Cains River Protected Area","coordinates":[-65.8477,46.5086]},{"code":"CA-4509","program":"pota","name":"Shinnickburn Protected Natural Area","coordinates":[-65.826,46.538]},{"code":"CA-5249","program":"pota","name":"Blackville Recreation Park","coordinates":[-65.8301,46.7379]},{"code":"CA-6550","program":"pota","name":"New Brunswick #12 Wildlife Management Area","coordinates":[-65.9825,46.7354]},{"code":"CA-6551","program":"pota","name":"New Brunswick #13 Wildlife Management Area","coordinates":[-65.8103,46.6061]}]}