{"lat":46.75,"lon":-114.75,"programs":["pota","sota"],"count":15,"references":[{"code":"US-2571","program":"pota","name":"Fish Creek State Park","coordinates":[-114.716,46.9899]},{"code":"US-12702","program":"pota","name":"MT Fish Creek Wildlife Management Area","coordinates":[-114.686,46.9009]},{"code":"US-12820","program":"pota","name":"Big Pine State Fish and Wildlife Area","coordinates":[-114.663,46.9896]},{"code":"US-12871","program":"pota","name":"Forks State Fish and Wildlife Area","coordinates":[-114.701,46.9263]},{"code":"W7M/LM-114","program":"sota","name":"6617","coordinates":[-114.5434,46.88]},{"code":"W7M/LM-127","program":"sota","name":"6302","coordinates":[-114.5641,46.8399]},{"code":"W7M/LM-155","program":"sota","name":"5540","coordinates":[-114.5334,46.7599]},{"code":"W7M/LO-050","program":"sota","name":"6740","coordinates":[-114.621,46.8797]},{"code":"W7M/LO-053","program":"sota","name":"Deer Peak","coordinates":[-114.5714,46.913]},{"code":"W7M/LO-054","program":"sota","name":"6700","coordinates":[-114.5911,46.8855]},{"code":"W7M/LO-059","program":"sota","name":"White Mountain","coordinates":[-114.6447,46.7839]},{"code":"W7M/LO-117","program":"sota","name":"Lion Point","coordinates":[-114.7097,46.8686]},{"code":"W7M/LO-124","program":"sota","name":"Williams Peak","coordinates":[-114.6996,46.9571]},{"code":"W7M/LO-128","program":"sota","name":"5434","coordinates":[-114.74,46.9666]},{"code":"W7M/LO-145","program":"sota","name":"5044","coordinates":[-114.7143,46.8995]}]}