{"lat":46.75,"lon":-113.75,"programs":["pota","sota"],"count":10,"references":[{"code":"US-12856","program":"pota","name":"Corrick’s River Bend State Fish and Wildlife Area","coordinates":[-113.538,46.9514]},{"code":"US-12903","program":"pota","name":"Ninemile Prairie State Fish and Wildlife Area","coordinates":[-113.503,46.9444]},{"code":"US-12925","program":"pota","name":"Thoreau State Beach","coordinates":[-113.612,46.9525]},{"code":"W7M/LM-112","program":"sota","name":"6643","coordinates":[-113.7466,46.8573]},{"code":"W7M/LM-124","program":"sota","name":"Kamas Benchmark","coordinates":[-113.618,46.796]},{"code":"W7M/LM-126","program":"sota","name":"6336","coordinates":[-113.6602,46.813]},{"code":"W7M/LM-150","program":"sota","name":"Sunflower Mountain","coordinates":[-113.6582,46.9718]},{"code":"W7M/LM-151","program":"sota","name":"Morrison Peak","coordinates":[-113.5493,46.9248]},{"code":"W7M/LM-159","program":"sota","name":"5481","coordinates":[-113.7368,46.8112]},{"code":"W7M/LM-189","program":"sota","name":"Diamond Mountain","coordinates":[-113.6727,46.9008]}]}