{"lat":46.75,"lon":-111.25,"programs":["pota","sota"],"count":8,"references":[{"code":"US-2597","program":"pota","name":"Smith River State Park","coordinates":[-111.182,46.8017]},{"code":"W7M/SF-161","program":"sota","name":"7565","coordinates":[-111.0093,46.9922]},{"code":"W7M/SF-163","program":"sota","name":"Woods Mountain","coordinates":[-111.0738,46.9311]},{"code":"W7M/SF-168","program":"sota","name":"Monument Peak","coordinates":[-111.0969,46.9975]},{"code":"W7M/SF-171","program":"sota","name":"Rimrock Ridge","coordinates":[-111.0912,46.9043]},{"code":"W7M/SF-185","program":"sota","name":"Old Baldy","coordinates":[-111.2105,46.9988]},{"code":"W7M/SF-208","program":"sota","name":"5712","coordinates":[-111.2448,46.8723]},{"code":"W7M/SF-210","program":"sota","name":"Songster Butte","coordinates":[-111.1939,46.8405]}]}