{"lat":46.75,"lon":23.5,"programs":["pota","sota"],"count":13,"references":[{"code":"RO-0004","program":"pota","name":"Pădurea Hoia-Baciu Forest Reserve","coordinates":[23.5076,46.7687]},{"code":"RO-0027","program":"pota","name":"Faleza Someșului Park","coordinates":[23.5569,46.7669]},{"code":"RO-0155","program":"pota","name":"Simion Bărnuțiu Central Park","coordinates":[23.577,46.7688]},{"code":"RO-0156","program":"pota","name":"Cetățuia Park","coordinates":[23.5824,46.7737]},{"code":"RO-0157","program":"pota","name":"Iuliu Prodan Park","coordinates":[23.5731,46.7576]},{"code":"RO-0158","program":"pota","name":"Feroviarilor (Railway Workers') Park","coordinates":[23.5954,46.7832]},{"code":"RO-0178","program":"pota","name":"Locul fosilifer Coruş Protected Area","coordinates":[23.5089,46.8521]},{"code":"RO-1073","program":"pota","name":"Dealul Chinteni Natural Area","coordinates":[23.5519,46.8716]},{"code":"RO-1074","program":"pota","name":"Dealul Lomb Natural Area","coordinates":[23.5502,46.8223]},{"code":"RO-1216","program":"pota","name":"Colina Cluj-Napoca Park","coordinates":[23.5389,46.7537]},{"code":"YO/WC-030","program":"sota","name":"Lomb","coordinates":[23.5502,46.823]},{"code":"YO/WC-185","program":"sota","name":"Dealul Lat","coordinates":[23.5758,46.9942]},{"code":"YO/WC-250","program":"sota","name":"Nucului","coordinates":[23.5558,46.8708]}]}