{"lat":46.75,"lon":-115.75,"programs":["sota"],"count":14,"references":[{"code":"W7I/NI-021","program":"sota","name":"Black Mountain","coordinates":[-115.5519,46.8788]},{"code":"W7I/NI-023","program":"sota","name":"East Sister","coordinates":[-115.5285,46.8871]},{"code":"W7I/NI-032","program":"sota","name":"Crag Peak","coordinates":[-115.5939,46.9414]},{"code":"W7I/NI-035","program":"sota","name":"Mallard Peak","coordinates":[-115.5252,46.9379]},{"code":"W7I/NI-049","program":"sota","name":"Larkins Peak","coordinates":[-115.6199,46.9477]},{"code":"W7I/NI-087","program":"sota","name":"6347","coordinates":[-115.5518,46.9473]},{"code":"W7I/NI-120","program":"sota","name":"5922","coordinates":[-115.5739,46.9975]},{"code":"W7I/NI-134","program":"sota","name":"Sheep Mountain","coordinates":[-115.5895,46.7833]},{"code":"W7I/NI-142","program":"sota","name":"Indian Dip","coordinates":[-115.7322,46.9616]},{"code":"W7I/NI-143","program":"sota","name":"Eagle Point","coordinates":[-115.5371,46.8006]},{"code":"W7I/NI-156","program":"sota","name":"Smith Point","coordinates":[-115.7393,46.8988]},{"code":"W7I/NI-199","program":"sota","name":"Beaver Butte","coordinates":[-115.6862,46.8218]},{"code":"W7I/NI-213","program":"sota","name":"Buzzard Roost","coordinates":[-115.68,46.9874]},{"code":"W7I/NI-245","program":"sota","name":"4460","coordinates":[-115.7164,46.8463]}]}