{"lat":46.75,"lon":6.5,"programs":["gma","pota","sota"],"count":14,"references":[{"code":"HB/VD-035","program":"gma","name":"Le Chasseron","coordinates":[6.53809977,46.85169983]},{"code":"HB9/NE-002","program":"gma","name":"Cret du Cervelet","coordinates":[6.6328001,46.95920181]},{"code":"HB9/VD-1003","program":"gma","name":"Le Soliat","coordinates":[6.72079992,46.93059921]},{"code":"FR-5867","program":"pota","name":"LES ROCHES DU CERF ET LE BOIS DE CHAROPEY Biological Reserve","coordinates":[6.5083,46.9761]},{"code":"FR-5868","program":"pota","name":"MONT CHATELEU Biological Reserve","coordinates":[6.58022,46.9941]},{"code":"CH-0019","program":"pota","name":"Creux du Van et Gorges de l’Areuse Natural Monument","coordinates":[6.7201,46.9376]},{"code":"CH-0086","program":"pota","name":"Tourbière des Ponts-de-Martel Natural Monument","coordinates":[6.71029,46.9794]},{"code":"CH-0092","program":"pota","name":"Vallée de la Brévine Natural Monument","coordinates":[6.57379,46.9659]},{"code":"CH-0087","program":"pota","name":"Chassagne Natural Monument","coordinates":[6.67663,46.8457]},{"code":"CH-0112","program":"pota","name":"Grèves vaudoises de la rive nord du lac de Neuchâtel Natural Monument","coordinates":[6.70363,46.8363]},{"code":"CH-0277","program":"pota","name":"Dénériaz-Tempêteries-Noirvaux Forest Reserve","coordinates":[6.5382,46.8518]},{"code":"F/JU-017","program":"sota","name":"Mont Châteleu","coordinates":[6.5753,46.99]},{"code":"HB/NE-007","program":"sota","name":"Le Soliat","coordinates":[6.7248,46.9287]},{"code":"HB/VD-035","program":"sota","name":"Le Chasseron","coordinates":[6.5382,46.8518]}]}