{"lat":46.75,"lon":-66,"programs":["pota","wwbota"],"count":5,"references":[{"code":"CA-4367","program":"pota","name":"Big Rocky Brook Protected Area","coordinates":[-65.982,46.777]},{"code":"CA-4447","program":"pota","name":"McNeal Brook Protected Area","coordinates":[-65.917,46.966]},{"code":"CA-5262","program":"pota","name":"Metepenagiag Heritage Park National Heritage Site","coordinates":[-65.8496,46.9524]},{"code":"CA-6102","program":"pota","name":"Oxbow National Historic Site","coordinates":[-65.8377,46.9572]},{"code":"B/CA-0783","program":"wwbota","name":"FRP NB39","coordinates":[-65.8002655,46.79892483]}]}