{"lat":46.75,"lon":11.25,"programs":["gma","pota","sota","wwbota"],"count":36,"references":[{"code":"IT/AA-1004","program":"gma","name":"Corno Bianco","coordinates":[11.3953,46.8018]},{"code":"IT/TA-1001","program":"gma","name":"Zinseler ","coordinates":[11.44227,46.841124]},{"code":"IT/TA-1002","program":"gma","name":"Hühnerspiel  ","coordinates":[11.43433,46.83366]},{"code":"OE/TI-790","program":"gma","name":"Pferscher Tribulaun","coordinates":[11.3392,46.985]},{"code":"OE/TI-826","program":"gma","name":"Weisswand","coordinates":[11.3,46.9833]},{"code":"OE/TI-829","program":"gma","name":"Schafkampspitze","coordinates":[11.2867,46.9842]},{"code":"OE/TI-845","program":"gma","name":"Gschnitzer Tribulaun","coordinates":[11.3458,46.99]},{"code":"OE/TI-851","program":"gma","name":"Schwarze Wand","coordinates":[11.3592,46.99]},{"code":"OE/TI-992","program":"gma","name":"Grubenkopf","coordinates":[11.4092,46.9667]},{"code":"OE0/TI-1396","program":"gma","name":"Obernberger-Tribulaun","coordinates":[11.37580013,46.98920059]},{"code":"OE0/TI-1495","program":"gma","name":"Allerleigrubenspitze","coordinates":[11.4236002,46.99420166]},{"code":"IT-0478","program":"pota","name":"Biotopo Außerwumblsmoos Other Conservation Area","coordinates":[11.2775,46.8559]},{"code":"IT-0479","program":"pota","name":"Biotopo Angererau Other Conservation Area","coordinates":[11.3567,46.8902]},{"code":"IT-1348","program":"pota","name":"Biotopo Gisser Auen Natura 2000","coordinates":[11.3671,46.7614]},{"code":"IT-1768","program":"pota","name":"Biotopo Hühnerspiel Natura 2000","coordinates":[11.4875,46.9414]},{"code":"I/AA-105","program":"sota","name":"Punta Alpetta / Alplerspitz","coordinates":[11.3008,46.7618]},{"code":"I/AA-106","program":"sota","name":"Guardia Alta / Hochwart","coordinates":[11.3185,46.7916]},{"code":"I/AA-108","program":"sota","name":"Cima San Giacomo / Jakobsspitze","coordinates":[11.4919,46.7631]},{"code":"I/AA-114","program":"sota","name":"Cima del Tempo / Wetterspitze","coordinates":[11.3206,46.9314]},{"code":"I/AA-115","program":"sota","name":"Corno di Tramin / Tagewaldhorn","coordinates":[11.4967,46.7805]},{"code":"I/AA-116","program":"sota","name":"Corno Bianco / Sarner Weißhorn","coordinates":[11.3962,46.8024]},{"code":"I/AA-125","program":"sota","name":"Monte Tallone Grande / Hohe Ferse","coordinates":[11.2599,46.883]},{"code":"I/AA-144","program":"sota","name":"Cima d'Accia / Ötschspitz","coordinates":[11.3714,46.8037]},{"code":"I/AA-150","program":"sota","name":"Cima Sulz / Sulzspitz","coordinates":[11.4905,46.7924]},{"code":"I/AA-157","program":"sota","name":"Lasta Alta / Hochplattspitz","coordinates":[11.3498,46.8282]},{"code":"I/AA-168","program":"sota","name":"Cima dell'Alpe / Alpenspitz","coordinates":[11.3495,46.7972]},{"code":"I/AA-174","program":"sota","name":"Cima di Stilves / Zinseler","coordinates":[11.4429,46.8409]},{"code":"I/AA-221","program":"sota","name":"Jaufenspitz / Cima Giovo","coordinates":[11.3344,46.8342]},{"code":"OE/TI-790","program":"sota","name":"Pferscher Tribulaun","coordinates":[11.3392,46.985]},{"code":"OE/TI-826","program":"sota","name":"Weisswand","coordinates":[11.3,46.9833]},{"code":"OE/TI-829","program":"sota","name":"Schafkampspitze","coordinates":[11.2867,46.9842]},{"code":"OE/TI-845","program":"sota","name":"Gschnitzer Tribulaun","coordinates":[11.3458,46.99]},{"code":"OE/TI-851","program":"sota","name":"Schwarze Wand","coordinates":[11.3592,46.99]},{"code":"OE/TI-992","program":"sota","name":"Grubenkopf","coordinates":[11.4092,46.9667]},{"code":"B/IT-0182","program":"wwbota","name":"Bunker (Op.2 / Trentino a a )","coordinates":[11.49965,46.99244]},{"code":"B/IT-0184","program":"wwbota","name":"Bunker (Terme Op.1 / Trentino a a )","coordinates":[11.49682,46.99326]}]}