{"lat":46.75,"lon":22.25,"programs":["pota","sota"],"count":5,"references":[{"code":"RO-0019","program":"pota","name":"Varului Hill Park","coordinates":[22.2716,46.9842]},{"code":"YO/WC-131","program":"sota","name":"Văratec","coordinates":[22.4942,46.8008]},{"code":"YO/WC-148","program":"sota","name":"Cărmăzanului","coordinates":[22.4883,46.9067]},{"code":"YO/WC-156","program":"sota","name":"Măgura Meziazdului","coordinates":[22.4775,46.7767]},{"code":"YO/WC-157","program":"sota","name":"Frăsinoasa","coordinates":[22.4633,46.8475]}]}