{"lat":46.75,"lon":15.5,"programs":["gma","sota"],"count":9,"references":[{"code":"OE/ST-311","program":"gma","name":"Buchkogel","coordinates":[15.50749969,46.87139893]},{"code":"OE0/ST-1118","program":"gma","name":"Kreuzkogel","coordinates":[15.51360035,46.78919983]},{"code":"OE0/ST-1121","program":"gma","name":"Hühnerberg","coordinates":[15.53639984,46.98529816]},{"code":"OE0/ST-1125","program":"gma","name":"Traubenberg","coordinates":[15.61359978,46.94829941]},{"code":"OE0/ST-1126","program":"gma","name":"Kögelberg","coordinates":[15.54609966,46.93889999]},{"code":"OE0/ST-1128","program":"gma","name":"Stefansberg","coordinates":[15.68830013,46.90969849]},{"code":"OE0/ST-1130","program":"gma","name":"Rosenbichl","coordinates":[15.60420036,46.86920166]},{"code":"OE0/ST-1134","program":"gma","name":"Edlmannkogel","coordinates":[15.51000023,46.75]},{"code":"OE/ST-311","program":"sota","name":"Buchkogel","coordinates":[15.5075,46.8714]}]}