{"lat":46.75,"lon":-1,"programs":["gma","pota"],"count":11,"references":[{"code":"FA/VL-003","program":"gma","name":"Saint-Michel-Mont-Mercure","coordinates":[-0.8944,46.83060074]},{"code":"FA/VL-018","program":"gma","name":"Bois de la Folie","coordinates":[-0.8425,46.7892]},{"code":"FR-7772","program":"pota","name":"VALLEE DE LA SEVRE NANTAISE EN AVAL DE SAINT-AMAND-SUR-SEVRE Biological Reserve","coordinates":[-0.83328,46.881]},{"code":"FR-7773","program":"pota","name":"COLLINES VENDEENNES, VALLEE DE LA SEVRE NANTAISE Biological Reserve","coordinates":[-0.88911,46.8704]},{"code":"FR-7774","program":"pota","name":"CRETE DU PUY-SAINT-BONNET Biological Reserve","coordinates":[-0.87144,46.9909]},{"code":"FR-7779","program":"pota","name":"ETANG DE LA TESSERIE Biological Reserve","coordinates":[-0.79547,46.8143]},{"code":"FR-7780","program":"pota","name":"BOIS DES JARRIES, TOURBIERES ET ALENTOURS Biological Reserve","coordinates":[-0.89973,46.8587]},{"code":"FR-7781","program":"pota","name":"VALLEE DES AMOURETTES, DE LA TOUR ET DE LA CAILLETTE Biological Reserve","coordinates":[-0.99762,46.9913]},{"code":"FR-7782","program":"pota","name":"BOIS DE LA CURE Biological Reserve","coordinates":[-0.89874,46.9922]},{"code":"FR-7886","program":"pota","name":"FORET DE LA PELISSONNIERE Biological Reserve","coordinates":[-0.966,46.7744]},{"code":"FR-7890","program":"pota","name":"REGION DE L'HAUMANDIERE,BOIS DES FORGES ET ENVIRON Biological Reserve","coordinates":[-0.90595,46.7553]}]}