{"lat":46.75,"lon":-116.25,"programs":["sota"],"count":13,"references":[{"code":"W7I/NI-126","program":"sota","name":"Woesner Ridge","coordinates":[-116.0013,46.9878]},{"code":"W7I/NI-127","program":"sota","name":"Elk Butte","coordinates":[-116.1177,46.841]},{"code":"W7I/NI-137","program":"sota","name":"Hemlock Butte","coordinates":[-116.1548,46.9164]},{"code":"W7I/NI-141","program":"sota","name":"Grice Ridge","coordinates":[-116.1113,46.9698]},{"code":"W7I/NI-185","program":"sota","name":"Green Mountain","coordinates":[-116.0421,46.8371]},{"code":"W7I/NI-192","program":"sota","name":"5180","coordinates":[-116.0896,46.8909]},{"code":"W7I/NI-210","program":"sota","name":"4930","coordinates":[-116.0866,46.9387]},{"code":"W7I/NI-214","program":"sota","name":"4866","coordinates":[-116.2079,46.8714]},{"code":"W7I/NI-215","program":"sota","name":"4864","coordinates":[-116.2131,46.827]},{"code":"W7I/NI-231","program":"sota","name":"Anthony Peak","coordinates":[-116.1909,46.9811]},{"code":"W7I/NI-242","program":"sota","name":"Gold Butte","coordinates":[-116.0438,46.7685]},{"code":"W7I/NI-251","program":"sota","name":"4402","coordinates":[-116.0199,46.8903]},{"code":"W7I/NI-253","program":"sota","name":"4364","coordinates":[-116.1048,46.7843]}]}