{"lat":46.75,"lon":3,"programs":["pota"],"count":11,"references":[{"code":"FR-12745","program":"pota","name":"VAL D'ALLIER Biological Reserve","coordinates":[3.001,46.785]},{"code":"FR-12746","program":"pota","name":"SUINTEMENTS ET PATURES DE L'ETANG BERNOT Biological Reserve","coordinates":[3.028,46.853]},{"code":"FR-12747","program":"pota","name":"Suintements et patures du Picot Bourdiau et du vallon humide de Bougel Biological Reserve","coordinates":[3.002,46.852]},{"code":"FR-12748","program":"pota","name":"Gours des Puits et de la Boele Biological Reserve","coordinates":[3.056,46.89]},{"code":"FR-12750","program":"pota","name":"ILES ET GREVES DE MARZY (BEC D'ALLIER) Biological Reserve","coordinates":[3.067,46.969]},{"code":"FR-12752","program":"pota","name":"VALLEE DE LA LOIRE DE NEUVY-SUR-LOIRE A NEVERS Biological Reserve","coordinates":[3.069,46.98]},{"code":"FR-12753","program":"pota","name":"VALLEE DE LA LOIRE AU BEC D'ALLIER Biological Reserve","coordinates":[3.07,46.985]},{"code":"FR-12754","program":"pota","name":"BOCAGE DE SAINCAIZE-MEAUCE Biological Reserve","coordinates":[3.086,46.904]},{"code":"FR-12755","program":"pota","name":"BOCAGE DE LA PLAINE D'ALLIER ENTRE MARS-SUR-ALLIER ET DHEREE Biological Reserve","coordinates":[3.113,46.867]},{"code":"FR-12749","program":"pota","name":"Bois des Picard Biological Reserve","coordinates":[3.022,46.914]},{"code":"FR-12751","program":"pota","name":"LOIRE BERRICHONNE Biological Reserve","coordinates":[3.062,46.976]}]}