{"lat":46.75,"lon":12,"programs":["gma","pota","sota","wwbota"],"count":36,"references":[{"code":"OE/TI-676","program":"gma","name":"Lenkstein","coordinates":[12.1664,46.9392]},{"code":"OE/TI-768","program":"gma","name":"Keesegg","coordinates":[12.2417,46.9692]},{"code":"OE/TI-774","program":"gma","name":"Fleischbachspitze","coordinates":[12.1625,46.9583]},{"code":"OE/TI-787","program":"gma","name":"Grosse Ohrenspitze","coordinates":[12.1775,46.9067]},{"code":"OE/TI-855","program":"gma","name":"Nördlicher Gipfel der Bretterspitzen","coordinates":[12.1925,46.945]},{"code":"OE/TI-875","program":"gma","name":"Kärlskopf","coordinates":[12.2358,46.8883]},{"code":"OE0/TI-1371","program":"gma","name":"Totenkar Spitze","coordinates":[12.20440006,46.98059845]},{"code":"IT-0684","program":"pota","name":"Parco Naturale Vedrette di Ries - Aurina Natura 2000","coordinates":[12.0775,46.9389]},{"code":"IT-1280","program":"pota","name":"Biotopo Rasner Möser Natura 2000","coordinates":[12.0747,46.8075]},{"code":"I/AA-013","program":"sota","name":"Monte Collalto / Hochgall","coordinates":[12.1401,46.9109]},{"code":"I/AA-019","program":"sota","name":"Monte Nevoso / Schneebiger Nock","coordinates":[12.0842,46.9054]},{"code":"I/AA-025","program":"sota","name":"Monte Collaspro / Wildgall","coordinates":[12.1357,46.9031]},{"code":"I/AA-034","program":"sota","name":"Cima Finestra / Fensterkofel","coordinates":[12.0426,46.8926]},{"code":"I/AA-038","program":"sota","name":"Cima Dura / Durreck","coordinates":[12.0292,46.9612]},{"code":"I/AA-044","program":"sota","name":"Picco Palù / Großer Moosstock","coordinates":[12.0226,46.9507]},{"code":"I/AA-046","program":"sota","name":"Cima del Vento / Große Windschar","coordinates":[12.017,46.8899]},{"code":"I/AA-066","program":"sota","name":"Cima del Gatto / Katzenkofel","coordinates":[12.0592,46.9802]},{"code":"I/AA-081","program":"sota","name":"Punta Nera / Schwarzerspitz","coordinates":[12.0769,46.9887]},{"code":"I/AA-091","program":"sota","name":"Croda Rossa / Rote Wand","coordinates":[12.1795,46.8646]},{"code":"I/AA-120","program":"sota","name":"Monte Costa / Amperspitze","coordinates":[12.1371,46.8307]},{"code":"I/AA-141","program":"sota","name":"Ampertörl","coordinates":[12.1389,46.8439]},{"code":"I/AA-160","program":"sota","name":"Corno Alto / Zinsnock","coordinates":[12.0372,46.86]},{"code":"I/AA-166","program":"sota","name":"Monte Novale di Fuori / Eisatz","coordinates":[12.1553,46.802]},{"code":"I/AA-202","program":"sota","name":"Stadlenhörnl","coordinates":[12.2221,46.7576]},{"code":"I/AA-337","program":"sota","name":"Cima Montone Rammelstein","coordinates":[12.0532,46.8345]},{"code":"OE/TI-676","program":"sota","name":"Lenkstein","coordinates":[12.1664,46.9392]},{"code":"OE/TI-768","program":"sota","name":"Keesegg","coordinates":[12.2417,46.9692]},{"code":"OE/TI-774","program":"sota","name":"Fleischbachspitze","coordinates":[12.1625,46.9583]},{"code":"OE/TI-787","program":"sota","name":"Grosse Ohrenspitze","coordinates":[12.1775,46.9067]},{"code":"OE/TI-855","program":"sota","name":"Nördlicher Gipfel der Bretterspitzen","coordinates":[12.1925,46.945]},{"code":"OE/TI-875","program":"sota","name":"Kärlskopf","coordinates":[12.2358,46.8883]},{"code":"B/IT-0198","program":"wwbota","name":"Bunker (Opera 12  / Trentino a a )","coordinates":[12.03172,46.75261]},{"code":"B/IT-0199","program":"wwbota","name":"Bunker (Opera 15 / Trentino a a )","coordinates":[12.01095,46.75884]},{"code":"B/IT-0200","program":"wwbota","name":"Bunker (Bunker 7 / Trentino a a )","coordinates":[12.03646,46.77354]},{"code":"B/IT-0260","program":"wwbota","name":"Bunker (Trentino a a )","coordinates":[12.04197,46.78331]},{"code":"B/IT-0261","program":"wwbota","name":"Bunker (Opera 3  / Trentino a a )","coordinates":[12.21158,46.79411]}]}