{"lat":46.75,"lon":11.5,"programs":["gma","pota","sota","wwbota"],"count":49,"references":[{"code":"IT/AA-1031","program":"gma","name":"Amthornspitz(Hühnerspiel)/ C. Gallina","coordinates":[11.50173,46.94465]},{"code":"IT/AA-1032","program":"gma","name":"Weißspitze/ P. Bianca","coordinates":[11.50173,46.93833]},{"code":"IT/AA-1037","program":"gma","name":"Karspitze/ Punta Quaria","coordinates":[11.5635,46.7611]},{"code":"OE/TI-679","program":"gma","name":"Rotbachlspitze","coordinates":[11.6883,46.9953]},{"code":"OE/TI-702","program":"gma","name":"Hochfeiler","coordinates":[11.7275,46.9725]},{"code":"OE/TI-789","program":"gma","name":"Hochsteller","coordinates":[11.7117,46.9967]},{"code":"OE/TI-898","program":"gma","name":"Wolfendom","coordinates":[11.5375,46.9842]},{"code":"IT-1291","program":"pota","name":"Biotopo Sommersurs Nature Reserve","coordinates":[11.6803,46.7602]},{"code":"IT-1293","program":"pota","name":"Biotopo Sanderau Regional Reserve","coordinates":[11.6119,46.9691]},{"code":"IT-1307","program":"pota","name":"Biotopo Palude Lago di Vizze Regional Reserve","coordinates":[11.5266,46.9287]},{"code":"IT-1312","program":"pota","name":"Biotopo Palude del Lago di Varna Nature Reserve","coordinates":[11.635,46.7647]},{"code":"I/AA-043","program":"sota","name":"Cima Grava / Grabspitz","coordinates":[11.6145,46.9389]},{"code":"I/AA-050","program":"sota","name":"Cima di Valmala / Wurmaulspitz","coordinates":[11.6379,46.914]},{"code":"I/AA-055","program":"sota","name":"Cima Vista / Blicknspitz","coordinates":[11.603,46.9078]},{"code":"I/AA-062","program":"sota","name":"Punta Rossa / Rotes Beil","coordinates":[11.6608,46.9528]},{"code":"I/AA-063","program":"sota","name":"Croda Rossa / Rotwand","coordinates":[11.6415,46.8982]},{"code":"I/AA-073","program":"sota","name":"Cima Cadini / Napfspitz","coordinates":[11.74,46.9402]},{"code":"I/AA-075","program":"sota","name":"Scoglio Rosso / Rote Riffl","coordinates":[11.7406,46.9239]},{"code":"I/AA-084","program":"sota","name":"Cima Felbes / Felbe","coordinates":[11.6302,46.9462]},{"code":"I/AA-096","program":"sota","name":"Cima Rolle / Rollespitze","coordinates":[11.5079,46.9464]},{"code":"I/AA-112","program":"sota","name":"Monte Domenar / Nornspitz","coordinates":[11.5926,46.8811]},{"code":"I/AA-117","program":"sota","name":"Monte Grande / Drasbergspitz","coordinates":[11.5648,46.9263]},{"code":"I/AA-135","program":"sota","name":"Cima della Capra / Gajsjoch-Gurnatsch","coordinates":[11.6447,46.8636]},{"code":"I/AA-136","program":"sota","name":"Croda della Porta / Torwand","coordinates":[11.5771,46.9438]},{"code":"I/AA-149","program":"sota","name":"Kasebacher Hörndl","coordinates":[11.5435,46.7562]},{"code":"I/AA-152","program":"sota","name":"Cima Vallaccia / Flatschspitz","coordinates":[11.5248,46.9727]},{"code":"I/AA-163","program":"sota","name":"Monte Cuzzo / Gitschberg","coordinates":[11.6869,46.8595]},{"code":"I/AA-179","program":"sota","name":"Giogo di Trens / Höllenkragen","coordinates":[11.5233,46.8881]},{"code":"I/AA-194","program":"sota","name":"Stoanamandl","coordinates":[11.5999,46.8333]},{"code":"I/AA-196","program":"sota","name":"Cima di Campo / Kampelespitz","coordinates":[11.5638,46.8301]},{"code":"I/AA-197","program":"sota","name":"Monte Sella / Sattelspitze","coordinates":[11.5744,46.7753]},{"code":"I/AA-199","program":"sota","name":"Monte del Bersaglio /Scheibenberg","coordinates":[11.6061,46.7661]},{"code":"I/AA-217","program":"sota","name":"Sciaves","coordinates":[11.6894,46.7615]},{"code":"I/AA-332","program":"sota","name":"Picco della Croce / Wilde Kreuzspitze","coordinates":[11.5932,46.9124]},{"code":"OE/TI-679","program":"sota","name":"Rotbachlspitze","coordinates":[11.6883,46.9953]},{"code":"OE/TI-702","program":"sota","name":"Hochfeiler","coordinates":[11.7275,46.9725]},{"code":"OE/TI-789","program":"sota","name":"Hochsteller","coordinates":[11.7117,46.9967]},{"code":"OE/TI-898","program":"sota","name":"Wolfendom","coordinates":[11.5375,46.9842]},{"code":"B/IT-0185","program":"wwbota","name":"Bunker (Opera 2 / Trentino a a )","coordinates":[11.54506,46.94857]},{"code":"B/IT-0186","program":"wwbota","name":"Bunker (Opera 3 / Trentino a a )","coordinates":[11.5505,46.94754]},{"code":"B/IT-0187","program":"wwbota","name":"Bunker (Opera 10 / Trentino a a )","coordinates":[11.53497,46.9461]},{"code":"B/IT-0188","program":"wwbota","name":"Bunker (Opera 1 Mules  / Trentino a a )","coordinates":[11.51107,46.8579]},{"code":"B/IT-0189","program":"wwbota","name":"Bunker (Opera 5 / Trentino a a )","coordinates":[11.50171,46.85194]},{"code":"B/IT-0190","program":"wwbota","name":"Bunker (Opera 2 / Trentino a a )","coordinates":[11.64373,46.77188]},{"code":"B/IT-0191","program":"wwbota","name":"Bunker (Opera 35 / Trentino a a )","coordinates":[11.66827,46.77813]},{"code":"B/IT-0192","program":"wwbota","name":"Bunker (Opera 17 / Trentino a a )","coordinates":[11.66492,46.79325]},{"code":"B/IT-0193","program":"wwbota","name":"Bunker (Opera 16 / Trentino a a )","coordinates":[11.66176,46.79716]},{"code":"B/IT-0194","program":"wwbota","name":"Bunker (Opera S. Benedetto / Trentino a a )","coordinates":[11.6856,46.78562]},{"code":"B/IT-0195","program":"wwbota","name":"Bunker (Kulchlbunker / Trentino a a )","coordinates":[11.67241,46.78004]}]}