{"lat":46.75,"lon":8.25,"programs":["gma","pota","sota","wwbota"],"count":40,"references":[{"code":"HB/BE-045","program":"gma","name":"Wendenstöcke","coordinates":[8.38029957,46.76169968]},{"code":"HB9/BE-1025","program":"gma","name":"Fünffingerstöck","coordinates":[8.43610001,46.75220108]},{"code":"HB9/NW-1001","program":"gma","name":"Rigidalstock","coordinates":[8.41940022,46.85189819]},{"code":"HB9/NW-1002","program":"gma","name":"Widderfeld Stock","coordinates":[8.33250046,46.83359909]},{"code":"HB9/NW-1003","program":"gma","name":"Rotstöckli","coordinates":[8.42577,46.77759]},{"code":"HB9/OW-1001","program":"gma","name":"Ruchstock","coordinates":[8.47309971,46.85440063]},{"code":"HB9/OW-1002","program":"gma","name":"Gross Gemsispil","coordinates":[8.46310043,46.83560181]},{"code":"CH-0170","program":"pota","name":"Vierwaldstättersee mit Kernwald, Bürgenstock und Rigi (Teilraum 6) Natural Monument","coordinates":[8.29282,46.9516]},{"code":"HB/BE-045","program":"sota","name":"Gross Wendestock","coordinates":[8.3804,46.7616]},{"code":"HB/NW-001","program":"sota","name":"Ruchstock","coordinates":[8.4708,46.8565]},{"code":"HB/NW-002","program":"sota","name":"Rotsandnollen","coordinates":[8.3441,46.8007]},{"code":"HB/NW-003","program":"sota","name":"Huetstock/​Wild Geissberg","coordinates":[8.3318,46.8115]},{"code":"HB/NW-004","program":"sota","name":"Graustock","coordinates":[8.3689,46.7879]},{"code":"HB/NW-005","program":"sota","name":"Grosser Sättelistock","coordinates":[8.4372,46.8531]},{"code":"HB/NW-007","program":"sota","name":"Hoh Brisen","coordinates":[8.4656,46.8975]},{"code":"HB/NW-008","program":"sota","name":"Chaiserstuel","coordinates":[8.4679,46.8772]},{"code":"HB/NW-009","program":"sota","name":"Nünalphorn","coordinates":[8.3255,46.8239]},{"code":"HB/NW-013","program":"sota","name":"Schluchberg","coordinates":[8.3337,46.8668]},{"code":"HB/NW-015","program":"sota","name":"Stanserhorn","coordinates":[8.3403,46.9297]},{"code":"HB/NW-016","program":"sota","name":"Buochserhorn","coordinates":[8.4287,46.9456]},{"code":"HB/NW-017","program":"sota","name":"Musenalper Grat","coordinates":[8.4417,46.9315]},{"code":"HB/NW-018","program":"sota","name":"Klewenstock","coordinates":[8.4782,46.9335]},{"code":"HB/NW-020","program":"sota","name":"Salistock","coordinates":[8.355,46.8402]},{"code":"HB/NW-021","program":"sota","name":"Drachenflue","coordinates":[8.3192,46.9546]},{"code":"HB/NW-022","program":"sota","name":"Rotzberg","coordinates":[8.3364,46.9641]},{"code":"HB/NW-023","program":"sota","name":"Punkt 1340 bei Wellenberg","coordinates":[8.4042,46.8872]},{"code":"HB/OW-001","program":"sota","name":"Titlis","coordinates":[8.4378,46.772]},{"code":"HB/OW-002","program":"sota","name":"Reissend Nollen","coordinates":[8.4009,46.7665]},{"code":"HB/OW-003","program":"sota","name":"Grassen","coordinates":[8.4484,46.7634]},{"code":"HB/OW-006","program":"sota","name":"Barglen/Schiben","coordinates":[8.332,46.7966]},{"code":"HB/OW-007","program":"sota","name":"Glogghüs","coordinates":[8.2626,46.7607]},{"code":"HB/OW-011","program":"sota","name":"Heitlistock","coordinates":[8.2507,46.8109]},{"code":"HB/OW-015","program":"sota","name":"Matthorn","coordinates":[8.2528,46.9706]},{"code":"HB/OW-023","program":"sota","name":"Hahnen","coordinates":[8.4556,46.8239]},{"code":"HB/OW-026","program":"sota","name":"Stotzigberggrat","coordinates":[8.4824,46.8185]},{"code":"HB/UR-027","program":"sota","name":"Wendenhorn","coordinates":[8.4435,46.7539]},{"code":"HB/UR-033","program":"sota","name":"Wichelplanggstock","coordinates":[8.4727,46.7657]},{"code":"B/HB-0010","program":"wwbota","name":"Artilleriewerk Ursprung","coordinates":[8.407706,46.935606]},{"code":"B/HB-0011","program":"wwbota","name":"Festung Fürigen","coordinates":[8.34847,46.98367]},{"code":"B/HB-0012","program":"wwbota","name":"Festung Mueterschwanderberg","coordinates":[8.32266,46.951819]}]}