{"lat":46.75,"lon":10.5,"programs":["gma","pota","sota","wwbota"],"count":47,"references":[{"code":"IT/TA-1016","program":"gma","name":"Grauner Berg","coordinates":[10.549971,46.827136]},{"code":"OE/TI-050","program":"gma","name":"Nauderer Hennesiglspitze","coordinates":[10.62419987,46.86439896]},{"code":"OE/TI-110","program":"gma","name":"Schartlkopf","coordinates":[10.56169987,46.90000153]},{"code":"OE/TI-139","program":"gma","name":"Schmalzkopf","coordinates":[10.53530025,46.93109894]},{"code":"OE/TI-687","program":"gma","name":"Plattigkopf","coordinates":[10.6758,46.9276]},{"code":"OE/TI-691","program":"gma","name":"Weisskugel","coordinates":[10.7267,46.7983]},{"code":"OE/TI-699","program":"gma","name":"Langtauferer Spitze","coordinates":[10.7458,46.805]},{"code":"OE/TI-700","program":"gma","name":"Weissseespitze","coordinates":[10.7175,46.8467]},{"code":"OE/TI-735","program":"gma","name":"Glockenturm","coordinates":[10.6658,46.8925]},{"code":"OE/TI-777","program":"gma","name":"Pfroslkopf","coordinates":[10.6892,46.9775]},{"code":"OE/TI-797","program":"gma","name":"Kuppkarlesspitze","coordinates":[10.707,46.9989]},{"code":"OE/TI-799","program":"gma","name":"Plamorder Spitze","coordinates":[10.5542,46.8399]},{"code":"OE/TI-809","program":"gma","name":"Tauferer Kopf","coordinates":[10.6858,46.9675]},{"code":"OE/TI-814","program":"gma","name":"Mittlerer Seekarkopf","coordinates":[10.6192,46.8733]},{"code":"OE/TI-828","program":"gma","name":"Wildnörderer","coordinates":[10.615,46.8908]},{"code":"OE/TI-833","program":"gma","name":"Grosser Schafkopf","coordinates":[10.5958,46.8575]},{"code":"OE/TI-856","program":"gma","name":"Hochjoch - Ötztaler","coordinates":[10.6392,46.9483]},{"code":"OE0/TI-1385","program":"gma","name":"Bergkastelspitze","coordinates":[10.5564003,46.84669876]},{"code":"OE0/TI-1559","program":"gma","name":"Ulrichskopf","coordinates":[10.54279995,46.94279861]},{"code":"IT-1908","program":"pota","name":"Jaggl Natura 2000","coordinates":[10.5578,46.7933]},{"code":"I/AA-007","program":"sota","name":"Cima Barba d'Orso di Fuori / Äußerer Bärenbartkogel","coordinates":[10.6996,46.7967]},{"code":"I/AA-010","program":"sota","name":"Punta di Oberettes / Schwemser Spitze","coordinates":[10.7325,46.7735]},{"code":"I/AA-015","program":"sota","name":"Cima dei Corvi / Rabenkopf","coordinates":[10.6728,46.7835]},{"code":"I/AA-018","program":"sota","name":"Punta Valbella / Südliche Valvelspitze","coordinates":[10.6706,46.7686]},{"code":"I/AA-035","program":"sota","name":"Cima Dentrovalle /Danzebell","coordinates":[10.6339,46.7803]},{"code":"OE/TI-050","program":"sota","name":"Nauderer Hennesiglspitze","coordinates":[10.6242,46.8644]},{"code":"OE/TI-110","program":"sota","name":"Schartlkopf","coordinates":[10.5617,46.9]},{"code":"OE/TI-139","program":"sota","name":"Schmalzkopf","coordinates":[10.5353,46.9311]},{"code":"OE/TI-687","program":"sota","name":"Plattigkopf","coordinates":[10.6758,46.9276]},{"code":"OE/TI-691","program":"sota","name":"Weisskugel","coordinates":[10.7267,46.7983]},{"code":"OE/TI-699","program":"sota","name":"Langtauferer Spitze","coordinates":[10.7458,46.805]},{"code":"OE/TI-700","program":"sota","name":"Weissseespitze","coordinates":[10.7175,46.8467]},{"code":"OE/TI-735","program":"sota","name":"Glockenturm","coordinates":[10.6658,46.8925]},{"code":"OE/TI-777","program":"sota","name":"Pfroslkopf","coordinates":[10.6892,46.9775]},{"code":"OE/TI-797","program":"sota","name":"Kuppkarlesspitze","coordinates":[10.707,46.9989]},{"code":"OE/TI-799","program":"sota","name":"Plamorder Spitze","coordinates":[10.5542,46.8399]},{"code":"OE/TI-809","program":"sota","name":"Tauferer Kopf","coordinates":[10.6858,46.9675]},{"code":"OE/TI-814","program":"sota","name":"Mittlerer Seekarkopf","coordinates":[10.6192,46.8733]},{"code":"OE/TI-828","program":"sota","name":"Wildnörderer","coordinates":[10.615,46.8908]},{"code":"OE/TI-833","program":"sota","name":"Grosser Schafkopf","coordinates":[10.5958,46.8575]},{"code":"OE/TI-856","program":"sota","name":"Hochjoch - Ötztaler","coordinates":[10.6392,46.9483]},{"code":"OE/TL-005","program":"sota","name":"Frudiger","coordinates":[10.585,46.9725]},{"code":"B/IT-0175","program":"wwbota","name":"Bunker (Opera 20 / Trentino a a )","coordinates":[10.51639,46.83444]},{"code":"B/IT-0176","program":"wwbota","name":"Bunker (Opera 19 / Trentino a a )","coordinates":[10.51307,46.83351]},{"code":"B/IT-0177","program":"wwbota","name":"Bunker (Opera 10 / Trentino a a )","coordinates":[10.52108,46.84191]},{"code":"B/IT-0178","program":"wwbota","name":"Bunker (Pian dei Morti Denti di Drago  / Trentino a a )","coordinates":[10.52634,46.84431]},{"code":"B/IT-0179","program":"wwbota","name":"Bunker (Opera 12  / Trentino a a )","coordinates":[10.52876,46.84355]}]}