{"lat":46.75,"lon":14.25,"programs":["gma","sota"],"count":29,"references":[{"code":"OE/KT-158","program":"gma","name":"Gasserriegel","coordinates":[14.47859955,46.9314003]},{"code":"OE/KT-162","program":"gma","name":"Schneebauerberg","coordinates":[14.25080013,46.79669952]},{"code":"OE/KT-180","program":"gma","name":"Gauerstall","coordinates":[14.30669975,46.77690125]},{"code":"OE/KT-271","program":"gma","name":"Kulm","coordinates":[14.3564,46.7972]},{"code":"OE/KT-276","program":"gma","name":"Krieblberg","coordinates":[14.3803,46.81]},{"code":"OE/KT-361","program":"gma","name":"Saumarkt","coordinates":[14.2964,46.9476]},{"code":"OE/KT-365","program":"gma","name":"Pirkerkogel","coordinates":[14.3301,46.8759]},{"code":"OE/KT-367","program":"gma","name":"Minachberg","coordinates":[14.4311,46.9571]},{"code":"OE/KT-375","program":"gma","name":"Buchberg","coordinates":[14.4517,46.7761]},{"code":"OE/KT-399","program":"gma","name":"Salbrechtkopf","coordinates":[14.3171,46.8118]},{"code":"OE0/KT-1084","program":"gma","name":"Moschitzberg","coordinates":[14.35000038,46.93330002]},{"code":"OE0/KT-1089","program":"gma","name":"Kolbenberg","coordinates":[14.33329964,46.81669998]},{"code":"OE0/KT-1094","program":"gma","name":"Birbühel","coordinates":[14.31669998,46.83330154]},{"code":"OE0/KT-1095","program":"gma","name":"Rigi","coordinates":[14.39999962,46.91669846]},{"code":"OE0/KT-1098","program":"gma","name":"LerchbaumerkoÃ‚Â­gel","coordinates":[14.41670036,46.95000076]},{"code":"OE0/KT-1106","program":"gma","name":"Propstenhöhe","coordinates":[14.35000038,46.83330154]},{"code":"OE0/KT-1112","program":"gma","name":"Galgenkogel","coordinates":[14.36670017,46.78329849]},{"code":"OE0/KT-1114","program":"gma","name":"Kumitschkogel","coordinates":[14.39999962,46.79999924]},{"code":"OE0/KT-1152","program":"gma","name":"Burg Hochosterwitz","coordinates":[14.45224,46.75583]},{"code":"OE/KT-158","program":"sota","name":"Gasserriegel","coordinates":[14.4786,46.9314]},{"code":"OE/KT-162","program":"sota","name":"Schneebauerberg","coordinates":[14.2508,46.7967]},{"code":"OE/KT-180","program":"sota","name":"Gauerstall","coordinates":[14.3067,46.7769]},{"code":"OE/KT-271","program":"sota","name":"Kulm","coordinates":[14.3564,46.7972]},{"code":"OE/KT-276","program":"sota","name":"Krieblberg","coordinates":[14.3803,46.81]},{"code":"OE/KT-361","program":"sota","name":"Saumarkt","coordinates":[14.2964,46.9476]},{"code":"OE/KT-365","program":"sota","name":"Pirkerkogel","coordinates":[14.3301,46.8759]},{"code":"OE/KT-367","program":"sota","name":"Minachberg","coordinates":[14.4311,46.9571]},{"code":"OE/KT-375","program":"sota","name":"Buchberg","coordinates":[14.4517,46.7761]},{"code":"OE/KT-399","program":"sota","name":"Salbrechtkopf","coordinates":[14.3171,46.8118]}]}