{"lat":46.75,"lon":-114.5,"programs":["sota"],"count":8,"references":[{"code":"W7M/LM-086","program":"sota","name":"Petty Mountain","coordinates":[-114.406,46.9111]},{"code":"W7M/LM-125","program":"sota","name":"6340","coordinates":[-114.2563,46.8122]},{"code":"W7M/LM-136","program":"sota","name":"Martin Point","coordinates":[-114.4885,46.9584]},{"code":"W7M/LM-139","program":"sota","name":"Albert Point","coordinates":[-114.3529,46.9478]},{"code":"W7M/LM-144","program":"sota","name":"5810","coordinates":[-114.3733,46.9698]},{"code":"W7M/LM-146","program":"sota","name":"Wild Horse Point","coordinates":[-114.3207,46.927]},{"code":"W7M/LM-169","program":"sota","name":"5130","coordinates":[-114.2916,46.958]},{"code":"W7M/LM-171","program":"sota","name":"Diamond Point","coordinates":[-114.3051,46.8912]}]}