{"lat":46.75,"lon":-0.25,"programs":["pota"],"count":11,"references":[{"code":"FR-4241","program":"pota","name":"Plaine d Oiron-Thenezay Natura 2000","coordinates":[-0.06056,46.8569]},{"code":"FR-14166","program":"pota","name":"VALLEE DU PRESSOIR Biological Reserve","coordinates":[-0.244,46.978]},{"code":"FR-14167","program":"pota","name":"COTEAU DE RECHIGNON Biological Reserve","coordinates":[-0.227,46.973]},{"code":"FR-14181","program":"pota","name":"Grand etang de Pas de Jeu Biological Reserve","coordinates":[-0.044,46.99]},{"code":"FR-14182","program":"pota","name":"ROCHOUX Biological Reserve","coordinates":[-0.02,46.923]},{"code":"FR-14183","program":"pota","name":"PLAINE DE SAINT-VARENT, SAINT-GENEROUX Biological Reserve","coordinates":[-0.18,46.91]},{"code":"FR-14184","program":"pota","name":"VALLEE DES VAUX Biological Reserve","coordinates":[-0.136,46.863]},{"code":"FR-14185","program":"pota","name":"VALLEE DE FOURBEAU Biological Reserve","coordinates":[-0.138,46.852]},{"code":"FR-14186","program":"pota","name":"BOIS DES CHEINTRES Biological Reserve","coordinates":[-0.152,46.817]},{"code":"FR-14187","program":"pota","name":"Pelouses seches de la vallee du Gateau Biological Reserve","coordinates":[-0.129,46.786]},{"code":"FR-14188","program":"pota","name":"LAC DU CEBRON Biological Reserve","coordinates":[-0.197,46.768]}]}