{"lat":46.75,"lon":-71.5,"programs":["pota","sota","wwbota"],"count":20,"references":[{"code":"CA-0956","program":"pota","name":"Boisé de Marly Forest Reserve","coordinates":[-71.3328,46.754]},{"code":"CA-0957","program":"pota","name":"Boisé de Tequenonday Forest Reserve","coordinates":[-71.2712,46.7582]},{"code":"CA-0958","program":"pota","name":"Boisé des Compagnons-de-Cartier Forest Reserve","coordinates":[-71.3301,46.7599]},{"code":"CA-0959","program":"pota","name":"La Promenade Samuel-De Champlain Provincial Park","coordinates":[-71.2713,46.7563]},{"code":"CA-0970","program":"pota","name":"Parc de la Plage-Jacques-Cartier Regional Park","coordinates":[-71.3143,46.7505]},{"code":"CA-2120","program":"pota","name":"Marais-du-Nord Nature Reserve","coordinates":[-71.3933,46.9614]},{"code":"CA-4945","program":"pota","name":"Base de plein air Sainte-Foy Regional Park","coordinates":[-71.3337,46.7866]},{"code":"CA-5006","program":"pota","name":"Chute Kabir Kouba Regional Park","coordinates":[-71.3548,46.8559]},{"code":"CA-5037","program":"pota","name":"Site patrimonial de la Visitation Regional Park","coordinates":[-71.3029,46.7783]},{"code":"CA-5068","program":"pota","name":"Parc des Moulins (Qc) Regional Park","coordinates":[-71.2987,46.8901]},{"code":"CA-5866","program":"pota","name":"Beth Israël Cemetery National Historic Site","coordinates":[-71.2604,46.785]},{"code":"VE2/QC-007","program":"sota","name":"Mont Tourbillon","coordinates":[-71.2538,46.9756]},{"code":"VE2/QC-008","program":"sota","name":"Mont Bélair","coordinates":[-71.4935,46.8231]},{"code":"VE2/QC-022","program":"sota","name":"Mont Brillant","coordinates":[-71.4472,46.8992]},{"code":"VE2/QC-188","program":"sota","name":"Mont des Trois Augustines","coordinates":[-71.4444,46.9808]},{"code":"VE2/QC-234","program":"sota","name":"VE2/QC-234","coordinates":[-71.3363,46.9909]},{"code":"B/CA-1349","program":"wwbota","name":"Valcartier BRIDGE","coordinates":[-71.4868723,46.88725023]},{"code":"B/CA-1360","program":"wwbota","name":"FRP DB24","coordinates":[-71.3835353,46.79326443]},{"code":"B/CA-1432","program":"wwbota","name":"Telephone, CA(R) Quebec City-Camp Valcartier","coordinates":[-71.34483335,46.84722415]},{"code":"B/CA-1434","program":"wwbota","name":"Radio : L'Ancienne Lorette-Camp Valcartier","coordinates":[-71.4361255,46.84330805]}]}