{"lat":46.75,"lon":3.5,"programs":["pota"],"count":6,"references":[{"code":"FR-9795","program":"pota","name":"VALLEE DE L'ARON ET FORET DE VINCENCE Biological Reserve","coordinates":[3.69575,46.9487]},{"code":"FR-9798","program":"pota","name":"BOCAGE ET FORET DE LA TUILERIE A PANNECOT Biological Reserve","coordinates":[3.74409,46.963]},{"code":"FR-9799","program":"pota","name":"MARES DE LA CHAUME DES CHAMPS Biological Reserve","coordinates":[3.72293,46.9355]},{"code":"FR-9800","program":"pota","name":"VALLEE DE L'ARON A L'EST DE DECIZE Biological Reserve","coordinates":[3.52856,46.8395]},{"code":"FR-9817","program":"pota","name":"VALLEE DE LA LOIRE ENTRE DEVAY ET SAINT-HILAIRE-FONTAINE Biological Reserve","coordinates":[3.5418,46.7889]},{"code":"FR-9818","program":"pota","name":"VALLEE DE LA LOIRE DE SAINT-HILAIRE-FONTAINE A DECIZE Biological Reserve","coordinates":[3.55006,46.7884]}]}