{"lat":46.75,"lon":13.75,"programs":["gma","pota","sota"],"count":55,"references":[{"code":"OE/KT-047","program":"gma","name":"Königstuhl","coordinates":[13.78419971,46.9435997]},{"code":"OE/KT-048","program":"gma","name":"Rinsennock","coordinates":[13.85060024,46.90890121]},{"code":"OE/KT-050","program":"gma","name":"Klomnock","coordinates":[13.78779984,46.88140106]},{"code":"OE/KT-051","program":"gma","name":"Bretthöhe","coordinates":[13.93640041,46.91249847]},{"code":"OE/KT-052","program":"gma","name":"Rodresnock","coordinates":[13.81579971,46.85279846]},{"code":"OE/KT-057","program":"gma","name":"Koflernock","coordinates":[13.79389954,46.90940094]},{"code":"OE/KT-075","program":"gma","name":"Wöllaner Nock","coordinates":[13.8281002,46.77640152]},{"code":"OE/KT-112","program":"gma","name":"Kruckenspitze","coordinates":[13.96389961,46.83720016]},{"code":"OE/KT-123","program":"gma","name":"Kegel","coordinates":[13.98670006,46.86249924]},{"code":"OE/KT-125","program":"gma","name":"Knittel","coordinates":[13.97999954,46.80500031]},{"code":"OE/KT-336","program":"gma","name":"Reisseck","coordinates":[13.8318,46.9671]},{"code":"OE/KT-337","program":"gma","name":"Gregerlnock","coordinates":[13.8153,46.9184]},{"code":"OE/KT-338","program":"gma","name":"Pfannock","coordinates":[13.7539,46.888]},{"code":"OE/KT-339","program":"gma","name":"Schiestlnock","coordinates":[13.7968,46.8935]},{"code":"OE/KT-347","program":"gma","name":"Höllenberg","coordinates":[13.8904,46.8308]},{"code":"OE/SB-406","program":"gma","name":"Ochsenriegel","coordinates":[13.7958,46.9868]},{"code":"OE/SB-462","program":"gma","name":"Reisseck","coordinates":[13.8318,46.9671]},{"code":"OE/ST-019","program":"gma","name":"Eisenhut","coordinates":[13.9282999,46.95220184]},{"code":"OE/ST-025","program":"gma","name":"Kilnprein","coordinates":[13.84309959,46.9858017]},{"code":"OE0/KT-1002","program":"gma","name":"Gruft","coordinates":[13.90190029,46.90530014]},{"code":"OE0/KT-1044","program":"gma","name":"Wintertalernock","coordinates":[13.95189953,46.94219971]},{"code":"OE0/KT-1047","program":"gma","name":"Großer Speikkofel","coordinates":[13.93970013,46.89390182]},{"code":"OE0/KT-1136","program":"gma","name":"Kilnprein","coordinates":[13.8427,46.9861]},{"code":"OE0/KT-1146","program":"gma","name":"Falkert","coordinates":[13.81634,46.86027]},{"code":"OE0/KT-1147","program":"gma","name":"Falkertköpfl","coordinates":[13.81609,46.86852]},{"code":"OE0/KT-1148","program":"gma","name":"Vorderer Wöllaner Nock","coordinates":[13.83425,46.76879]},{"code":"OE0/KT-1149","program":"gma","name":"Mallnock","coordinates":[13.76962,46.87644]},{"code":"OE0/KT-1156","program":"gma","name":"Kornock","coordinates":[13.85572,46.91547]},{"code":"OE0/KT-1158","program":"gma","name":"Pfaffeneck","coordinates":[13.83507,46.77875]},{"code":"OE0/KT-1160","program":"gma","name":"Kaiserburg","coordinates":[13.827742,46.784106]},{"code":"OE0/SB-1046","program":"gma","name":"Stubennock","coordinates":[13.77470016,46.96829987]},{"code":"OE0/SB-1110","program":"gma","name":"Schilchernock","coordinates":[13.79109955,46.99060059]},{"code":"OE0/SB-1135","program":"gma","name":"Matehanshöhe","coordinates":[13.75860023,46.98249817]},{"code":"OE0/ST-1234","program":"gma","name":"Vorderhuetteneck","coordinates":[13.86463,46.99623]},{"code":"AT-0106","program":"pota","name":"Gurkursprung National Reserve","coordinates":[13.9469,46.9103]},{"code":"AT-0137","program":"pota","name":"Nockberge Natura 2000","coordinates":[13.75,46.8833]},{"code":"AT-0145","program":"pota","name":"Hochmoor bei St. Lorenzen Natura 2000","coordinates":[13.9194,46.8639]},{"code":"OE/KT-047","program":"sota","name":"Königstuhl","coordinates":[13.7842,46.9436]},{"code":"OE/KT-048","program":"sota","name":"Rinsennock","coordinates":[13.8506,46.9089]},{"code":"OE/KT-050","program":"sota","name":"Klomnock","coordinates":[13.7878,46.8814]},{"code":"OE/KT-051","program":"sota","name":"Bretthöhe","coordinates":[13.9364,46.9125]},{"code":"OE/KT-052","program":"sota","name":"Rodresnock","coordinates":[13.8158,46.8528]},{"code":"OE/KT-057","program":"sota","name":"Koflernock","coordinates":[13.7939,46.9094]},{"code":"OE/KT-075","program":"sota","name":"Wöllaner Nock","coordinates":[13.8281,46.7764]},{"code":"OE/KT-112","program":"sota","name":"Kruckenspitze","coordinates":[13.9639,46.8372]},{"code":"OE/KT-123","program":"sota","name":"Kegel","coordinates":[13.9867,46.8625]},{"code":"OE/KT-125","program":"sota","name":"Knittel","coordinates":[13.98,46.805]},{"code":"OE/KT-337","program":"sota","name":"Gregerlnock","coordinates":[13.8153,46.9184]},{"code":"OE/KT-338","program":"sota","name":"Pfannock","coordinates":[13.7539,46.888]},{"code":"OE/KT-339","program":"sota","name":"Schiestlnock","coordinates":[13.7968,46.8935]},{"code":"OE/KT-347","program":"sota","name":"Höllenberg","coordinates":[13.8904,46.8308]},{"code":"OE/SB-406","program":"sota","name":"Ochsenriegel","coordinates":[13.7958,46.9868]},{"code":"OE/SB-462","program":"sota","name":"Reisseck","coordinates":[13.8318,46.9671]},{"code":"OE/ST-019","program":"sota","name":"Eisenhut","coordinates":[13.9283,46.9522]},{"code":"OE/ST-025","program":"sota","name":"Kilnprein","coordinates":[13.8431,46.9858]}]}