{"lat":46.75,"lon":13.5,"programs":["gma","pota","sota"],"count":27,"references":[{"code":"OE/KT-040","program":"gma","name":"Rosennock","coordinates":[13.71220016,46.87670135]},{"code":"OE/KT-046","program":"gma","name":"Stubeck","coordinates":[13.53610039,46.99309921]},{"code":"OE/KT-071","program":"gma","name":"Stileck","coordinates":[13.63920021,46.87469864]},{"code":"OE/KT-082","program":"gma","name":"Mirnock","coordinates":[13.71469975,46.75889969]},{"code":"OE/KT-083","program":"gma","name":"Hochpalfennock","coordinates":[13.58329964,46.85110092]},{"code":"OE/KT-096","program":"gma","name":"Wiesernock","coordinates":[13.74139977,46.83670044]},{"code":"OE/KT-334","program":"gma","name":"Hohe Pressing","coordinates":[13.6922,46.9379]},{"code":"OE/KT-335","program":"gma","name":"Plattnock","coordinates":[13.7263,46.8984]},{"code":"OE/KT-389","program":"gma","name":"Kamplnock","coordinates":[13.6122,46.8512]},{"code":"OE/KT-410","program":"gma","name":"Geißriegel","coordinates":[13.6304,46.7538]},{"code":"OE0/KT-1140","program":"gma","name":"Priedröf","coordinates":[13.74115,46.81992]},{"code":"OE0/KT-1141","program":"gma","name":"Rindernock","coordinates":[13.72454,46.75054]},{"code":"OE0/KT-1142","program":"gma","name":"Lammersdorfer Berg","coordinates":[13.63618,46.82558]},{"code":"OE0/KT-1143","program":"gma","name":"Millstätter Alpe","coordinates":[13.62310028,46.83890152]},{"code":"OE0/SB-1039","program":"gma","name":"Gaipahöhe","coordinates":[13.72809982,46.99079895]},{"code":"OE0/SB-1040","program":"gma","name":"Zechnerhöhe","coordinates":[13.74470043,46.9939003]},{"code":"AT-0095","program":"pota","name":"Egelsee National Reserve","coordinates":[13.5606,46.7842]},{"code":"OE/KT-040","program":"sota","name":"Rosennock","coordinates":[13.7122,46.8767]},{"code":"OE/KT-046","program":"sota","name":"Stubeck","coordinates":[13.5361,46.9931]},{"code":"OE/KT-071","program":"sota","name":"Stileck","coordinates":[13.6392,46.8747]},{"code":"OE/KT-082","program":"sota","name":"Mirnock","coordinates":[13.7147,46.7589]},{"code":"OE/KT-083","program":"sota","name":"Hochpalfennock","coordinates":[13.5833,46.8511]},{"code":"OE/KT-096","program":"sota","name":"Wiesernock","coordinates":[13.7414,46.8367]},{"code":"OE/KT-334","program":"sota","name":"Hohe Pressing","coordinates":[13.6922,46.9379]},{"code":"OE/KT-335","program":"sota","name":"Plattnock","coordinates":[13.7263,46.8984]},{"code":"OE/KT-389","program":"sota","name":"Kamplnock","coordinates":[13.6122,46.8512]},{"code":"OE/KT-410","program":"sota","name":"Geißriegel","coordinates":[13.6304,46.7538]}]}