{"lat":46.75,"lon":21.75,"programs":["pota","wwbota"],"count":12,"references":[{"code":"RO-0003","program":"pota","name":"Băile Felix Country Park","coordinates":[21.9735,46.9897]},{"code":"RO-0020","program":"pota","name":"Sauaieu Park","coordinates":[21.9231,46.9473]},{"code":"B/YO-0050","program":"wwbota","name":"Linia fortificata Carol al II-lea Bunker I","coordinates":[21.90453,46.99932]},{"code":"B/YO-0051","program":"wwbota","name":"Linia fortificata Carol al II-lea Bunker II","coordinates":[21.90831,46.99974]},{"code":"B/YO-0052","program":"wwbota","name":"Linia fortificata Carol al II-lea Bunker III","coordinates":[21.90996,46.99713]},{"code":"B/YO-0056","program":"wwbota","name":"Linia fortificata Carol al II-lea Bunker 4","coordinates":[21.92038,46.98072]},{"code":"B/YO-0057","program":"wwbota","name":"Linia fortificata Carol al II-lea Bunker 5","coordinates":[21.91641,46.98697]},{"code":"B/YO-0058","program":"wwbota","name":"Linia fortificata Carol al II-lea Bunker 6","coordinates":[21.91983,46.98725]},{"code":"B/YO-0059","program":"wwbota","name":"Linia fortificata Carol al II-lea Bunker 7","coordinates":[21.91293,46.98745]},{"code":"B/YO-0060","program":"wwbota","name":"Linia fortificata Carol al II-lea Bunker 8","coordinates":[21.91399,46.99079]},{"code":"B/YO-0061","program":"wwbota","name":"Linia fortificata Carol al II-lea Bunker 9","coordinates":[21.90928,46.99311]},{"code":"B/YO-0062","program":"wwbota","name":"Linia fortificata Carol al II-lea Bunker 10","coordinates":[21.91162,46.99433]}]}