{"lat":46.75,"lon":25.75,"programs":["pota","sota"],"count":23,"references":[{"code":"RO-1176","program":"pota","name":"Lacul Roșu Protected Area","coordinates":[25.7872,46.7883]},{"code":"RO-0332","program":"pota","name":"Cheile Bicăjelului National Recreation Trail","coordinates":[25.8301,46.8069]},{"code":"RO-0334","program":"pota","name":"Ceahlău National Park","coordinates":[25.9414,46.9367]},{"code":"RO-0335","program":"pota","name":"Stațiunea Durău - sub Vf. Toaca - Cabana Dochia National Recreation Trail","coordinates":[25.9328,46.9989]},{"code":"RO-1175","program":"pota","name":"Traseul din Bicazul Ardelean spre Cabana Dochia National Recreation Trail","coordinates":[25.9349,46.954]},{"code":"YO/EC-005","program":"sota","name":"Toaca","coordinates":[25.9499,46.9775]},{"code":"YO/EC-023","program":"sota","name":"Higheș","coordinates":[25.8031,46.9277]},{"code":"YO/EC-055","program":"sota","name":"Ocolașul Mare","coordinates":[25.9462,46.9529]},{"code":"YO/EC-102","program":"sota","name":"Luhașul","coordinates":[25.7583,46.7525]},{"code":"YO/EC-150","program":"sota","name":"Suhardul Mare","coordinates":[25.778,46.8043]},{"code":"YO/EC-159","program":"sota","name":"Lunaș","coordinates":[25.7542,46.77]},{"code":"YO/EC-163","program":"sota","name":"Jidanul","coordinates":[25.825,46.8675]},{"code":"YO/EC-179","program":"sota","name":"Craicutul","coordinates":[25.9867,46.7642]},{"code":"YO/EC-195","program":"sota","name":"Piatra Șugăului","coordinates":[25.8433,46.8458]},{"code":"YO/EC-221","program":"sota","name":"Chicera","coordinates":[25.8408,46.9217]},{"code":"YO/EC-224","program":"sota","name":"Vârful Verde","coordinates":[25.9358,46.9017]},{"code":"YO/EC-251","program":"sota","name":"Făgetul Ciucului","coordinates":[25.8083,46.8]},{"code":"YO/EC-260","program":"sota","name":"Vârful Secuiesc","coordinates":[25.9983,46.9225]},{"code":"YO/EC-529","program":"sota","name":"Piatra Sură","coordinates":[25.9292,46.9425]},{"code":"YO/EC-539","program":"sota","name":"Ghilcoș","coordinates":[25.8133,46.7822]},{"code":"YO/EC-540","program":"sota","name":"Bâtca Neagră","coordinates":[25.9336,46.931]},{"code":"YO/EC-554","program":"sota","name":"Bâtca Neagră","coordinates":[25.8667,46.7943]},{"code":"YO/EC-565","program":"sota","name":"Bâtca Chica Baicului","coordinates":[25.9956,46.9646]}]}