{"lat":46.75,"lon":11,"programs":["gma","pota","sota","wwbota"],"count":67,"references":[{"code":"IT/AA-1019","program":"gma","name":"Picco Altacroce","coordinates":[11.21440029,46.85469818]},{"code":"IT/TA-1005","program":"gma","name":"Matatzspitze","coordinates":[11.19189,46.78619]},{"code":"IT/TN-1010","program":"gma","name":"Col Santo","coordinates":[11.15060043,46.83309937]},{"code":"OE/TI-006","program":"gma","name":"Zuckerhütl","coordinates":[11.15390015,46.96419907]},{"code":"OE/TI-019","program":"gma","name":"Wilder Freiger","coordinates":[11.18999958,46.97060013]},{"code":"OE/TI-025","program":"gma","name":"Schaufelspitze","coordinates":[11.1157999,46.97829819]},{"code":"OE/TI-037","program":"gma","name":"Nederkogel","coordinates":[11.00889969,46.9068985]},{"code":"OE/TI-089","program":"gma","name":"Großer Trögler","coordinates":[11.16030025,46.99560165]},{"code":"OE/TI-680","program":"gma","name":"Warenkar","coordinates":[11.076,46.9799]},{"code":"OE/TI-706","program":"gma","name":"Hochwilde","coordinates":[11.0225,46.765]},{"code":"OE/TI-708","program":"gma","name":"Hinterer Seelenkogel","coordinates":[11.0442,46.8017]},{"code":"OE/TI-709","program":"gma","name":"Sonklarspitze","coordinates":[11.1658,46.955]},{"code":"OE/TI-721","program":"gma","name":"Hochfirst","coordinates":[11.0808,46.8267]},{"code":"OE/TI-723","program":"gma","name":"Liebener Spitze","coordinates":[11.0758,46.8203]},{"code":"OE/TI-736","program":"gma","name":"Windacher Daunkogel","coordinates":[11.08,46.9867]},{"code":"OE/TI-740","program":"gma","name":"Granatenkogel","coordinates":[11.0722,46.8369]},{"code":"OE/TI-750","program":"gma","name":"Östlicher Feherstein","coordinates":[11.2442,46.9717]},{"code":"OE/TI-760","program":"gma","name":"Kirchenkogel","coordinates":[11.0814,46.8992]},{"code":"OE/TI-764","program":"gma","name":"Wannenkogel","coordinates":[11.0845,46.9362]},{"code":"OE/TI-780","program":"gma","name":"Jochköpfl","coordinates":[11.1083,46.9267]},{"code":"OE/TI-781","program":"gma","name":"Peilloecherspitze","coordinates":[11.1467,46.9306]},{"code":"OE/TI-782","program":"gma","name":"Schermerspitze","coordinates":[11.0842,46.8875]},{"code":"OE/TI-816","program":"gma","name":"Innere Wetterspitze","coordinates":[11.2467,46.9967]},{"code":"OE/TI-840","program":"gma","name":"Hoher Söldenkogel","coordinates":[11.0417,46.9808]},{"code":"OE0/TI-1009","program":"gma","name":"Gamsspitzl","coordinates":[11.20250034,46.97890091]},{"code":"OE0/TI-1034","program":"gma","name":"Niederl","coordinates":[11.20890045,46.99420166]},{"code":"OE0/TI-1365","program":"gma","name":"Wilder Pfaff","coordinates":[11.1644001,46.96580124]},{"code":"OE0/TI-1367","program":"gma","name":"Stubaier Wildspitze","coordinates":[11.09969997,46.98310089]},{"code":"OE0/TI-1373","program":"gma","name":"Wurmkogel","coordinates":[11.08580017,46.88059998]},{"code":"OE0/TI-1375","program":"gma","name":"Festkogel","coordinates":[11.05109978,46.85219955]},{"code":"OE0/TI-1376","program":"gma","name":"Hangerer","coordinates":[11.01809978,46.83530045]},{"code":"OE0/TI-1405","program":"gma","name":"Hohe Mut","coordinates":[11.03059959,46.84859848]},{"code":"OE0/TI-1599","program":"gma","name":"Schönwieskopf","coordinates":[11.01383,46.85017]},{"code":"OE0/TI-1604","program":"gma","name":"Eiskögele","coordinates":[11.02386,46.82151]},{"code":"IT-0728","program":"pota","name":"Parco naturale Gruppo di Tessa Regional Park","coordinates":[11.0492,46.7636]},{"code":"I/AA-027","program":"sota","name":"Il Capro / Botzer","coordinates":[11.1981,46.931]},{"code":"I/AA-077","program":"sota","name":"Punta di Ulsen / Rötenspitz","coordinates":[11.1039,46.7523]},{"code":"I/AA-080","program":"sota","name":"Cima la Clava / Kolbenspitze","coordinates":[11.1477,46.7726]},{"code":"I/AA-082","program":"sota","name":"Croda della Cintola / Aschererspitz","coordinates":[11.1664,46.9046]},{"code":"I/AA-086","program":"sota","name":"Monte Tavolino / Sefiarspitze","coordinates":[11.1048,46.7724]},{"code":"I/AA-089","program":"sota","name":"La Bianca / Ratschinger Weißen","coordinates":[11.2106,46.8755]},{"code":"I/AA-092","program":"sota","name":"Schreibkopf","coordinates":[11.1208,46.839]},{"code":"I/AA-097","program":"sota","name":"Cima di Zermedo / Zirmaidspitz","coordinates":[11.2078,46.8704]},{"code":"I/AA-102","program":"sota","name":"Erenspitze","coordinates":[11.0772,46.7645]},{"code":"I/AA-192","program":"sota","name":"Punta di Matatz / Matatzspitze","coordinates":[11.1921,46.7861]},{"code":"OE/TI-006","program":"sota","name":"Zuckerhütl","coordinates":[11.1539,46.9642]},{"code":"OE/TI-019","program":"sota","name":"Wilder Freiger","coordinates":[11.19,46.9706]},{"code":"OE/TI-025","program":"sota","name":"Schaufelspitze","coordinates":[11.1158,46.9783]},{"code":"OE/TI-037","program":"sota","name":"Nederkogel","coordinates":[11.0089,46.9069]},{"code":"OE/TI-089","program":"sota","name":"Großer Trögler","coordinates":[11.1603,46.9956]},{"code":"OE/TI-680","program":"sota","name":"Warenkar","coordinates":[11.076,46.9799]},{"code":"OE/TI-706","program":"sota","name":"Hochwilde","coordinates":[11.0225,46.765]},{"code":"OE/TI-708","program":"sota","name":"Hinterer Seelenkogel","coordinates":[11.0442,46.8017]},{"code":"OE/TI-709","program":"sota","name":"Sonklarspitze","coordinates":[11.1658,46.955]},{"code":"OE/TI-721","program":"sota","name":"Hochfirst","coordinates":[11.0808,46.8267]},{"code":"OE/TI-723","program":"sota","name":"Liebener Spitze","coordinates":[11.0758,46.8203]},{"code":"OE/TI-736","program":"sota","name":"Windacher Daunkogel","coordinates":[11.08,46.9867]},{"code":"OE/TI-740","program":"sota","name":"Granatenkogel","coordinates":[11.0722,46.8369]},{"code":"OE/TI-750","program":"sota","name":"Östlicher Feherstein","coordinates":[11.2442,46.9717]},{"code":"OE/TI-760","program":"sota","name":"Kirchenkogel","coordinates":[11.0814,46.8992]},{"code":"OE/TI-764","program":"sota","name":"Wannenkogel","coordinates":[11.0845,46.9362]},{"code":"OE/TI-780","program":"sota","name":"Jochköpfl","coordinates":[11.1083,46.9267]},{"code":"OE/TI-781","program":"sota","name":"Peilloecherspitze","coordinates":[11.1467,46.9306]},{"code":"OE/TI-782","program":"sota","name":"Schermerspitze","coordinates":[11.0842,46.8875]},{"code":"OE/TI-816","program":"sota","name":"Innere Wetterspitze","coordinates":[11.2467,46.9967]},{"code":"OE/TI-840","program":"sota","name":"Hoher Söldenkogel","coordinates":[11.0417,46.9808]},{"code":"B/IT-0180","program":"wwbota","name":"Bunker (Trentino a a )","coordinates":[11.16546,46.83259]}]}