{"lat":46.75,"lon":-2.25,"programs":["pota","wwbota"],"count":30,"references":[{"code":"FR-0386","program":"pota","name":"Reserve Nationale Naturelle des Marais de Mullembourg National Nature Reserve","coordinates":[-2.22952,46.9979]},{"code":"FR-0478","program":"pota","name":"Polder de Sebastopol Provincial Park","coordinates":[-2.15718,46.9438]},{"code":"FR-2961","program":"pota","name":"MARAIS BRETON BAIE DE BOURGNEUF ILE DE NOIRMOUTIER ET FORET DE MONTS  FR5200653 Natura 2000","coordinates":[-2.0725,46.8736]},{"code":"FR-3621","program":"pota","name":"MARAIS DE MULLEMBOURG  FR3600121 National Nature Reserve","coordinates":[-2.22985,46.9961]},{"code":"FR-4313","program":"pota","name":"Marais Breton baie de Bourgneuf ile de Noirmoutier et foret de Monts Natura 2000","coordinates":[-2.0725,46.8736]},{"code":"FR-7757","program":"pota","name":"Marais Breton, Baie De Bourgneuf, Ile De Noirmoutier Et Foret De Monts Biological Reserve","coordinates":[-2.062,46.921]},{"code":"FR-7758","program":"pota","name":"ILE DE NOIRMOUTIER Biological Reserve","coordinates":[-2.206,46.9714]},{"code":"FR-7759","program":"pota","name":"DUNES ET BOIS DE LA COTE OUEST DE L'ILE DE NOIRMOUTIER, DE BARBATRE A LA GUERINIERE Biological Reserve","coordinates":[-2.17779,46.9291]},{"code":"FR-7761","program":"pota","name":"MARAIS DE MULLEMBOURG, POINTE DES SABLEAUX ET ESTRAN VOISIN Biological Reserve","coordinates":[-2.22913,46.9885]},{"code":"FR-7762","program":"pota","name":"Marais du mullembourg 2 Conservation Park","coordinates":[-2.2273,46.9953]},{"code":"FR-7763","program":"pota","name":"POLDER DE SEBASTOPOL, REPOSOIRS ET ESTRANS VOISINS Biological Reserve","coordinates":[-2.16349,46.9528]},{"code":"FR-7768","program":"pota","name":"RECIFS D'HERMELLES AUX ABORDS DES ROCHES DE LA FOSSE Biological Reserve","coordinates":[-2.1712,46.9008]},{"code":"FR-7910","program":"pota","name":"Marais breton - beauvoir Conservation Park","coordinates":[-2.04052,46.8922]},{"code":"FR-7911","program":"pota","name":"Dune du grand bec Conservation Park","coordinates":[-2.02211,46.7524]},{"code":"FR-8027","program":"pota","name":"LAGUNE ET PRAIRIE DU POLDER DU DAIN Biological Reserve","coordinates":[-2.05172,46.9526]},{"code":"FR-8028","program":"pota","name":"ESTUAIRE DE L'ETIER DE SALLERTAINE ET SCHORRES VOISINS Biological Reserve","coordinates":[-2.10107,46.9129]},{"code":"FR-8029","program":"pota","name":"MARAIS SAUMATRE DE BEAUVOIR-SUR-MER ET LA BARRE-DE-MONTS Biological Reserve","coordinates":[-2.06827,46.8906]},{"code":"FR-8030","program":"pota","name":"DUNES ET FORET DE LA BARRE-DE-MONTS-NOTRE-DAME-DE-MONTS Biological Reserve","coordinates":[-2.137,46.8653]},{"code":"FR-8031","program":"pota","name":"MARAIS DE LA BASSE EPINE A OROUET Biological Reserve","coordinates":[-2.00483,46.7624]},{"code":"FR-8035","program":"pota","name":"PRAIRIES HUMIDES DE LA CROIX BUSSARD ET DU PRE SAUVEUR Biological Reserve","coordinates":[-2.06092,46.859]},{"code":"FR-10419","program":"pota","name":"ILE DE NOIRMOUTIER 2 Biological Reserve","coordinates":[-2.206,46.9714]},{"code":"FR-10420","program":"pota","name":"FORET, DUNES ET LITTORAL DES PAYS DE MONTS Biological Reserve","coordinates":[-2.08052,46.8088]},{"code":"FR-10421","program":"pota","name":"Marais Breton, baie de Bourgneuf, île de Noirmoutier et foret de Monts Natura 2000","coordinates":[-2.0725,46.8736]},{"code":"FR-10423","program":"pota","name":"Marais Breton, Baie De Bourgneuf, Ile De Noirmoutier Et Foret De Monts Natura 2000","coordinates":[-2.0725,46.8736]},{"code":"FR-10424","program":"pota","name":"Marais Breton, Baie De Bourgneuf, Réserve Biologique Ile De Noirmoutier Et Foret De Monts Natura 2000","coordinates":[-2.0725,46.8736]},{"code":"B/F-7062","program":"wwbota","name":"La Guerinière 1","coordinates":[-2.244452,46.964531]},{"code":"B/F-7063","program":"wwbota","name":"La Guerinière 2","coordinates":[-2.244054,46.964727]},{"code":"B/F-7064","program":"wwbota","name":"La Guerinière 3","coordinates":[-2.243564,46.96494]},{"code":"B/F-7065","program":"wwbota","name":"La Guerinière 4","coordinates":[-2.243123,46.96506]},{"code":"B/F-7066","program":"wwbota","name":"La Guerinière 5","coordinates":[-2.242785,46.965168]}]}