{"lat":46.75,"lon":29.25,"programs":["pota","wwbota"],"count":5,"references":[{"code":"MD-0090","program":"pota","name":"Parcul Victoriei Park","coordinates":[29.2514,46.8751]},{"code":"MD-0120","program":"pota","name":"Parcul Hârbovăț Landscape Park","coordinates":[29.3914,46.8496]},{"code":"MD-0218","program":"pota","name":"Rezervația peisagistică Pădurea Hârbovăț Landscape Reserve","coordinates":[29.3486,46.8689]},{"code":"MD-0225","program":"pota","name":"Rezervația peisagistică Telița Landscape Reserve","coordinates":[29.3009,46.9719]},{"code":"B/ER-0008","program":"wwbota","name":"Calfa Bunker","coordinates":[29.40272,46.88823]}]}