{"lat":47,"lon":13.75,"programs":["gma","sota"],"count":36,"references":[{"code":"OE/SB-185","program":"gma","name":"Lasaberg","coordinates":[13.8736,47.1036]},{"code":"OE/SB-340","program":"gma","name":"Kasereck","coordinates":[13.7708,47.2375]},{"code":"OE/SB-359","program":"gma","name":"Wengerkopf","coordinates":[13.875,47.1767]},{"code":"OE/SB-361","program":"gma","name":"Hochkopf","coordinates":[13.785,47.0883]},{"code":"OE/SB-382","program":"gma","name":"Weißhöhe","coordinates":[13.7647,47.249]},{"code":"OE/ST-003","program":"gma","name":"Roteck","coordinates":[13.85029984,47.22999954]},{"code":"OE/ST-004","program":"gma","name":"Preber","coordinates":[13.86499977,47.22000122]},{"code":"OE/ST-063","program":"gma","name":"Tschaudinock","coordinates":[13.93169975,47.01670074]},{"code":"OE/ST-079","program":"gma","name":"Gstoder","coordinates":[13.99310017,47.14220047]},{"code":"OE/ST-498","program":"gma","name":"Gamsleiteck","coordinates":[13.9212,47.2386]},{"code":"OE/ST-500","program":"gma","name":"Hemmerfeldeck","coordinates":[13.9359,47.2247]},{"code":"OE0/SB-1007","program":"gma","name":"Kreuzhöhe","coordinates":[13.78110027,47.22190094]},{"code":"OE0/SB-1020","program":"gma","name":"Gumma","coordinates":[13.77939987,47.21060181]},{"code":"OE0/SB-1026","program":"gma","name":"Feldernock","coordinates":[13.82190037,47.00719833]},{"code":"OE0/SB-1027","program":"gma","name":"Kleiner Königstuhl","coordinates":[13.80420017,47.00749969]},{"code":"OE0/SB-1049","program":"gma","name":"Wirtsnock","coordinates":[13.75109959,47.0196991]},{"code":"OE0/SB-1052","program":"gma","name":"Dörfler Höhe","coordinates":[13.99419975,47.13499832]},{"code":"OE0/SB-1056","program":"gma","name":"Lasaberg","coordinates":[13.87360001,47.10359955]},{"code":"OE0/SB-1061","program":"gma","name":"Torkogel","coordinates":[13.87860012,47.0992012]},{"code":"OE0/SB-1118","program":"gma","name":"Mühlhauserhöhe","coordinates":[13.77939987,47.02360153]},{"code":"OE0/SB-1124","program":"gma","name":"Hühnerleitennock","coordinates":[13.77750015,47.03250122]},{"code":"OE0/SB-1131","program":"gma","name":"Predigtstuhl","coordinates":[13.80440044,47.01580048]},{"code":"OE0/SB-1151","program":"gma","name":"Gstoßhöhe","coordinates":[13.85470009,47.04719925]},{"code":"OE0/SB-1159","program":"gma","name":"Weidschober","coordinates":[13.9296999,47.17029953]},{"code":"OE0/ST-1026","program":"gma","name":"Rotofen","coordinates":[13.86390018,47.0196991]},{"code":"OE/SB-185","program":"sota","name":"Lasaberg","coordinates":[13.8736,47.1036]},{"code":"OE/SB-340","program":"sota","name":"Kasereck","coordinates":[13.7708,47.2375]},{"code":"OE/SB-359","program":"sota","name":"Wengerkopf","coordinates":[13.875,47.1767]},{"code":"OE/SB-361","program":"sota","name":"Hochkopf","coordinates":[13.785,47.0883]},{"code":"OE/SB-382","program":"sota","name":"Weißhöhe","coordinates":[13.7647,47.249]},{"code":"OE/ST-003","program":"sota","name":"Roteck","coordinates":[13.8503,47.23]},{"code":"OE/ST-004","program":"sota","name":"Preber","coordinates":[13.865,47.22]},{"code":"OE/ST-063","program":"sota","name":"Gamskogel","coordinates":[13.9499,47.0072]},{"code":"OE/ST-079","program":"sota","name":"Gstoder","coordinates":[13.9931,47.1422]},{"code":"OE/ST-498","program":"sota","name":"Gamsleiteck","coordinates":[13.9212,47.2386]},{"code":"OE/ST-500","program":"sota","name":"Hemmerfeldeck","coordinates":[13.9359,47.2247]}]}