{"lat":47,"lon":15.75,"programs":["gma","pota","sota"],"count":8,"references":[{"code":"OE/ST-291","program":"gma","name":"Kulm","coordinates":[15.75889969,47.22499847]},{"code":"OE0/ST-1115","program":"gma","name":"Buchberg","coordinates":[15.80280018,47.22029877]},{"code":"OE0/ST-1127","program":"gma","name":"Kleiner Takernberg","coordinates":[15.76500034,47.05500031]},{"code":"OE0/ST-1181","program":"gma","name":"Riegersburg","coordinates":[15.93316,47.00428]},{"code":"AT-0274","program":"pota","name":"Feistritzklamm / Herberstein Natura 2000","coordinates":[15.8102,47.2201]},{"code":"AT-0275","program":"pota","name":"Stubenbergsee Recreation Site","coordinates":[15.7996,47.2288]},{"code":"AT-0277","program":"pota","name":"Schielleiten Castle Historic Site","coordinates":[15.8255,47.2319]},{"code":"OE/ST-291","program":"sota","name":"Kulm","coordinates":[15.7589,47.225]}]}