{"lat":47,"lon":0.5,"programs":["pota"],"count":9,"references":[{"code":"FR-14720","program":"pota","name":"VALLEE DE COURTINEAU Biological Reserve","coordinates":[0.647,47.142]},{"code":"FR-14721","program":"pota","name":"Pelouses et cavites d’hibernation a chiropteres de la Poupardiere Biological Reserve","coordinates":[0.5769,47.16]},{"code":"FR-14722","program":"pota","name":"Boisements et vallons du Montgoger Biological Reserve","coordinates":[0.574,47.155]},{"code":"FR-14723","program":"pota","name":"Pelouses et cavites d’hibernation a chiropteres des Bafaudieres Biological Reserve","coordinates":[0.564,47.156]},{"code":"FR-14724","program":"pota","name":"Pelouses et cavites d’hibernation a chiropteres des Perrotins Biological Reserve","coordinates":[0.566,47.153]},{"code":"FR-14726","program":"pota","name":"Prairies du vallon de la Besnardiere Biological Reserve","coordinates":[0.644,47.232]},{"code":"FR-14727","program":"pota","name":"PRAIRIE DES RONDETTES MARES Biological Reserve","coordinates":[0.621,47.228]},{"code":"FR-14728","program":"pota","name":"FORET DE RAVIN DU BOIS DE SACHE Biological Reserve","coordinates":[0.545,47.244]},{"code":"FR-14729","program":"pota","name":"FORETS DE RAVIN DU GUE DROIT Biological Reserve","coordinates":[0.504,47.235]}]}