{"lat":47,"lon":9.5,"programs":["gma","pota","sota"],"count":102,"references":[{"code":"HB9/GR-1009","program":"gma","name":"Schafköpfe","coordinates":[9.691739,47.054774]},{"code":"HB9/GR-1010","program":"gma","name":"Salaruelkopf","coordinates":[9.67749977,47.06141313]},{"code":"HB9/GR-1015","program":"gma","name":"Schesaplana","coordinates":[9.70720005,47.05390167]},{"code":"HB9/GR-1023","program":"gma","name":"Vorder Grauspitz/ Ruchberg","coordinates":[9.58139992,47.05279922]},{"code":"HB9/GR-1025","program":"gma","name":"Naafkopf","coordinates":[9.60690022,47.06079865]},{"code":"HBL/LI-001","program":"gma","name":"Falknis","coordinates":[9.56389999,47.05059814]},{"code":"HBL/LI-002","program":"gma","name":"Rappastein","coordinates":[9.5656004,47.07690048]},{"code":"HBL/LI-003","program":"gma","name":"Nospitz","coordinates":[9.59829998,47.09329987]},{"code":"HBL/LI-004","program":"gma","name":"Heubüal","coordinates":[9.566917,47.096111]},{"code":"OE/VB-019","program":"gma","name":"Schesaplana","coordinates":[9.70750046,47.05390167]},{"code":"OE/VB-055","program":"gma","name":"Wildberg","coordinates":[9.7022,47.0678]},{"code":"OE/VB-078","program":"gma","name":"Seekopf","coordinates":[9.7361002,47.05780029]},{"code":"OE/VB-198","program":"gma","name":"Fundelkopf","coordinates":[9.67669964,47.11029816]},{"code":"OE/VB-227","program":"gma","name":"Blankuskopf","coordinates":[9.67940044,47.09249878]},{"code":"OE/VB-235","program":"gma","name":"Tuklar","coordinates":[9.69419956,47.11780167]},{"code":"OE/VB-531","program":"gma","name":"Hohe Köpfe","coordinates":[9.6233,47.1658]},{"code":"OE0/VB-1051","program":"gma","name":"Hechlekopf","coordinates":[9.62199974,47.16699982]},{"code":"OE0/VB-1052","program":"gma","name":"Hohe Köpfe","coordinates":[9.62150002,47.16899872]},{"code":"OE0/VB-1053","program":"gma","name":"Schafköpfe","coordinates":[9.691739,47.054774]},{"code":"OE0/VB-1075","program":"gma","name":"Panüeler Kopf","coordinates":[9.6796999,47.06689835]},{"code":"OE0/VB-1082","program":"gma","name":"Salaruelkopf","coordinates":[9.67749977,47.06140137]},{"code":"OE0/VB-1083","program":"gma","name":"Felsenkopf","coordinates":[9.71440029,47.0544014]},{"code":"OE0/VB-1087","program":"gma","name":"Zirmenkopf","coordinates":[9.72000027,47.05670166]},{"code":"OE0/VB-1100","program":"gma","name":"Kleiner Zirmenkopf","coordinates":[9.71640015,47.05939865]},{"code":"OE0/VB-1137","program":"gma","name":"Naafkopf","coordinates":[9.60719967,47.06079865]},{"code":"OE0/VB-1141","program":"gma","name":"Östlicher Totalpkopf","coordinates":[9.72169971,47.04359818]},{"code":"OE0/VB-1152","program":"gma","name":"Hornspitz","coordinates":[9.64500046,47.05970001]},{"code":"OE0/VB-1212","program":"gma","name":"Oberzalimkopf","coordinates":[9.67780018,47.07889938]},{"code":"OE0/VB-1214","program":"gma","name":"Windeckerspitze","coordinates":[9.68640041,47.09939957]},{"code":"OE0/VB-1221","program":"gma","name":"Gorfion","coordinates":[9.61859989,47.0780983]},{"code":"OE0/VB-1225","program":"gma","name":"Lünereck","coordinates":[9.74750042,47.03720093]},{"code":"OE0/VB-1232","program":"gma","name":"Ochsenkopf","coordinates":[9.62469959,47.11470032]},{"code":"OE0/VB-1246","program":"gma","name":"Gamsgrat","coordinates":[9.62080002,47.11059952]},{"code":"OE0/VB-1252","program":"gma","name":"Pfannenknechtle","coordinates":[9.67920017,47.08670044]},{"code":"OE0/VB-1261","program":"gma","name":"Galinakopf","coordinates":[9.62059975,47.15169907]},{"code":"OE0/VB-1271","program":"gma","name":"Mottakopf","coordinates":[9.71860027,47.08610153]},{"code":"OE0/VB-1273","program":"gma","name":"Scheienkopf - HG","coordinates":[9.63580036,47.12829971]},{"code":"OE0/VB-1274","program":"gma","name":"Alpilakopf","coordinates":[9.71170044,47.12889862]},{"code":"OE0/VB-1277","program":"gma","name":"Kämmerlischrofen","coordinates":[9.68719959,47.08610153]},{"code":"OE0/VB-1284","program":"gma","name":"Innerer ÃƒÂ„lpelekopf","coordinates":[9.64140034,47.13439941]},{"code":"OE0/VB-1290","program":"gma","name":"Kleiner Fundelkopf","coordinates":[9.67560005,47.12110138]},{"code":"OE0/VB-1293","program":"gma","name":"Rauher Berg","coordinates":[9.62860012,47.10749817]},{"code":"OE0/VB-1298","program":"gma","name":"Strahleck","coordinates":[9.65579987,47.07189941]},{"code":"OE0/VB-1301","program":"gma","name":"Äußerer Älpelekopf","coordinates":[9.65330029,47.1405983]},{"code":"OE0/VB-1307","program":"gma","name":"Drei Schwestern - HG","coordinates":[9.57279968,47.17580032]},{"code":"OE0/VB-1308","program":"gma","name":"Zigerbergkopf","coordinates":[9.60439968,47.15029907]},{"code":"OE0/VB-1326","program":"gma","name":"Schillerkopf","coordinates":[9.72109985,47.14220047]},{"code":"OE0/VB-1338","program":"gma","name":"Mondspitze","coordinates":[9.72640038,47.15280151]},{"code":"OE0/VB-1339","program":"gma","name":"Otterkirchle","coordinates":[9.66609955,47.08580017]},{"code":"OE0/VB-1366","program":"gma","name":"Loischkopf","coordinates":[9.7421999,47.13470078]},{"code":"OE0/VB-1370","program":"gma","name":"Goppaschrofen","coordinates":[9.61359978,47.17559814]},{"code":"OE0/VB-1371","program":"gma","name":"Gurtisspitze","coordinates":[9.63220024,47.18220139]},{"code":"OE0/VB-1374","program":"gma","name":"Lohnspitz","coordinates":[9.64920044,47.15999985]},{"code":"OE0/VB-1375","program":"gma","name":"Klamperschrofen","coordinates":[9.72529984,47.15919876]},{"code":"OE0/VB-1376","program":"gma","name":"Schwarzkopf","coordinates":[9.73309994,47.16030121]},{"code":"OE0/VB-1377","program":"gma","name":"Taleu","coordinates":[9.74919987,47.12670135]},{"code":"OE0/VB-1380","program":"gma","name":"Kopes","coordinates":[9.73219967,47.24079895]},{"code":"OE0/VB-1381","program":"gma","name":"Galamant","coordinates":[9.65030003,47.07939911]},{"code":"OE0/VB-1386","program":"gma","name":"Gampberg","coordinates":[9.66219997,47.16749954]},{"code":"OE0/VB-1390","program":"gma","name":"Zwölferkopf","coordinates":[9.69610023,47.13470078]},{"code":"OE0/VB-1392","program":"gma","name":"Haarkopf","coordinates":[9.60830021,47.17029953]},{"code":"OE0/VB-1393","program":"gma","name":"Dünser Horn","coordinates":[9.71940041,47.24079895]},{"code":"OE0/VB-1395","program":"gma","name":"Spießeck","coordinates":[9.70359993,47.14419937]},{"code":"OE0/VB-1396","program":"gma","name":"Muttkopf","coordinates":[9.70689964,47.2419014]},{"code":"OE0/VB-1402","program":"gma","name":"Eckskopf","coordinates":[9.68109989,47.15219879]},{"code":"OE0/VB-1424","program":"gma","name":"Rappenköpfle","coordinates":[9.7477,47.238]},{"code":"AT-0050","program":"pota","name":"Wildpark Feldkirch National Wildlife Refuge","coordinates":[9.59725,47.2459]},{"code":"LI-0004","program":"pota","name":"Gampriner Seelein Nature Reserve","coordinates":[9.5097,47.2257]},{"code":"LI-0003","program":"pota","name":"Birka Nature Reserve","coordinates":[9.55227,47.2157]},{"code":"LI-0009","program":"pota","name":"Wisanels Nature Reserve","coordinates":[9.56772,47.2197]},{"code":"LI-0008","program":"pota","name":"Schwabbrünnen/Äscher Nature Reserve","coordinates":[9.5348,47.1887]},{"code":"LI-0017","program":"pota","name":"Via Alpina National Scenic Trail","coordinates":[9.5462,47.1793]},{"code":"LI-0012","program":"pota","name":"Stachler Wald Forest Reserve","coordinates":[9.5934,47.1156]},{"code":"LI-0011","program":"pota","name":"Gantenstein Forest Reserve","coordinates":[9.5624,47.2364]},{"code":"LI-0005","program":"pota","name":"Triesner Heilos Nature Reserve","coordinates":[9.5215,47.0896]},{"code":"LI-0015","program":"pota","name":"Matilaberg Nature Reserve","coordinates":[9.53397,47.0921]},{"code":"LI-0016","program":"pota","name":"Robinson Spielplatz Park","coordinates":[9.52538,47.0927]},{"code":"LI-0018","program":"pota","name":"Hinter Baergwald/ Heubueal Forest Reserve","coordinates":[9.56692,47.0961]},{"code":"LI-0010","program":"pota","name":"Saeliwald Forest Reserve","coordinates":[9.5303,47.1451]},{"code":"LI-0013","program":"pota","name":"Schlosswald Forest Reserve","coordinates":[9.52742,47.1397]},{"code":"HB/GR-107","program":"sota","name":"Vilan","coordinates":[9.6031,47.0126]},{"code":"HB/GR-121","program":"sota","name":"Regitzer Spitz","coordinates":[9.5064,47.0373]},{"code":"HB/GR-159","program":"sota","name":"Glegghorn","coordinates":[9.5765,47.0362]},{"code":"HB/GR-289","program":"sota","name":"Giraspitz","coordinates":[9.7433,47.0264]},{"code":"HB/GR-341","program":"sota","name":"Tschingel","coordinates":[9.6366,47.0517]},{"code":"HB/GR-342","program":"sota","name":"Hornspitz","coordinates":[9.6451,47.0597]},{"code":"HB0/LI-001","program":"sota","name":"Vorder Grauspitz","coordinates":[9.5814,47.0528]},{"code":"HB0/LI-002","program":"sota","name":"Naafkopf","coordinates":[9.6064,47.0606]},{"code":"HB0/LI-004","program":"sota","name":"Augstenberg","coordinates":[9.6113,47.0802]},{"code":"HB0/LI-005","program":"sota","name":"Ochsenkopf","coordinates":[9.6247,47.1147]},{"code":"HB0/LI-007","program":"sota","name":"Galinakopf","coordinates":[9.6206,47.1517]},{"code":"HB0/LI-008","program":"sota","name":"Kuegrat","coordinates":[9.5608,47.1664]},{"code":"HB0/LI-009","program":"sota","name":"Schoenberg","coordinates":[9.593,47.1303]},{"code":"HB0/LI-011","program":"sota","name":"Helwangspitz","coordinates":[9.5619,47.1486]},{"code":"HB0/LI-012","program":"sota","name":"Schellenberg","coordinates":[9.566,47.2404]},{"code":"OE/VB-019","program":"sota","name":"Schesaplana","coordinates":[9.7075,47.0539]},{"code":"OE/VB-055","program":"sota","name":"Wildberg","coordinates":[9.7022,47.0678]},{"code":"OE/VB-078","program":"sota","name":"Seekopf","coordinates":[9.7361,47.0578]},{"code":"OE/VB-198","program":"sota","name":"Fundelkopf","coordinates":[9.6767,47.1103]},{"code":"OE/VB-227","program":"sota","name":"Blankuskopf","coordinates":[9.6794,47.0925]},{"code":"OE/VB-235","program":"sota","name":"Tuklar","coordinates":[9.6942,47.1178]},{"code":"OE/VB-531","program":"sota","name":"Hohe Köpfe","coordinates":[9.6233,47.1658]}]}