{"lat":47,"lon":10.5,"programs":["gma","pota","sota"],"count":69,"references":[{"code":"OE/TI-064","program":"gma","name":"Furgler","coordinates":[10.51189995,47.04029846]},{"code":"OE/TI-161","program":"gma","name":"Kogelseespitze","coordinates":[10.56499958,47.24779892]},{"code":"OE/TI-258","program":"gma","name":"Silberspitze","coordinates":[10.57219982,47.18420029]},{"code":"OE/TI-373","program":"gma","name":"Glanderspitze","coordinates":[10.66720009,47.15060043]},{"code":"OE/TI-848","program":"gma","name":"Rotpleiskopf","coordinates":[10.5292,47.0667]},{"code":"OE/TI-852","program":"gma","name":"Feichtener Karlspitze","coordinates":[10.7075,47.0158]},{"code":"OE/TI-871","program":"gma","name":"Unben-Gamsbergkopf","coordinates":[10.535,47.0917]},{"code":"OE/TI-873","program":"gma","name":"Gamsbergspitze","coordinates":[10.53,47.0775]},{"code":"OE/TI-878","program":"gma","name":"Grosse Schlenkerspitze","coordinates":[10.6158,47.2492]},{"code":"OE/TI-881","program":"gma","name":"Blankahorn","coordinates":[10.5125,47.175]},{"code":"OE/TI-882","program":"gma","name":"Wannenkopf","coordinates":[10.5233,47.1742]},{"code":"OE/TI-888","program":"gma","name":"Gamsköpfe","coordinates":[10.7108,47.0258]},{"code":"OE/TI-900","program":"gma","name":"Pezid","coordinates":[10.5133,47.02]},{"code":"OE/TI-907","program":"gma","name":"Leiterspitze","coordinates":[10.5217,47.2233]},{"code":"OE/TI-909","program":"gma","name":"Schieferspitze","coordinates":[10.5175,47.2083]},{"code":"OE/TI-913","program":"gma","name":"Dremelspitze","coordinates":[10.5958,47.235]},{"code":"OE/TI-916","program":"gma","name":"Bergwerkskopf","coordinates":[10.6092,47.225]},{"code":"OE/TI-920","program":"gma","name":"Bittrichkopf","coordinates":[10.5442,47.2167]},{"code":"OE/TI-930","program":"gma","name":"Kreuzjochspitze","coordinates":[10.5575,47.2]},{"code":"OE/TI-936","program":"gma","name":"Steinkarspitze - Lechtaler","coordinates":[10.5742,47.2325]},{"code":"OE/TI-937","program":"gma","name":"Grubigjoch","coordinates":[10.6139,47.2128]},{"code":"OE/TI-941","program":"gma","name":"Schneekarlespitze","coordinates":[10.5875,47.2333]},{"code":"OE/TI-965","program":"gma","name":"Hinterer Heuberg","coordinates":[10.5442,47.0125]},{"code":"OE0/TI-1088","program":"gma","name":"Gampelkopf","coordinates":[10.67109966,47.16999817]},{"code":"OE0/TI-1105","program":"gma","name":"Ochsenkopf","coordinates":[10.70750046,47.05390167]},{"code":"OE0/TI-1175","program":"gma","name":" Roter Schrofen","coordinates":[10.71808338,47.04021835]},{"code":"OE0/TI-1343","program":"gma","name":"Köpfle","coordinates":[10.74602795,47.09317398]},{"code":"OE0/TI-1344","program":"gma","name":"Aifner Spitze","coordinates":[10.72116947,47.10717773]},{"code":"OE0/TI-1345","program":"gma","name":"Hochschaltergrat","coordinates":[10.73656273,47.09612274]},{"code":"OE0/TI-1346","program":"gma","name":"Oberer Sattelkopf","coordinates":[10.57179546,47.06495285]},{"code":"OE0/TI-1347","program":"gma","name":"Hinterer Sattelkopf","coordinates":[10.5644207,47.06326675]},{"code":"OE0/TI-1348","program":"gma","name":"Brunnenkopf","coordinates":[10.5574913,47.05924606]},{"code":"OE0/TI-1354","program":"gma","name":"Schlantekopf","coordinates":[10.69552612,47.02122116]},{"code":"OE0/TI-1398","program":"gma","name":"Hohe Aifner Spitze","coordinates":[10.73139954,47.10440063]},{"code":"OE0/TI-1413","program":"gma","name":"Mittagskopf","coordinates":[10.71969986,47.04610062]},{"code":"OE0/TI-1414","program":"gma","name":"Parzinnspitze","coordinates":[10.57579994,47.23920059]},{"code":"OE0/TI-1415","program":"gma","name":"Brunnkarspitze","coordinates":[10.62609959,47.24969864]},{"code":"OE0/TI-1418","program":"gma","name":"Zwölferkopf","coordinates":[10.5763998,47.07249832]},{"code":"OE0/TI-1429","program":"gma","name":"Hanauer Spitze","coordinates":[10.60470009,47.23389816]},{"code":"OE0/TI-1451","program":"gma","name":"Thialkopf","coordinates":[10.55360031,47.10440063]},{"code":"OE0/TI-1465","program":"gma","name":"Laaggers","coordinates":[10.67889977,47.23500061]},{"code":"OE0/TI-1492","program":"gma","name":"Matonkopf","coordinates":[10.63809967,47.00669861]},{"code":"OE0/TI-1505","program":"gma","name":"Zirmesköpfle","coordinates":[10.68080044,47.02830124]},{"code":"OE0/TI-1557","program":"gma","name":"Sonnenpleiskopf","coordinates":[10.56750011,47.19329834]},{"code":"OE0/TI-1598","program":"gma","name":"Krahberg","coordinates":[10.62627,47.14572]},{"code":"AT-0309","program":"pota","name":"Naturdenkmal Piller Moor Nature Reserve","coordinates":[10.6623,47.1247]},{"code":"OE/TI-064","program":"sota","name":"Furgler","coordinates":[10.5119,47.0403]},{"code":"OE/TI-161","program":"sota","name":"Kogelseespitze","coordinates":[10.565,47.2478]},{"code":"OE/TI-258","program":"sota","name":"Silberspitze","coordinates":[10.5722,47.1842]},{"code":"OE/TI-373","program":"sota","name":"Glanderspitze","coordinates":[10.6617,47.1483]},{"code":"OE/TI-848","program":"sota","name":"Rotpleiskopf","coordinates":[10.5292,47.0667]},{"code":"OE/TI-852","program":"sota","name":"Feichtener Karlspitze","coordinates":[10.7075,47.0158]},{"code":"OE/TI-871","program":"sota","name":"Unben-Gamsbergkopf","coordinates":[10.535,47.0917]},{"code":"OE/TI-873","program":"sota","name":"Gamsbergspitze","coordinates":[10.53,47.0775]},{"code":"OE/TI-878","program":"sota","name":"Grosse Schlenkerspitze","coordinates":[10.6158,47.2492]},{"code":"OE/TI-881","program":"sota","name":"Blankahorn","coordinates":[10.5125,47.175]},{"code":"OE/TI-882","program":"sota","name":"Wannenkopf","coordinates":[10.5233,47.1742]},{"code":"OE/TI-888","program":"sota","name":"Gamsköpfe","coordinates":[10.7108,47.0258]},{"code":"OE/TI-900","program":"sota","name":"Pezid","coordinates":[10.5133,47.02]},{"code":"OE/TI-907","program":"sota","name":"Leiterspitze","coordinates":[10.5217,47.2233]},{"code":"OE/TI-909","program":"sota","name":"Schieferspitze","coordinates":[10.5175,47.2083]},{"code":"OE/TI-913","program":"sota","name":"Dremelspitze","coordinates":[10.5958,47.235]},{"code":"OE/TI-916","program":"sota","name":"Bergwerkskopf","coordinates":[10.6092,47.225]},{"code":"OE/TI-920","program":"sota","name":"Bittrichkopf","coordinates":[10.5442,47.2167]},{"code":"OE/TI-930","program":"sota","name":"Kreuzjochspitze","coordinates":[10.5575,47.2]},{"code":"OE/TI-936","program":"sota","name":"Steinkarspitze - Lechtaler","coordinates":[10.5742,47.2325]},{"code":"OE/TI-937","program":"sota","name":"Grubigjoch","coordinates":[10.6139,47.2128]},{"code":"OE/TI-941","program":"sota","name":"Schneekarlespitze","coordinates":[10.5875,47.2333]},{"code":"OE/TI-965","program":"sota","name":"Hinterer Heuberg","coordinates":[10.5442,47.0125]}]}