{"lat":47,"lon":26.25,"programs":["pota","sota","wwbota"],"count":14,"references":[{"code":"RO-0331","program":"pota","name":"Cetatea Neamț National Historic Site","coordinates":[26.3437,47.2149]},{"code":"RO-0347","program":"pota","name":"Ion Creangă Historic Site","coordinates":[26.3548,47.1975]},{"code":"YO/EC-397","program":"sota","name":"Cota 889","coordinates":[26.2942,47.0425]},{"code":"YO/EC-511","program":"sota","name":"Neamț","coordinates":[26.3417,47.2208]},{"code":"YO/EC-579","program":"sota","name":"Țiganca","coordinates":[26.2667,47.0383]},{"code":"YO/EC-623","program":"sota","name":"Boiștea","coordinates":[26.4275,47.185]},{"code":"B/YO-0248","program":"wwbota","name":"Cazemata Tg Neamt 1","coordinates":[26.395655,47.214807]},{"code":"B/YO-0249","program":"wwbota","name":"Cazemata Tg Neamt 2","coordinates":[26.392183,47.217436]},{"code":"B/YO-0250","program":"wwbota","name":"Cazemata Tg Neamt 3","coordinates":[26.387451,47.215181]},{"code":"B/YO-0251","program":"wwbota","name":"Cazemata Tg Neamt 4","coordinates":[26.395073,47.213404]},{"code":"B/YO-0252","program":"wwbota","name":"Cazemata Tg Neamt 5","coordinates":[26.398621,47.212864]},{"code":"B/YO-0253","program":"wwbota","name":"Cazemata Tg Neamt 6","coordinates":[26.401293,47.213321]},{"code":"B/YO-0254","program":"wwbota","name":"Cazemata Tg Neamt 7","coordinates":[26.394733,47.216911]},{"code":"B/YO-0255","program":"wwbota","name":"Cazemata B?ile Oglinzi","coordinates":[26.353059,47.227829]}]}