{"lat":47,"lon":28.75,"programs":["pota","wwbota"],"count":19,"references":[{"code":"MD-0007","program":"pota","name":"Parcul Valea Morilor Nature Park","coordinates":[28.819,47.0182]},{"code":"MD-0008","program":"pota","name":"Parcul Dendrologic din Chișinău (Dendrological Park) Park Reserve","coordinates":[28.809,47.0323]},{"code":"MD-0009","program":"pota","name":"Parcul Valea Trandafirilor Nature Park","coordinates":[28.856,47.001]},{"code":"MD-0010","program":"pota","name":"Parcul Alunelul Nature Park","coordinates":[28.8042,47.0373]},{"code":"MD-0011","program":"pota","name":"Parcul La Izvor Nature Park","coordinates":[28.7907,47.0459]},{"code":"MD-0012","program":"pota","name":"Pădurea-parc Râșcani Nature Park","coordinates":[28.8759,47.0489]},{"code":"MD-0013","program":"pota","name":"Parcul Râșcani Nature Park","coordinates":[28.872,47.039]},{"code":"MD-0016","program":"pota","name":"Pădurea-parc Schinoasa Nature Park","coordinates":[28.7908,47.0025]},{"code":"MD-0017","program":"pota","name":"Pădurea-parc Butoiaș Nature Park","coordinates":[28.7779,47.0429]},{"code":"MD-0018","program":"pota","name":"Parcul silvic Lunca Gâștei Nature Park","coordinates":[28.8214,47.0605]},{"code":"MD-0019","program":"pota","name":"Pădurea-parc Calea Orheiului Nature Park","coordinates":[28.8542,47.0532]},{"code":"MD-0022","program":"pota","name":"Parcul Alexei Mateevici Park","coordinates":[28.8632,47.0895]},{"code":"MD-0024","program":"pota","name":"Parcul Colonița National Park","coordinates":[28.9535,47.0382]},{"code":"MD-0094","program":"pota","name":"Parcul din Ghidighici Park","coordinates":[28.7709,47.0917]},{"code":"MD-0096","program":"pota","name":"Parcul din Cricova Park","coordinates":[28.8642,47.1286]},{"code":"MD-0097","program":"pota","name":"Parcul din Ciorescu Park","coordinates":[28.8932,47.133]},{"code":"MD-0086","program":"pota","name":"Parcul din Miclești Landscape Park","coordinates":[28.8036,47.2431]},{"code":"MD-0085","program":"pota","name":"Parcul din Peresecina Park","coordinates":[28.7593,47.2463]},{"code":"B/ER-0009","program":"wwbota","name":"Soviet Bunker","coordinates":[28.7961,47.04939]}]}