{"lat":47,"lon":-117,"programs":["pota","sota"],"count":7,"references":[{"code":"US-2244","program":"pota","name":"Mary M. McCroskey State Park","coordinates":[-116.963,47.0731]},{"code":"W7I/NI-207","program":"sota","name":"Moses Mountain","coordinates":[-116.776,47.156]},{"code":"W7I/NI-223","program":"sota","name":"Tensed Benchmark","coordinates":[-116.8092,47.1818]},{"code":"W7I/NI-257","program":"sota","name":"Mission Mountain","coordinates":[-116.9438,47.0674]},{"code":"W7I/NI-265","program":"sota","name":"Prospect Peak","coordinates":[-116.7965,47.0227]},{"code":"W7I/NI-268","program":"sota","name":"4100","coordinates":[-116.8349,47.2291]},{"code":"W7I/NI-269","program":"sota","name":"4060","coordinates":[-116.8359,47.2483]}]}