{"lat":47,"lon":10.25,"programs":["gma","sota"],"count":89,"references":[{"code":"OE/TI-036","program":"gma","name":"Hoher Riffler","coordinates":[10.37110043,47.11610031]},{"code":"OE/TI-053","program":"gma","name":"Parseierspitze","coordinates":[10.47830009,47.17440033]},{"code":"OE/TI-054","program":"gma","name":"Hexenkopf","coordinates":[10.46920013,47.02109909]},{"code":"OE/TI-092","program":"gma","name":"Wetterspitze","coordinates":[10.36940002,47.20610046]},{"code":"OE/TI-094","program":"gma","name":"Freispitze","coordinates":[10.42860031,47.20059967]},{"code":"OE/TI-217","program":"gma","name":"Pezinerspitze","coordinates":[10.44110012,47.10169983]},{"code":"OE/TI-588","program":"gma","name":"Stanskogel","coordinates":[10.3046999,47.17309952]},{"code":"OE/TI-596","program":"gma","name":"Samspitze","coordinates":[10.39560032,47.17359924]},{"code":"OE/TI-598","program":"gma","name":"Grießkopf","coordinates":[10.33250046,47.17499924]},{"code":"OE/TI-621","program":"gma","name":"Pimig","coordinates":[10.2730999,47.22499847]},{"code":"OE/TI-798","program":"gma","name":"Vesulspitze","coordinates":[10.3492,47.0017]},{"code":"OE/TI-812","program":"gma","name":"Seeköpfe","coordinates":[10.2675,47.045]},{"code":"OE/TI-821","program":"gma","name":"Saumspitze","coordinates":[10.27,47.0508]},{"code":"OE/TI-838","program":"gma","name":"Griesslspitze","coordinates":[10.4354,47.1836]},{"code":"OE/TI-844","program":"gma","name":"Madaunspitze","coordinates":[10.2975,47.0767]},{"code":"OE/TI-858","program":"gma","name":"Grübelekopf","coordinates":[10.3883,47.0042]},{"code":"OE/TI-859","program":"gma","name":"Stierlochkopf","coordinates":[10.4331,47.1792]},{"code":"OE/TI-860","program":"gma","name":"Vorderseespitze","coordinates":[10.3675,47.185]},{"code":"OE/TI-861","program":"gma","name":"Stielkopf","coordinates":[10.4692,47.0358]},{"code":"OE/TI-864","program":"gma","name":"Weiskogel","coordinates":[10.3567,47.0975]},{"code":"OE/TI-865","program":"gma","name":"Eisenspitze","coordinates":[10.4475,47.1625]},{"code":"OE/TI-869","program":"gma","name":"Hinteres Kreuzjoch","coordinates":[10.4242,47.0158]},{"code":"OE/TI-874","program":"gma","name":"Rotspitze","coordinates":[10.4225,47.1892]},{"code":"OE/TI-876","program":"gma","name":"Hochkarspitze-Verwall","coordinates":[10.3075,47.1108]},{"code":"OE/TI-877","program":"gma","name":"Blautalkopf","coordinates":[10.4817,47.0017]},{"code":"OE/TI-886","program":"gma","name":"Hinterer Seekopf","coordinates":[10.4792,47.1889]},{"code":"OE/TI-891","program":"gma","name":"Noname- near Griessmuttekopf","coordinates":[10.4392,47.1717]},{"code":"OE/TI-893","program":"gma","name":"Etlerkopf","coordinates":[10.3731,47.2122]},{"code":"OE/TI-902","program":"gma","name":"Fallesinspitze","coordinates":[10.3017,47.1808]},{"code":"OE/TI-906","program":"gma","name":"Kleinbergspitze","coordinates":[10.4958,47.2025]},{"code":"OE/TI-912","program":"gma","name":"Fallenbacherspitze","coordinates":[10.3908,47.2]},{"code":"OE/TI-925","program":"gma","name":"Saxerspitze","coordinates":[10.4392,47.2108]},{"code":"OE/TI-939","program":"gma","name":"Alplespleisspitze","coordinates":[10.3433,47.1967]},{"code":"OE/TI-943","program":"gma","name":"Grossgfallkopf","coordinates":[10.4083,47.1017]},{"code":"OE/TI-947","program":"gma","name":"Grossstein","coordinates":[10.4917,47.2425]},{"code":"OE/TI-949","program":"gma","name":"Griestaler Spitze","coordinates":[10.3367,47.2275]},{"code":"OE/TI-969","program":"gma","name":"Tajaspitze","coordinates":[10.3758,47.2275]},{"code":"OE/TI-979","program":"gma","name":"Seekogel","coordinates":[10.4758,47.2042]},{"code":"OE0/TI-1032","program":"gma","name":"Mittagspitze","coordinates":[10.3842001,47.12829971]},{"code":"OE0/TI-1136","program":"gma","name":"Walchererhöhe","coordinates":[10.30440044,47.15470123]},{"code":"OE0/TI-1389","program":"gma","name":"Vorderes Kreuzjoch","coordinates":[10.4222002,47.03110123]},{"code":"OE0/TI-1392","program":"gma","name":"Masnerkopf","coordinates":[10.47309971,47.01250076]},{"code":"OE0/TI-1421","program":"gma","name":"Stierkopf","coordinates":[10.41359997,47.17779922]},{"code":"OE0/TI-1445","program":"gma","name":"Peischelspitze","coordinates":[10.34640026,47.23830032]},{"code":"OE0/TI-1450","program":"gma","name":"Kappler Kopf","coordinates":[10.32559967,47.06079865]},{"code":"OE0/TI-1485","program":"gma","name":"Hahnleskopf","coordinates":[10.3156004,47.22859955]},{"code":"OE0/TI-1486","program":"gma","name":"Vorderer Sonnenkogel","coordinates":[10.39470005,47.24860001]},{"code":"OE0/TI-1542","program":"gma","name":"Schmalzgrubenscharte","coordinates":[10.35079956,47.09500122]},{"code":"OE0/TI-1546","program":"gma","name":"Gamskarspitze","coordinates":[10.32310009,47.11610031]},{"code":"OE0/TI-1554","program":"gma","name":"Schindlekopf","coordinates":[10.31579971,47.16830063]},{"code":"OE0/TI-1567","program":"gma","name":"Mittagkopf","coordinates":[10.39500046,47.05189896]},{"code":"OE/TI-036","program":"sota","name":"Hoher Riffler","coordinates":[10.3711,47.1161]},{"code":"OE/TI-053","program":"sota","name":"Parseierspitze","coordinates":[10.4783,47.1744]},{"code":"OE/TI-054","program":"sota","name":"Hexenkopf","coordinates":[10.4692,47.0211]},{"code":"OE/TI-092","program":"sota","name":"Wetterspitze","coordinates":[10.3694,47.2061]},{"code":"OE/TI-094","program":"sota","name":"Freispitze","coordinates":[10.4286,47.2006]},{"code":"OE/TI-217","program":"sota","name":"Pezinerspitze","coordinates":[10.4411,47.1017]},{"code":"OE/TI-588","program":"sota","name":"Stanskogel","coordinates":[10.3047,47.1731]},{"code":"OE/TI-596","program":"sota","name":"Samspitze","coordinates":[10.3956,47.1736]},{"code":"OE/TI-598","program":"sota","name":"Grießkopf","coordinates":[10.3325,47.175]},{"code":"OE/TI-621","program":"sota","name":"Pimig","coordinates":[10.2731,47.225]},{"code":"OE/TI-798","program":"sota","name":"Vesulspitze","coordinates":[10.3492,47.0017]},{"code":"OE/TI-812","program":"sota","name":"Seeköpfe","coordinates":[10.2675,47.045]},{"code":"OE/TI-821","program":"sota","name":"Saumspitze","coordinates":[10.27,47.0508]},{"code":"OE/TI-838","program":"sota","name":"Griesslspitze","coordinates":[10.4354,47.1836]},{"code":"OE/TI-844","program":"sota","name":"Madaunspitze","coordinates":[10.2975,47.0767]},{"code":"OE/TI-858","program":"sota","name":"Grübelekopf","coordinates":[10.3883,47.0042]},{"code":"OE/TI-859","program":"sota","name":"Stierlochkopf","coordinates":[10.4331,47.1792]},{"code":"OE/TI-860","program":"sota","name":"Vorderseespitze","coordinates":[10.3675,47.185]},{"code":"OE/TI-861","program":"sota","name":"Stielkopf","coordinates":[10.4692,47.0358]},{"code":"OE/TI-864","program":"sota","name":"Weiskogel","coordinates":[10.3567,47.0975]},{"code":"OE/TI-865","program":"sota","name":"Eisenspitze","coordinates":[10.4475,47.1625]},{"code":"OE/TI-869","program":"sota","name":"Hinteres Kreuzjoch","coordinates":[10.4242,47.0158]},{"code":"OE/TI-874","program":"sota","name":"Rotspitze","coordinates":[10.4225,47.1892]},{"code":"OE/TI-876","program":"sota","name":"Hochkarspitze-Verwall","coordinates":[10.3075,47.1108]},{"code":"OE/TI-877","program":"sota","name":"Blautalkopf","coordinates":[10.4817,47.0017]},{"code":"OE/TI-886","program":"sota","name":"Hinterer Seekopf","coordinates":[10.4792,47.1889]},{"code":"OE/TI-891","program":"sota","name":"Noname- near Griessmuttekopf","coordinates":[10.4392,47.1717]},{"code":"OE/TI-893","program":"sota","name":"Etlerkopf","coordinates":[10.3731,47.2122]},{"code":"OE/TI-902","program":"sota","name":"Fallesinspitze","coordinates":[10.3017,47.1808]},{"code":"OE/TI-906","program":"sota","name":"Kleinbergspitze","coordinates":[10.4958,47.2025]},{"code":"OE/TI-912","program":"sota","name":"Fallenbacherspitze","coordinates":[10.3908,47.2]},{"code":"OE/TI-925","program":"sota","name":"Saxerspitze","coordinates":[10.4392,47.2108]},{"code":"OE/TI-939","program":"sota","name":"Alplespleisspitze","coordinates":[10.3433,47.1967]},{"code":"OE/TI-943","program":"sota","name":"Grossgfallkopf","coordinates":[10.4083,47.1017]},{"code":"OE/TI-947","program":"sota","name":"Grossstein","coordinates":[10.4917,47.2425]},{"code":"OE/TI-949","program":"sota","name":"Griestaler Spitze","coordinates":[10.3367,47.2275]},{"code":"OE/TI-969","program":"sota","name":"Tajaspitze","coordinates":[10.3758,47.2275]},{"code":"OE/TI-979","program":"sota","name":"Seekogel","coordinates":[10.4758,47.2042]}]}