{"lat":47,"lon":25.75,"programs":["pota","sota"],"count":11,"references":[{"code":"RO-0337","program":"pota","name":"Palatul Cnejilor Historic Site","coordinates":[25.9409,47.0334]},{"code":"RO-1201","program":"pota","name":"Drumul Axial Nature Recreation Area","coordinates":[25.9738,47.0029]},{"code":"RO-0317","program":"pota","name":"Belvedere Vârful Bivolul, Munții Stânișoarei National Park","coordinates":[25.9257,47.2494]},{"code":"YO/EC-139","program":"sota","name":"Măgura","coordinates":[25.8183,47.0258]},{"code":"YO/EC-146","program":"sota","name":"Comarnic","coordinates":[25.7525,47.0042]},{"code":"YO/EC-198","program":"sota","name":"Hurduga","coordinates":[25.885,47.0975]},{"code":"YO/EC-228","program":"sota","name":"Baicu","coordinates":[25.9383,47.1725]},{"code":"YO/EC-278","program":"sota","name":"Munțișoru","coordinates":[25.9908,47.1783]},{"code":"YO/EC-456","program":"sota","name":"Migovan","coordinates":[25.8292,47.2458]},{"code":"YO/EC-462","program":"sota","name":"Țifla","coordinates":[25.835,47.1908]},{"code":"YO/EC-538","program":"sota","name":"Razemul Calului","coordinates":[25.9042,47.1775]}]}