{"lat":47,"lon":24.75,"programs":["pota","sota"],"count":18,"references":[{"code":"RO-0197","program":"pota","name":"Colibița Water Management Area","coordinates":[24.8766,47.1644]},{"code":"RO-0210","program":"pota","name":"Cheile Bistriței Ardelene Protected Area","coordinates":[24.8538,47.1654]},{"code":"RO-0647","program":"pota","name":"Tășuleasa Social Nature Recreation Area","coordinates":[24.98,47.247]},{"code":"RO-0648","program":"pota","name":"Drumul Romanilor Historic Site","coordinates":[24.936,47.2335]},{"code":"RO-0649","program":"pota","name":"Munții Bârgăului Nature and Landscape Complex","coordinates":[24.9085,47.2403]},{"code":"RO-0650","program":"pota","name":"Valea Străjii Recreation Site","coordinates":[24.8948,47.2172]},{"code":"RO-0651","program":"pota","name":"Muntele Căsaru Recreation Site","coordinates":[24.8963,47.2061]},{"code":"RO-0652","program":"pota","name":"Dealul Petrei Recreation Site","coordinates":[24.828,47.2082]},{"code":"RO-1210","program":"pota","name":"Belvedere Colibita (cota 1100m) Area of Outstanding Natural Beauty","coordinates":[24.9289,47.1915]},{"code":"RO-0068","program":"pota","name":"Scaunul Domnului Protected Area","coordinates":[24.9113,47.0311]},{"code":"YO/EC-019","program":"sota","name":"Căsarul","coordinates":[24.908,47.2002]},{"code":"YO/EC-110","program":"sota","name":"Miroslava","coordinates":[24.8733,47.2358]},{"code":"YO/EC-119","program":"sota","name":"Bistricioara","coordinates":[24.8992,47.1067]},{"code":"YO/EC-124","program":"sota","name":"Arșiței","coordinates":[24.9436,47.2025]},{"code":"YO/EC-140","program":"sota","name":"Dealul Ariilor","coordinates":[24.9646,47.1949]},{"code":"YO/EC-161","program":"sota","name":"Chicera lui Pasăre","coordinates":[24.9858,47.1192]},{"code":"YO/EC-219","program":"sota","name":"Dosul Zâmbroaiei","coordinates":[24.9442,47.2342]},{"code":"YO/EC-309","program":"sota","name":"Dealul Pietrei","coordinates":[24.8616,47.181]}]}