{"lat":47,"lon":7,"programs":["gma","pota","sota"],"count":15,"references":[{"code":"HB/BE-102","program":"gma","name":"Mont Sujet","coordinates":[7.14470005,47.13750076]},{"code":"HB/BE-104","program":"gma","name":"Chasseral","coordinates":[7.05919981,47.1330986]},{"code":"HB/BE-113","program":"gma","name":"Jolimont","coordinates":[7.06139994,47.02529907]},{"code":"HB/BE-170","program":"gma","name":"Les Prés de la Montagne","coordinates":[7.131,47.2386]},{"code":"HB/BE-171","program":"gma","name":"Envers de Jorat","coordinates":[7.1884,47.1364]},{"code":"CH-0005","program":"pota","name":"Chasseral Nature Park","coordinates":[7.03643,47.1358]},{"code":"CH-0091","program":"pota","name":"Linkes Bielerseeufer Natural Monument","coordinates":[7.15287,47.0935]},{"code":"CH-0094","program":"pota","name":"Franches-Montagnes Natural Monument","coordinates":[7.04568,47.2415]},{"code":"CH-0116","program":"pota","name":"St. Petersinsel – Heidenweg Natural Monument","coordinates":[7.14076,47.0715]},{"code":"CH-0098","program":"pota","name":"Roches de Châtollion Natural Monument","coordinates":[7.00313,47.0363]},{"code":"HB/BE-102","program":"sota","name":"Mont Sujet/​Spitzberg","coordinates":[7.1448,47.1376]},{"code":"HB/BE-104","program":"sota","name":"Chasseral","coordinates":[7.0594,47.1331]},{"code":"HB/BE-113","program":"sota","name":"Jolimont","coordinates":[7.0613,47.0252]},{"code":"HB/BE-170","program":"sota","name":"Les Prés de la Montagne","coordinates":[7.1313,47.2387]},{"code":"HB/BE-171","program":"sota","name":"Envers de Jorat","coordinates":[7.1885,47.1363]}]}