{"lat":47,"lon":-69,"programs":["pota","sota"],"count":7,"references":[{"code":"CA-1235","program":"pota","name":"Glazier Lake Nature Reserve","coordinates":[-68.9802,47.2274]},{"code":"CA-4397","program":"pota","name":"Foley Island Protected Area","coordinates":[-68.88,47.186]},{"code":"CA-4409","program":"pota","name":"Grew Brook Protected Area","coordinates":[-68.9133,47.245]},{"code":"W1/AM-129","program":"sota","name":"Mclean Mtn.","coordinates":[-68.8519,47.1178]},{"code":"W1/AM-335","program":"sota","name":"Tower Mtn.","coordinates":[-68.8564,47.1533]},{"code":"W1/AM-391","program":"sota","name":"Hunnewell Pond HP","coordinates":[-68.8131,47.1708]},{"code":"W1/AM-427","program":"sota","name":"Factory Mtn.","coordinates":[-68.775,47.1892]}]}