{"lat":47,"lon":14,"programs":["gma","pota","sota"],"count":28,"references":[{"code":"OE/KT-092","program":"gma","name":"Ackerlhöhe","coordinates":[14.12559986,47.04560089]},{"code":"OE/KT-349","program":"gma","name":"Preininger Kuster","coordinates":[14.1632,47.0248]},{"code":"OE/KT-393","program":"gma","name":"Kuchalm","coordinates":[14.1907,47.0336]},{"code":"OE/ST-010","program":"gma","name":"Rupprechtseck","coordinates":[14.00109959,47.24000168]},{"code":"OE/ST-015","program":"gma","name":"Greim","coordinates":[14.15170002,47.24750137]},{"code":"OE/ST-017","program":"gma","name":"Eisenhut","coordinates":[14.04940033,47.23500061]},{"code":"OE/ST-116","program":"gma","name":"Frauenalpe","coordinates":[14.13689995,47.06470108]},{"code":"OE/ST-161","program":"gma","name":"Stolzalpe","coordinates":[14.19029999,47.15169907]},{"code":"OE/ST-166","program":"gma","name":"Kramerkogel","coordinates":[14.08500004,47.12969971]},{"code":"OE/ST-357","program":"gma","name":"Freiberg","coordinates":[14.07689953,47.17219925]},{"code":"OE/ST-391","program":"gma","name":"Goldachnock","coordinates":[14.0574,47.0348]},{"code":"OE/ST-563","program":"gma","name":"Ofen","coordinates":[14.2213,47.2144]},{"code":"OE0/ST-1014","program":"gma","name":"Prankerhöhe","coordinates":[14.06890011,47.02360153]},{"code":"OE0/ST-1017","program":"gma","name":"Kirbisch","coordinates":[14.05080032,47.04999924]},{"code":"OE0/ST-1018","program":"gma","name":"Rosenkranzhöhe","coordinates":[14.04969978,47.05530167]},{"code":"AT-0092","program":"pota","name":"Auenmoos Protected Landscape Area","coordinates":[14.1469,47.0356]},{"code":"OE/KT-092","program":"sota","name":"Ackerlhöhe","coordinates":[14.1256,47.0456]},{"code":"OE/KT-349","program":"sota","name":"Preininger Kuster","coordinates":[14.1632,47.0248]},{"code":"OE/KT-393","program":"sota","name":"Kuchalm","coordinates":[14.1907,47.0336]},{"code":"OE/ST-010","program":"sota","name":"Rupprechtseck","coordinates":[14.0011,47.24]},{"code":"OE/ST-015","program":"sota","name":"Greim","coordinates":[14.1517,47.2475]},{"code":"OE/ST-017","program":"sota","name":"Eisenhut","coordinates":[14.0494,47.235]},{"code":"OE/ST-116","program":"sota","name":"Frauenalpe","coordinates":[14.1369,47.0647]},{"code":"OE/ST-161","program":"sota","name":"Stolzalpe","coordinates":[14.1903,47.1517]},{"code":"OE/ST-166","program":"sota","name":"Kramerkogel","coordinates":[14.085,47.1297]},{"code":"OE/ST-357","program":"sota","name":"Freiberg","coordinates":[14.0769,47.1722]},{"code":"OE/ST-391","program":"sota","name":"Goldachnock","coordinates":[14.0574,47.0348]},{"code":"OE/ST-563","program":"sota","name":"Ofen","coordinates":[14.2213,47.2144]}]}