{"lat":47,"lon":26,"programs":["pota","sota"],"count":14,"references":[{"code":"RO-0338","program":"pota","name":"Rezervația de Zimbri și Faună Carpatină \"Dragoș Vodă\" National Wildlife Area","coordinates":[26.2121,47.2452]},{"code":"RO-0339","program":"pota","name":"Lacul Cuejdel Aquatic Reserve","coordinates":[26.2169,47.036]},{"code":"RO-0872","program":"pota","name":"Vânatori Neamț Nature Park","coordinates":[26.2028,47.1678]},{"code":"YO/EC-265","program":"sota","name":"Buhalnița","coordinates":[26.1308,47.0558]},{"code":"YO/EC-282","program":"sota","name":"Prislopașu","coordinates":[26.1475,47.0192]},{"code":"YO/EC-296","program":"sota","name":"Dealul Mare Sihlea","coordinates":[26.165,47.14]},{"code":"YO/EC-307","program":"sota","name":"Măgura Gârcina","coordinates":[26.2442,47.0608]},{"code":"YO/EC-343","program":"sota","name":"Măgura Domesnic","coordinates":[26.1158,47.21]},{"code":"YO/EC-350","program":"sota","name":"Vârful Mare","coordinates":[26.2175,47.0058]},{"code":"YO/EC-376","program":"sota","name":"Dealul Mare","coordinates":[26.2375,47.1342]},{"code":"YO/EC-391","program":"sota","name":"Muncelul Agapia","coordinates":[26.2358,47.1883]},{"code":"YO/EC-558","program":"sota","name":"Vârful Mare","coordinates":[26.0383,47.1475]},{"code":"YO/EC-563","program":"sota","name":"Crainicul","coordinates":[26.0896,47.1479]},{"code":"YO/EC-573","program":"sota","name":"Musca","coordinates":[26.1892,47.0517]}]}