{"lat":47,"lon":-114.5,"programs":["pota","sota"],"count":10,"references":[{"code":"US-2573","program":"pota","name":"Frenchtown Pond State Park","coordinates":[-114.257,47.0231]},{"code":"US-4507","program":"pota","name":"Lolo National Forest","coordinates":[-114.441,47.1568]},{"code":"W7M/LM-053","program":"sota","name":"Ch-paa-qn Peak","coordinates":[-114.3559,47.1578]},{"code":"W7M/LM-073","program":"sota","name":"Blackrock Peak","coordinates":[-114.4336,47.2097]},{"code":"W7M/LM-088","program":"sota","name":"Josephine Peak","coordinates":[-114.4842,47.22]},{"code":"W7M/LM-106","program":"sota","name":"Edith Peak","coordinates":[-114.2544,47.1206]},{"code":"W7M/LM-113","program":"sota","name":"6627","coordinates":[-114.3145,47.1155]},{"code":"W7M/LM-140","program":"sota","name":"Ellis Mountain","coordinates":[-114.4521,47.0341]},{"code":"W7M/LO-035","program":"sota","name":"Hewolf Mountain","coordinates":[-114.3113,47.2008]},{"code":"W7M/LO-087","program":"sota","name":"6096","coordinates":[-114.4985,47.0542]}]}