{"lat":47,"lon":25,"programs":["pota","sota"],"count":15,"references":[{"code":"RO-0203","program":"pota","name":"Vârful Piatra Fântânele Recreation Site","coordinates":[25.0139,47.2294]},{"code":"RO-0204","program":"pota","name":"Vârful Zimbru Recreation Site","coordinates":[25.0402,47.2435]},{"code":"RO-1001","program":"pota","name":"Munții Călimani Protected Area","coordinates":[25.2025,47.1083]},{"code":"RO-1171","program":"pota","name":"Traseul de creastă Munții Călimani National Recreation Trail","coordinates":[25.0633,47.1365]},{"code":"RO-0160","program":"pota","name":"Călimani National Park","coordinates":[25.207,47.1084]},{"code":"RO-0308","program":"pota","name":"Via Maria Theresia National Historic Trail","coordinates":[25.2136,47.1123]},{"code":"RO-1199","program":"pota","name":"Doisprezece Apostoli Nature Monument","coordinates":[25.212,47.2267]},{"code":"YO/EC-002","program":"sota","name":"Pietrosu Călimani","coordinates":[25.1858,47.125]},{"code":"YO/EC-044","program":"sota","name":"Retițiș","coordinates":[25.2458,47.0975]},{"code":"YO/EC-045","program":"sota","name":"Bistriciorul","coordinates":[25.0567,47.1333]},{"code":"YO/EC-056","program":"sota","name":"Măieriș","coordinates":[25.1558,47.1575]},{"code":"YO/EC-089","program":"sota","name":"Buba","coordinates":[25.0608,47.1783]},{"code":"YO/EC-125","program":"sota","name":"Cornului","coordinates":[25.0283,47.1958]},{"code":"YO/EC-249","program":"sota","name":"Dorna","coordinates":[25.0658,47.2233]},{"code":"YO/EC-555","program":"sota","name":"Zimbrul","coordinates":[25.0402,47.2435]}]}