{"lat":47,"lon":-67.25,"programs":["pota","sota"],"count":8,"references":[{"code":"CA-4468","program":"pota","name":"Nictau Protected Area","coordinates":[-67.15,47.233]},{"code":"VE9/VT-001","program":"sota","name":"Black","coordinates":[-67.07694,47.135]},{"code":"VE9/VT-006","program":"sota","name":"Bald","coordinates":[-67.10833,47.17306]},{"code":"VE9/VT-007","program":"sota","name":"Gulquac","coordinates":[-67.09389,47.03333]},{"code":"VE9/VT-008","program":"sota","name":"Stewart","coordinates":[-67.08111,47.06944]},{"code":"VE9/VT-009","program":"sota","name":"Lower Blue","coordinates":[-67.22528,47.06833]},{"code":"VE9/VT-014","program":"sota","name":"Upper Blue","coordinates":[-67.21584,47.10194]},{"code":"VE9/VT-018","program":"sota","name":"Falls","coordinates":[-67.07528,47.2225]}]}