{"lat":47,"lon":-110.75,"programs":["sota"],"count":9,"references":[{"code":"W7M/NF-004","program":"sota","name":"Barker Mountain","coordinates":[-110.6724,47.0893]},{"code":"W7M/NF-013","program":"sota","name":"Mixes Baldy","coordinates":[-110.6105,47.0855]},{"code":"W7M/NF-015","program":"sota","name":"Butcherknife Mountain","coordinates":[-110.5652,47.0183]},{"code":"W7M/NF-017","program":"sota","name":"Clendennin Mountain","coordinates":[-110.6119,47.098]},{"code":"W7M/NF-019","program":"sota","name":"Taylor Peak","coordinates":[-110.5197,47.0705]},{"code":"W7M/NF-021","program":"sota","name":"Peterson Mountain","coordinates":[-110.5818,47.1245]},{"code":"W7M/NF-022","program":"sota","name":"Anderson Peak","coordinates":[-110.6041,47.0658]},{"code":"W7M/NF-029","program":"sota","name":"Servoss Mountain","coordinates":[-110.7344,47.05]},{"code":"W7M/NF-072","program":"sota","name":"Limestone Butte","coordinates":[-110.6838,47.1704]}]}