{"lat":47,"lon":-114.75,"programs":["sota"],"count":9,"references":[{"code":"W7M/LM-085","program":"sota","name":"7300","coordinates":[-114.5315,47.2402]},{"code":"W7M/LO-021","program":"sota","name":"Stark Mountain","coordinates":[-114.5721,47.0887]},{"code":"W7M/LO-113","program":"sota","name":"5700","coordinates":[-114.5582,47.035]},{"code":"W7M/LO-131","program":"sota","name":"Miller Mountain","coordinates":[-114.7071,47.0832]},{"code":"W7M/LO-134","program":"sota","name":"5329","coordinates":[-114.6412,47.0363]},{"code":"W7M/LO-137","program":"sota","name":"5208","coordinates":[-114.675,47.0784]},{"code":"W7M/LO-139","program":"sota","name":"Martel Mountain","coordinates":[-114.6893,47.0291]},{"code":"W7M/LO-168","program":"sota","name":"Graham Mountain","coordinates":[-114.7264,47.0643]},{"code":"W7M/LO-171","program":"sota","name":"Round Mountain","coordinates":[-114.7145,47.0519]}]}