{"lat":47,"lon":9.25,"programs":["gma","pota","sota","wwbota"],"count":61,"references":[{"code":"HB/SG-011","program":"gma","name":"Schnüerligrat","coordinates":[9.27779961,47.00279999]},{"code":"HB/SG-013","program":"gma","name":"Hochfinsler","coordinates":[9.29969978,47.03329849]},{"code":"HB/SG-014","program":"gma","name":"Gamsberg","coordinates":[9.37390041,47.13529968]},{"code":"HB/SG-015","program":"gma","name":"Guli","coordinates":[9.29469967,47.01309967]},{"code":"HB/SG-016","program":"gma","name":"Alvier","coordinates":[9.41469955,47.10969925]},{"code":"HB/SG-017","program":"gma","name":"Churfirsten/Hinterrugg","coordinates":[9.30500031,47.15359879]},{"code":"HB/SG-018","program":"gma","name":"Brisi","coordinates":[9.27719975,47.15330124]},{"code":"HB/SG-019","program":"gma","name":"Sichelchamm","coordinates":[9.362,47.1337]},{"code":"HB/SG-020","program":"gma","name":"Frümsel","coordinates":[9.26580048,47.15250015]},{"code":"HB/SG-021","program":"gma","name":"Chrummenstein","coordinates":[9.4055,47.1158]},{"code":"HB/SG-025","program":"gma","name":"Höchst","coordinates":[9.34860039,47.14419937]},{"code":"HB/SG-030","program":"gma","name":"Gonzen","coordinates":[9.43389988,47.06750107]},{"code":"HB/SG-048","program":"gma","name":"Tschuggen","coordinates":[9.4236002,47.0760994]},{"code":"HB/SG-049","program":"gma","name":"Selun","coordinates":[9.25559998,47.15280151]},{"code":"HB/SG-050","program":"gma","name":"Fulfirst","coordinates":[9.39640045,47.12969971]},{"code":"HB/SG-051","program":"gma","name":"Gauschla","coordinates":[9.42249966,47.10139847]},{"code":"HB/SG-052","program":"gma","name":"Zuestoll","coordinates":[9.28559971,47.15420151]},{"code":"HB/SG-053","program":"gma","name":"Schibenstoll","coordinates":[9.29559994,47.15439987]},{"code":"HB/SG-055","program":"gma","name":"Schofwisspitz","coordinates":[9.2962,47.2255]},{"code":"HB/SG-056","program":"gma","name":"Gemeinenwis","coordinates":[9.25889969,47.21559906]},{"code":"HB/SG-057","program":"gma","name":"Stein","coordinates":[9.33580017,47.21559906]},{"code":"HB9/SG-1001","program":"gma","name":"Sichelchamm","coordinates":[9.36250019,47.13359833]},{"code":"HB9/SG-1002","program":"gma","name":"Chrummenstein","coordinates":[9.40579987,47.11579895]},{"code":"HB9/SG-1004","program":"gma","name":"Neuenalpspitz","coordinates":[9.25220013,47.20750046]},{"code":"HB9/SG-1005","program":"gma","name":"Schwendigrat","coordinates":[9.27060032,47.20220184]},{"code":"HB9/SG-1009","program":"gma","name":"Schafwis","coordinates":[9.29609966,47.2256012]},{"code":"HB9/SG-1020","program":"gma","name":"Margelchopf","coordinates":[9.39939976,47.14609909]},{"code":"HB9/SG-1022","program":"gma","name":"Mittelberg","coordinates":[9.28310013,47.20669937]},{"code":"HB9/SG-1024","program":"gma","name":"Lütispitz","coordinates":[9.28320026,47.22290039]},{"code":"LI-0001","program":"pota","name":"Aeulehaeg Nature Reserve","coordinates":[9.4781,47.0618]},{"code":"LI-0014","program":"pota","name":"Unterau Forest Reserve","coordinates":[9.4882,47.1862]},{"code":"CH-0177","program":"pota","name":"Säntisgebiet (Teilraum 4) Natural Monument","coordinates":[9.28883,47.2125]},{"code":"CH-0178","program":"pota","name":"Speer – Churfirsten – Alvier (Teilraum 1) Natural Monument","coordinates":[9.37965,47.1565]},{"code":"CH-0181","program":"pota","name":"Melser Hinterberg – Flumser Kleinberg Natural Monument","coordinates":[9.39176,47.0651]},{"code":"HB/AI-001","program":"sota","name":"Säntis","coordinates":[9.3432,47.2494]},{"code":"HB/AI-002","program":"sota","name":"Altmann","coordinates":[9.3715,47.2395]},{"code":"HB/SG-011","program":"sota","name":"Schnüerligrat","coordinates":[9.2777,47.0025]},{"code":"HB/SG-013","program":"sota","name":"Hochfinsler","coordinates":[9.2998,47.0333]},{"code":"HB/SG-014","program":"sota","name":"Gamsberg","coordinates":[9.3739,47.1352]},{"code":"HB/SG-015","program":"sota","name":"Guli","coordinates":[9.2949,47.0128]},{"code":"HB/SG-016","program":"sota","name":"Alvier","coordinates":[9.4148,47.1098]},{"code":"HB/SG-017","program":"sota","name":"Hinderrugg","coordinates":[9.3052,47.1537]},{"code":"HB/SG-018","program":"sota","name":"Brisi","coordinates":[9.2772,47.1531]},{"code":"HB/SG-019","program":"sota","name":"Sichelchamm","coordinates":[9.3621,47.1337]},{"code":"HB/SG-020","program":"sota","name":"Frümsel","coordinates":[9.2659,47.1523]},{"code":"HB/SG-021","program":"sota","name":"Chrummenstein","coordinates":[9.4055,47.1158]},{"code":"HB/SG-025","program":"sota","name":"Höchst","coordinates":[9.3486,47.1441]},{"code":"HB/SG-030","program":"sota","name":"Gonzen","coordinates":[9.4339,47.0675]},{"code":"HB/SG-048","program":"sota","name":"Tschugga","coordinates":[9.4193,47.0757]},{"code":"HB/SG-049","program":"sota","name":"Selun","coordinates":[9.2555,47.1526]},{"code":"HB/SG-050","program":"sota","name":"Gross Fulfirst","coordinates":[9.3965,47.1298]},{"code":"HB/SG-051","program":"sota","name":"Gauschla","coordinates":[9.4227,47.1013]},{"code":"HB/SG-052","program":"sota","name":"Zuestoll","coordinates":[9.2855,47.1541]},{"code":"HB/SG-053","program":"sota","name":"Schibenstoll","coordinates":[9.2955,47.1544]},{"code":"HB/SG-055","program":"sota","name":"Schofwisspitz","coordinates":[9.2962,47.2255]},{"code":"HB/SG-056","program":"sota","name":"Gmeinenwis","coordinates":[9.2589,47.2157]},{"code":"HB/SG-057","program":"sota","name":"Stei","coordinates":[9.3362,47.2155]},{"code":"B/HB-0016","program":"wwbota","name":"Festung Magletsch","coordinates":[9.48454,47.10389]},{"code":"B/HB-0017","program":"wwbota","name":"Artilleriewerk Tschingel","coordinates":[9.489197,47.041433]},{"code":"B/HB-0020","program":"wwbota","name":"Festung Passati","coordinates":[9.4275,47.05611]},{"code":"B/HB-0021","program":"wwbota","name":"Festung Castels","coordinates":[9.40649,47.05188]}]}