{"lat":47,"lon":28.5,"programs":["pota"],"count":10,"references":[{"code":"MD-0020","program":"pota","name":"Pădurea Durlești State Forest","coordinates":[28.7415,47.0329]},{"code":"MD-0095","program":"pota","name":"Parcul din Cojusna Park","coordinates":[28.665,47.0933]},{"code":"MD-0125","program":"pota","name":"Plaja Ghidighici Scenic Site","coordinates":[28.7184,47.0844]},{"code":"MD-0240","program":"pota","name":"Zona umedă Ghidighici-Strășeni (Wetland) Scenic Site","coordinates":[28.669,47.1276]},{"code":"MD-0081","program":"pota","name":"Parcul Mihai Eminescu Park","coordinates":[28.615,47.1463]},{"code":"MD-0082","program":"pota","name":"Parcul Ștefan cel Mare Park","coordinates":[28.6135,47.1494]},{"code":"MD-0146","program":"pota","name":"Rezervația silvică Condrița Forest Reserve","coordinates":[28.6071,47.0241]},{"code":"MD-0169","program":"pota","name":"Rezervația silvică Roșcani Forest Reserve","coordinates":[28.674,47.1787]},{"code":"MD-0186","program":"pota","name":"Sector-etalon de padure (Standard forest sector) Forest Reserve","coordinates":[28.6134,47.0412]},{"code":"MD-0201","program":"pota","name":"Rezervația peisagistică Căpriana-Scoreni Landscape Reserve","coordinates":[28.536,47.0852]}]}