{"lat":47,"lon":6.25,"programs":["gma","pota","sota"],"count":29,"references":[{"code":"FA/JU-030","program":"gma","name":"Point de vue du Moine","coordinates":[6.268907,47.029882]},{"code":"FA/JU-031","program":"gma","name":"La Roche Haute-Pierre","coordinates":[6.280035,47.049686]},{"code":"FR-5642","program":"pota","name":"LE SEUT ET LES VARDES Biological Reserve","coordinates":[6.31437,47.0144]},{"code":"FR-5775","program":"pota","name":"Corniches Calcaires Du Departement Du Doubs Biological Reserve","coordinates":[6.44301,47.1532]},{"code":"FR-5776","program":"pota","name":"Cluse de Joux et anticlinal du Larmont Conservation Area","coordinates":[6.45,47.155]},{"code":"FR-5869","program":"pota","name":"LE CRET MONNIOT Biological Reserve","coordinates":[6.39592,47.0315]},{"code":"FR-5870","program":"pota","name":"TOURBIERE DES BIOULES Biological Reserve","coordinates":[6.38575,47.0427]},{"code":"FR-5871","program":"pota","name":"LA GOUILLE ET LE GRAND MARAIS Biological Reserve","coordinates":[6.39697,47.0562]},{"code":"FR-5872","program":"pota","name":"LA PETITE ET LA GRANDE SEIGNE, LES GRANDES PLANCHES ET LA SEIGNE JUAN Biological Reserve","coordinates":[6.42673,47.0804]},{"code":"FR-5873","program":"pota","name":"ETANG ET MARAIS DU BARCHET Biological Reserve","coordinates":[6.41951,47.0985]},{"code":"FR-5874","program":"pota","name":"Mine de lignites a Flangebouche Conservation Area","coordinates":[6.421,47.0985]},{"code":"FR-5916","program":"pota","name":"MARAIS SOUS LA ROCHOTTE ET PRE REGRENEDEY Biological Reserve","coordinates":[6.48624,47.2296]},{"code":"FR-5917","program":"pota","name":"LES MARAIS DE DOMPREL Biological Reserve","coordinates":[6.48832,47.202]},{"code":"FR-5918","program":"pota","name":"VALLEE DE L'AUDEUX DE LA SOURCE A LA GRACE-DIEU Biological Reserve","coordinates":[6.40227,47.2314]},{"code":"FR-5919","program":"pota","name":"MARAIS DE BREUILLEZ Biological Reserve","coordinates":[6.38316,47.2271]},{"code":"FR-5920","program":"pota","name":"PRES DE LA MÉCHANTE FEMME Biological Reserve","coordinates":[6.37431,47.21]},{"code":"FR-5921","program":"pota","name":"GROTTE DESCHAMPS Biological Reserve","coordinates":[6.3107,47.229]},{"code":"FR-5922","program":"pota","name":"MARAIS DE BOIS-SAINT-PIERRE Biological Reserve","coordinates":[6.366,47.1678]},{"code":"FR-5923","program":"pota","name":"MARAIS DE L'EPINE Biological Reserve","coordinates":[6.28176,47.1562]},{"code":"FR-5925","program":"pota","name":"SOUS LA MEULE Biological Reserve","coordinates":[6.48571,47.1608]},{"code":"FR-6710","program":"pota","name":"PRE HUMIDE DE LA LECHERE Biological Reserve","coordinates":[6.28646,47.0574]},{"code":"FR-6711","program":"pota","name":"PELOUSES, FRICHES ET ROCHERS A MOUTHIER-HAUTE-PIERRE Biological Reserve","coordinates":[6.27581,47.0489]},{"code":"FR-6712","program":"pota","name":"Chevauchement de Mouthier-Hautepierre Conservation Area","coordinates":[6.276,47.05]},{"code":"FR-6713","program":"pota","name":"ROCHERS DU CAPUCIN Biological Reserve","coordinates":[6.25753,47.0299]},{"code":"FR-6714","program":"pota","name":"SOURCE DE LA LOUE ET GORGES DE NOUAILLES Biological Reserve","coordinates":[6.29007,47.0221]},{"code":"FR-6715","program":"pota","name":"Gorges quaternaires dans les calcaires kimmeridgiens de Nouailles Conservation Area","coordinates":[6.3,47.023]},{"code":"FR-6493","program":"pota","name":"Conglomerats oligocenes a Montbéliard Biological Reserve","coordinates":[6.44301,47.1532]},{"code":"F/JU-028","program":"sota","name":"Crêt Monniot","coordinates":[6.4139,47.0367]},{"code":"F/JU-044","program":"sota","name":"La Grange Gourmand","coordinates":[6.3761,47.0917]}]}