{"lat":47,"lon":5,"programs":["pota"],"count":18,"references":[{"code":"FR-3741","program":"pota","name":"Foret de Cîteaux et environs 2 Natura 2000","coordinates":[5.05001,47.0667]},{"code":"FR-3965","program":"pota","name":"Foret de Cîteaux et environs Natura 2000","coordinates":[5.05,47.0667]},{"code":"FR-13505","program":"pota","name":"PETIT ET GRAND ETANG DE SATENAY Biological Reserve","coordinates":[5.023,47.221]},{"code":"FR-13506","program":"pota","name":"GRAVIERES DE ROUVRES-EN-PLAINE ET MARLIENS Biological Reserve","coordinates":[5.161,47.237]},{"code":"FR-13507","program":"pota","name":"RIVIERE DE L'OUCHEROTTE Biological Reserve","coordinates":[5.156,47.191]},{"code":"FR-13508","program":"pota","name":"RIVIERE LA VOUGE Biological Reserve","coordinates":[5.161,47.181]},{"code":"FR-13509","program":"pota","name":"BASSINS D'ECHIGEY Biological Reserve","coordinates":[5.188,47.177]},{"code":"FR-13510","program":"pota","name":"ETANGS DU MILIEU ET DE BRETIGNY A SAINT-BERNARD ET VILLEBICHOT Biological Reserve","coordinates":[5.042,47.152]},{"code":"FR-13512","program":"pota","name":"BOIS DES GRANDES ET PETITES PLAINES DE SAINT-NICOLAS-LES-CITEAUX Biological Reserve","coordinates":[5.081,47.117]},{"code":"FR-13513","program":"pota","name":"ETANGS MILLOT ET DE SAULE Biological Reserve","coordinates":[5.129,47.117]},{"code":"FR-13514","program":"pota","name":"RESEAU D'ETANGS FORESTIERS DU MASSIF DE CITEAUX Biological Reserve","coordinates":[5.164,47.117]},{"code":"FR-13515","program":"pota","name":"HAUTE-FORET DE CITEAUX Biological Reserve","coordinates":[5.054,47.078]},{"code":"FR-13523","program":"pota","name":"PRAIRIES DE CHAMBLANC Biological Reserve","coordinates":[5.123,47.021]},{"code":"FR-13524","program":"pota","name":"MEANDRES DE LA SAONE A GLANON ET CHATELET Biological Reserve","coordinates":[5.13,47.052]},{"code":"FR-13525","program":"pota","name":"PRAIRIES ET ILE DU VAL DE SAONE A PAGNY Biological Reserve","coordinates":[5.185,47.079]},{"code":"FR-13553","program":"pota","name":"Montagne cote d'orienne Natura 2000","coordinates":[5.056,47.087]},{"code":"FR-13555","program":"pota","name":"Citeaux Biological Reserve","coordinates":[5.069,47.072]},{"code":"FR-13556","program":"pota","name":"Foret de Citeaux et environs Biological Reserve","coordinates":[5.068,47.099]}]}