{"lat":47,"lon":14.5,"programs":["gma","pota","sota"],"count":16,"references":[{"code":"OE/ST-027","program":"gma","name":"Zirbitzkogel","coordinates":[14.56719971,47.06330109]},{"code":"OE/ST-462","program":"gma","name":"Reiflingberg","coordinates":[14.6567,47.1211]},{"code":"OE/ST-476","program":"gma","name":"Falkenberg","coordinates":[14.6024,47.2027]},{"code":"OE0/ST-1010","program":"gma","name":"Fuchskogel","coordinates":[14.57970047,47.04560089]},{"code":"OE0/ST-1015","program":"gma","name":"Wenzelalpe","coordinates":[14.54059982,47.11029816]},{"code":"OE0/ST-1051","program":"gma","name":"Schafkogel","coordinates":[14.5138998,47.15919876]},{"code":"OE0/ST-1053","program":"gma","name":"Brandriegel","coordinates":[14.59500027,47.11059952]},{"code":"OE0/ST-1079","program":"gma","name":"Schlanderkogel","coordinates":[14.66670036,47.01810074]},{"code":"OE0/ST-1137","program":"gma","name":"Scharfes Eck","coordinates":[14.55972195,47.07166672]},{"code":"OE0/ST-1173","program":"gma","name":"Falkenberg","coordinates":[14.60825,47.20102]},{"code":"OE0/ST-1209","program":"gma","name":"Liechtensteinberg","coordinates":[14.6796999,47.1631012]},{"code":"AT-0109","program":"pota","name":"Hörfeld National Reserve","coordinates":[14.5128,47.0142]},{"code":"AT-0080","program":"pota","name":"Zirbitzkogel Nature Reserve","coordinates":[14.5701,47.0628]},{"code":"OE/ST-027","program":"sota","name":"Zirbitzkogel","coordinates":[14.5672,47.0633]},{"code":"OE/ST-462","program":"sota","name":"Reiflingberg","coordinates":[14.6567,47.1211]},{"code":"OE/ST-476","program":"sota","name":"Falkenberg","coordinates":[14.6024,47.2027]}]}