{"lat":47.25,"lon":7.5,"programs":["gma","pota","sota"],"count":23,"references":[{"code":"HB9/BL-1001","program":"gma","name":"Geitenberg","coordinates":[7.66359997,47.37580109]},{"code":"HB9/BL-1007","program":"gma","name":"Helfenberg","coordinates":[7.73780012,47.35720062]},{"code":"HB9/SO-1005","program":"gma","name":"Hornegg","coordinates":[7.55280018,47.2983017]},{"code":"HB9/SO-1006","program":"gma","name":"Hirnichopf","coordinates":[7.61310005,47.36809921]},{"code":"XHB/BL-017","program":"gma","name":"Brand","coordinates":[7.63780022,47.40499878]},{"code":"CH-0097","program":"pota","name":"Belchen-Passwang-Gebiet Natural Monument","coordinates":[7.68263,47.3682]},{"code":"CH-0108","program":"pota","name":"Gempenplateau Natural Monument","coordinates":[7.66739,47.4597]},{"code":"CH-0079","program":"pota","name":"Erlimoos Nature Reserve","coordinates":[7.66193,47.2517]},{"code":"CH-0014","program":"pota","name":"Thal Nature Park","coordinates":[7.68725,47.31]},{"code":"CH-0059","program":"pota","name":"Ravellenflue und Chluser Roggen Natural Monument","coordinates":[7.71071,47.2935]},{"code":"CH-0095","program":"pota","name":"Weissenstein Natural Monument","coordinates":[7.51063,47.2526]},{"code":"HB/BL-001","program":"sota","name":"Hinderi Egg","coordinates":[7.7108,47.3726]},{"code":"HB/SO-003","program":"sota","name":"Röti","coordinates":[7.5281,47.2579]},{"code":"HB/SO-005","program":"sota","name":"Chambenflüe","coordinates":[7.574,47.2742]},{"code":"HB/SO-006","program":"sota","name":"Hällchöpfli","coordinates":[7.6488,47.2821]},{"code":"HB/SO-008","program":"sota","name":"Vogelberg","coordinates":[7.6826,47.3684]},{"code":"HB/SO-009","program":"sota","name":"Hohe Winde","coordinates":[7.5796,47.3421]},{"code":"HB/SO-010","program":"sota","name":"Beretenchopf","coordinates":[7.7465,47.3428]},{"code":"HB/SO-012","program":"sota","name":"Roggenflue","coordinates":[7.7243,47.3062]},{"code":"HB/SO-015","program":"sota","name":"Schartenflue","coordinates":[7.6475,47.4775]},{"code":"HB/SO-021","program":"sota","name":"Homberg","coordinates":[7.6283,47.413]},{"code":"HB/SO-023","program":"sota","name":"Punkt 1239 bei Zentner","coordinates":[7.5736,47.3214]},{"code":"HB/SO-024","program":"sota","name":"Punkt 1074 bei Rotmatt","coordinates":[7.5521,47.3453]}]}