{"lat":47.25,"lon":0.25,"programs":["pota"],"count":9,"references":[{"code":"FR-2721","program":"pota","name":"LA LOIRE DE CANDES SAINT MARTIN FR2400548 Natura 2000","coordinates":[0.48028,47.3461]},{"code":"FR-4340","program":"pota","name":"Basses vallees de la Vienne et de l'Indre Natura 2000","coordinates":[0.28333,47.25]},{"code":"FR-14703","program":"pota","name":"Prairie alluviale inondable de Pont-de-Ruan Biological Reserve","coordinates":[0.272,47.263]},{"code":"FR-14730","program":"pota","name":"Les Caves Meclines Biological Reserve","coordinates":[0.484,47.258]},{"code":"FR-14731","program":"pota","name":"Prairies humides du Moulin de Perre Biological Reserve","coordinates":[0.479,47.255]},{"code":"FR-14733","program":"pota","name":"Pres bas de Marnay Biological Reserve","coordinates":[0.391,47.287]},{"code":"FR-14734","program":"pota","name":"Prairie des Champeaux Biological Reserve","coordinates":[0.371,47.273]},{"code":"FR-14735","program":"pota","name":"FORETS DE RAVIN DE TURPENAY Biological Reserve","coordinates":[0.354,47.258]},{"code":"FR-14737","program":"pota","name":"COTEAU BOISE DU PARC D'USSE Biological Reserve","coordinates":[0.298,47.25]}]}