{"lat":47.25,"lon":0.5,"programs":["pota"],"count":8,"references":[{"code":"FR-4341","program":"pota","name":"Vallee de la Loire d'Indre-et-Loire Natura 2000","coordinates":[0.55,47.3667]},{"code":"FR-14696","program":"pota","name":"Grande ile du Lac de la Bergeonnerie Biological Reserve","coordinates":[0.689,47.367]},{"code":"FR-14700","program":"pota","name":"Mares des Giraudieres Biological Reserve","coordinates":[0.724,47.314]},{"code":"FR-14701","program":"pota","name":"PELOUSES DE GLATINET Biological Reserve","coordinates":[0.653,47.302]},{"code":"FR-14702","program":"pota","name":"PELOUSE DU BOIS DE LA BRUERE Biological Reserve","coordinates":[0.606,47.294]},{"code":"FR-14748","program":"pota","name":"Parc de la Gloriette Recreation Park","coordinates":[0.674,47.366]},{"code":"FR-14749","program":"pota","name":"Parc du Lac des Bretonnieres Recreation Park","coordinates":[0.641,47.352]},{"code":"FR-14750","program":"pota","name":"Parc de la Rabiere Recreation Park","coordinates":[0.669,47.348]}]}