{"lat":47.25,"lon":-65.5,"programs":["pota"],"count":6,"references":[{"code":"CA-4433","program":"pota","name":"Lord and Foy Brook Protected Area","coordinates":[-65.3566,47.4833]},{"code":"CA-4470","program":"pota","name":"North Branch Burnt Church River Protected Area","coordinates":[-65.33,47.296]},{"code":"CA-4484","program":"pota","name":"Pisiguit Brook Protected Area","coordinates":[-65.33,47.38]},{"code":"CA-4525","program":"pota","name":"Tabusintac River Protected Area","coordinates":[-65.378,47.368]},{"code":"CA-6518","program":"pota","name":"New Brunswick #8 Wildlife Management Area","coordinates":[-65.3573,47.413]},{"code":"CA-6544","program":"pota","name":"New Brunswick #5 Wildlife Management Area","coordinates":[-65.3193,47.4735]}]}