{"lat":47.25,"lon":-88,"programs":["pota","sota"],"count":7,"references":[{"code":"US-3311","program":"pota","name":"Fort Wilkins State Historical Park","coordinates":[-87.8697,47.4672]},{"code":"US-6809","program":"pota","name":"Copper Harbor State Harbor","coordinates":[-87.9044,47.4722]},{"code":"W8M/UP-034","program":"sota","name":"Mount Houghton","coordinates":[-87.9414,47.4071]},{"code":"W8M/UP-044","program":"sota","name":"Rocky Ridge","coordinates":[-87.9695,47.4524]},{"code":"W8M/UP-045","program":"sota","name":"Brockway Mountain","coordinates":[-87.9685,47.4643]},{"code":"W8M/UP-048","program":"sota","name":"East Bluff","coordinates":[-87.7938,47.446]},{"code":"W8M/UP-055","program":"sota","name":"1190","coordinates":[-87.8935,47.3993]}]}