{"lat":47.25,"lon":25,"programs":["pota","sota"],"count":10,"references":[{"code":"RO-0198","program":"pota","name":"Pasul Tihuța National Landscape","coordinates":[25.023,47.2627]},{"code":"RO-0642","program":"pota","name":"Pasul Grădinița - Piatra Fântânele National Recreation Trail","coordinates":[25.0699,47.3431]},{"code":"RO-0643","program":"pota","name":"Pepiniera Silhoasa Natural Area","coordinates":[25.0088,47.3451]},{"code":"RO-1106","program":"pota","name":"Munţii Suhard Area of Outstanding Natural Beauty","coordinates":[25.1708,47.4713]},{"code":"RO-0313","program":"pota","name":"Tinovul Mare National Park","coordinates":[25.1222,47.2968]},{"code":"RO-0640","program":"pota","name":"Poiana Negrii Recreation Site","coordinates":[25.1921,47.3041]},{"code":"RO-0641","program":"pota","name":"Dealul Tătaru Recreation Site","coordinates":[25.0898,47.34]},{"code":"YO/EC-077","program":"sota","name":"Fărăoane","coordinates":[25.2242,47.4458]},{"code":"YO/EC-187","program":"sota","name":"Perșa","coordinates":[25.0333,47.4308]},{"code":"YO/EC-254","program":"sota","name":"Măgura Coșnei","coordinates":[25.1742,47.4092]}]}