{"lat":47.25,"lon":-112,"programs":["sota"],"count":14,"references":[{"code":"W7M/NF-062","program":"sota","name":"Mount Cecelia","coordinates":[-111.8442,47.2566]},{"code":"W7M/NF-074","program":"sota","name":"Telegraph Mountain","coordinates":[-111.903,47.2641]},{"code":"W7M/NF-082","program":"sota","name":"Skull Butte","coordinates":[-111.8628,47.2894]},{"code":"W7M/NF-102","program":"sota","name":"Sullivan Benchmark","coordinates":[-111.9599,47.3072]},{"code":"W7M/NF-105","program":"sota","name":"5210","coordinates":[-111.9937,47.2571]},{"code":"W7M/NF-107","program":"sota","name":"Lionhead Butte","coordinates":[-111.9812,47.3324]},{"code":"W7M/NF-108","program":"sota","name":"Birdtail Butte","coordinates":[-111.9577,47.3418]},{"code":"W7M/NF-109","program":"sota","name":"Haystack Butte","coordinates":[-111.9253,47.3366]},{"code":"W7M/NF-111","program":"sota","name":"Fishback Butte","coordinates":[-111.9061,47.33]},{"code":"W7M/NF-114","program":"sota","name":"Square Butte","coordinates":[-111.7514,47.4397]},{"code":"W7M/NF-119","program":"sota","name":"Crown Butte","coordinates":[-111.9282,47.4359]},{"code":"W7M/NF-120","program":"sota","name":"Rocky Butte","coordinates":[-111.9948,47.367]},{"code":"W7M/NF-122","program":"sota","name":"Shaw Butte","coordinates":[-111.8388,47.459]},{"code":"W7M/NF-123","program":"sota","name":"Cascade Butte","coordinates":[-111.7547,47.3088]}]}