{"lat":47.25,"lon":10.75,"programs":["gma","sota"],"count":85,"references":[{"code":"DA/AM-094","program":"gma","name":"Rauheck","coordinates":[10.98279953,47.49530029]},{"code":"DA/AM-095","program":"gma","name":"Rauhenstein","coordinates":[10.98750019,47.49810028]},{"code":"DA/AM-110","program":"gma","name":"Schelleck","coordinates":[10.91940022,47.49530029]},{"code":"DA/AM-121","program":"gma","name":"Sunkenberg","coordinates":[10.93640041,47.49969864]},{"code":"DA/WS-001","program":"gma","name":"Zugspitzeck","coordinates":[10.97140026,47.41690063]},{"code":"DA/WS-002","program":"gma","name":"Wetterspitzen","coordinates":[10.97000027,47.40029907]},{"code":"DA/WS-003","program":"gma","name":"Wetterwandeck","coordinates":[10.97719955,47.39810181]},{"code":"DA/WS-005","program":"gma","name":"Grosse Riffelwandspitze","coordinates":[10.99190044,47.42779922]},{"code":"DA/WS-006","program":"gma","name":"Kleine Riffelwandspitze","coordinates":[10.99639988,47.42890167]},{"code":"DA/WS-035","program":"gma","name":"Hohe Riffel","coordinates":[10.9982996,47.43470001]},{"code":"DA/WS-052","program":"gma","name":"Mittlere Plattspitze","coordinates":[10.98999977,47.39609909]},{"code":"DA/WS-055","program":"gma","name":"Noerdliche Wetterspitzen","coordinates":[10.97029972,47.40359879]},{"code":"DA/WS-056","program":"gma","name":"Oestliche Plattspitze","coordinates":[10.9939003,47.39749908]},{"code":"DA/WS-058","program":"gma","name":"Oestliche Wetterspitzen","coordinates":[10.97669983,47.39780045]},{"code":"DA/WS-059","program":"gma","name":"Westliche Plattspitze","coordinates":[10.98810005,47.39580154]},{"code":"DA/WS-073","program":"gma","name":"Zirmerskopf","coordinates":[10.97859955,47.47190094]},{"code":"DA/WS-080","program":"gma","name":"Schneefernerkopf","coordinates":[10.97000027,47.40940094]},{"code":"OE/TI-126","program":"gma","name":"Hochplattig","coordinates":[10.98830032,47.35309982]},{"code":"OE/TI-243","program":"gma","name":"Wannig","coordinates":[10.86219978,47.3368988]},{"code":"OE/TI-252","program":"gma","name":"Loreakopf","coordinates":[10.77140045,47.35419846]},{"code":"OE/TI-279","program":"gma","name":"Sonnenspitze","coordinates":[10.92169952,47.36830139]},{"code":"OE/TI-315","program":"gma","name":"Daniel","coordinates":[10.88029957,47.43249893]},{"code":"OE/TI-351","program":"gma","name":"Alpleskopf","coordinates":[10.77330017,47.31669998]},{"code":"OE/TI-357","program":"gma","name":"Hochschrutte","coordinates":[10.84189987,47.44499969]},{"code":"OE/TI-369","program":"gma","name":"Bleispitze","coordinates":[10.81830025,47.39830017]},{"code":"OE/TI-383","program":"gma","name":"Wankspitze","coordinates":[10.93889999,47.33779907]},{"code":"OE/TI-387","program":"gma","name":"Kohlbergspitze","coordinates":[10.79969978,47.43780136]},{"code":"OE/TI-429","program":"gma","name":"Simmering","coordinates":[10.86670017,47.27809906]},{"code":"OE/TI-513","program":"gma","name":"Tauern","coordinates":[10.76220036,47.46780014]},{"code":"OE/TI-564","program":"gma","name":"Grünberg","coordinates":[10.91469955,47.28170013]},{"code":"OE/TI-584","program":"gma","name":"Schneefernerkopf","coordinates":[10.97000027,47.40940094]},{"code":"OE/TI-618","program":"gma","name":"Vorderer Tajakopf","coordinates":[10.94810009,47.36500168]},{"code":"OE/TI-623","program":"gma","name":"Gartner Wand","coordinates":[10.82079983,47.38470078]},{"code":"OE/TI-655","program":"gma","name":"Alpkopf","coordinates":[10.76500034,47.41529846]},{"code":"OE/TI-681","program":"gma","name":"Östliche Griesspitzen","coordinates":[10.9547,47.3522]},{"code":"OE/TI-933","program":"gma","name":"Grünstein","coordinates":[10.9208,47.3492]},{"code":"OE/TI-973","program":"gma","name":"Rauchberg","coordinates":[10.7592,47.3042]},{"code":"OE/TI-990","program":"gma","name":"Aserlespitze","coordinates":[10.7567,47.34]},{"code":"OE0/TI-1070","program":"gma","name":"Handschuhspitze","coordinates":[10.88249969,47.34030151]},{"code":"OE0/TI-1102","program":"gma","name":"Pitzenegg","coordinates":[10.82359982,47.44309998]},{"code":"OE0/TI-1144","program":"gma","name":"Gacher Blick","coordinates":[10.98060036,47.34189987]},{"code":"OE0/TI-1148","program":"gma","name":"Rauher Kopf","coordinates":[10.92609978,47.37580109]},{"code":"OE0/TI-1149","program":"gma","name":"Oberer Geierkopf","coordinates":[10.85420036,47.3266983]},{"code":"OE0/TI-1155","program":"gma","name":"Jöchle","coordinates":[10.9282999,47.32329941]},{"code":"OE0/TI-1163","program":"gma","name":"Mühlwaldköpfl (Gartigköpfl)","coordinates":[10.79669952,47.40579987]},{"code":"OE0/TI-1164","program":"gma","name":"Gampenköpfle","coordinates":[10.88939953,47.33190155]},{"code":"OE0/TI-1165","program":"gma","name":"Schachtkopf","coordinates":[10.89939976,47.36330032]},{"code":"OE0/TI-1440","program":"gma","name":"Wamperter Schrofen","coordinates":[10.9144001,47.35440063]},{"code":"OE0/TI-1444","program":"gma","name":"Breitenkopf","coordinates":[10.98719978,47.36169815]},{"code":"OE0/TI-1458","program":"gma","name":"Roter Stein","coordinates":[10.7730999,47.38219833]},{"code":"OE0/TI-1471","program":"gma","name":"Vorderer Drachenkopf","coordinates":[10.92640018,47.35779953]},{"code":"OE0/TI-1475","program":"gma","name":"Sinnesjoch","coordinates":[10.77560043,47.30279922]},{"code":"OE0/TI-1490","program":"gma","name":"Höllkopf","coordinates":[10.91810036,47.34189987]},{"code":"OE0/TI-1524","program":"gma","name":"Schelleleskopf","coordinates":[10.79220009,47.4844017]},{"code":"OE0/TI-1527","program":"gma","name":"Schönjöchl","coordinates":[10.85919952,47.49530029]},{"code":"OE0/TI-1543","program":"gma","name":"Plattspitzen","coordinates":[10.98779964,47.39580154]},{"code":"OE0/TI-1581","program":"gma","name":"Spieß","coordinates":[10.81830025,47.45970154]},{"code":"DL/AM-048","program":"sota","name":"Schellkopf","coordinates":[10.88765,47.49725]},{"code":"DL/AM-134","program":"sota","name":"Ofenberg","coordinates":[10.95773,47.48508]},{"code":"DL/WS-001","program":"sota","name":"Zugspitze","coordinates":[10.98635,47.42119]},{"code":"DL/WS-006","program":"sota","name":"Plattspitzen","coordinates":[10.992646,47.396454]},{"code":"OE/TI-126","program":"sota","name":"Hochplattig","coordinates":[10.9883,47.3531]},{"code":"OE/TI-243","program":"sota","name":"Wannig","coordinates":[10.8622,47.3369]},{"code":"OE/TI-252","program":"sota","name":"Loreakopf","coordinates":[10.7714,47.3542]},{"code":"OE/TI-279","program":"sota","name":"Sonnenspitze","coordinates":[10.9217,47.3683]},{"code":"OE/TI-315","program":"sota","name":"Daniel","coordinates":[10.8803,47.4325]},{"code":"OE/TI-351","program":"sota","name":"Alpleskopf","coordinates":[10.7733,47.3167]},{"code":"OE/TI-357","program":"sota","name":"Hochschrutte","coordinates":[10.8419,47.445]},{"code":"OE/TI-369","program":"sota","name":"Bleispitze","coordinates":[10.8183,47.3983]},{"code":"OE/TI-383","program":"sota","name":"Wankspitze","coordinates":[10.9389,47.3378]},{"code":"OE/TI-387","program":"sota","name":"Kohlbergspitze","coordinates":[10.7997,47.4378]},{"code":"OE/TI-429","program":"sota","name":"Simmering","coordinates":[10.8667,47.2781]},{"code":"OE/TI-513","program":"sota","name":"Tauern","coordinates":[10.7622,47.4678]},{"code":"OE/TI-564","program":"sota","name":"Grünberg","coordinates":[10.9147,47.2817]},{"code":"OE/TI-584","program":"sota","name":"Schneefernerkopf","coordinates":[10.97,47.4094]},{"code":"OE/TI-618","program":"sota","name":"Vorderer Tajakopf","coordinates":[10.9481,47.365]},{"code":"OE/TI-623","program":"sota","name":"Gartner Wand","coordinates":[10.8208,47.3847]},{"code":"OE/TI-655","program":"sota","name":"Alpkopf","coordinates":[10.765,47.4153]},{"code":"OE/TI-681","program":"sota","name":"Östliche Griesspitzen","coordinates":[10.9547,47.3522]},{"code":"OE/TI-933","program":"sota","name":"Grünstein","coordinates":[10.9208,47.3492]},{"code":"OE/TI-973","program":"sota","name":"Rauchberg","coordinates":[10.7592,47.3042]},{"code":"OE/TI-990","program":"sota","name":"Aserlespitze","coordinates":[10.7567,47.34]},{"code":"OE/TL-022","program":"sota","name":"Lichtbrenntjoch","coordinates":[10.8342,47.4617]},{"code":"OE/TL-025","program":"sota","name":"Hochjoch - Ammergauer","coordinates":[10.8058,47.485]},{"code":"OE/TL-026","program":"sota","name":"Spitziger Brand","coordinates":[10.8917,47.4617]}]}