{"lat":47.25,"lon":-2.75,"programs":["pota"],"count":12,"references":[{"code":"FR-3860","program":"pota","name":"Mor braz Natura 2000","coordinates":[-2.60556,47.3681]},{"code":"FR-3862","program":"pota","name":"Plateau du four Natura 2000","coordinates":[-2.64667,47.2764]},{"code":"FR-9615","program":"pota","name":"Ile dumet Conservation Park","coordinates":[-2.62117,47.4114]},{"code":"FR-9621","program":"pota","name":"Porh er ster Conservation Park","coordinates":[-2.51912,47.388]},{"code":"FR-9622","program":"pota","name":"Marais et coteaux de guerande Conservation Park","coordinates":[-2.50163,47.3372]},{"code":"FR-9624","program":"pota","name":"Pen avel Conservation Park","coordinates":[-2.51652,47.287]},{"code":"FR-9672","program":"pota","name":"ILE DUMET Biological Reserve","coordinates":[-2.62116,47.4116]},{"code":"FR-3623","program":"pota","name":"MOR BRAZ  FR5212013 Natura 2000","coordinates":[-2.60556,47.3681]},{"code":"FR-3624","program":"pota","name":"PLATEAU DU FOUR  FR5202010 Natura 2000","coordinates":[-2.64667,47.2764]},{"code":"FR-10319","program":"pota","name":"ZONES RESIDUELLES DE MESQUER A LA TURBALLE Biological Reserve","coordinates":[-2.51355,47.3779]},{"code":"FR-10320","program":"pota","name":"VALLON DE PORH-ER-STER Biological Reserve","coordinates":[-2.51843,47.3896]},{"code":"FR-10321","program":"pota","name":"ZONES RESIDUELLES DE MESQUER A LA TURBALLE Biological Reserve","coordinates":[-2.51355,47.3779]}]}