{"lat":47.25,"lon":-116,"programs":["sota"],"count":8,"references":[{"code":"W7I/NI-038","program":"sota","name":"Stevens Peak","coordinates":[-115.7724,47.4252]},{"code":"W7I/NI-089","program":"sota","name":"Striped Peak","coordinates":[-115.9953,47.4373]},{"code":"W7I/NI-098","program":"sota","name":"Cedar Mountain","coordinates":[-115.84,47.3493]},{"code":"W7I/NI-117","program":"sota","name":"Foolhen Mountain","coordinates":[-115.926,47.3689]},{"code":"W7I/NI-121","program":"sota","name":"Mastodon Mountain","coordinates":[-115.9685,47.3569]},{"code":"W7I/NI-146","program":"sota","name":"Flash Peak","coordinates":[-115.8785,47.3095]},{"code":"W7I/NI-151","program":"sota","name":"Bad Tom Mountain","coordinates":[-115.9425,47.4165]},{"code":"W7I/NI-294","program":"sota","name":"6443","coordinates":[-115.813,47.4304]}]}