{"lat":47.25,"lon":27.75,"programs":["gma","pota","sota","wwbota"],"count":5,"references":[{"code":"ERM/MD-003","program":"gma","name":"Magura Hill","coordinates":[27.8845,47.49022]},{"code":"RO-0891","program":"pota","name":"Cotul Bran pe Râul Prut Nature Reserve","coordinates":[27.7506,47.2516]},{"code":"ER/MD-004","program":"sota","name":"Movila Măgura","coordinates":[27.8845,47.4902]},{"code":"B/ER-0005","program":"wwbota","name":"Sfera Radar (Bunker)","coordinates":[27.97933,47.40276]},{"code":"B/ER-0006","program":"wwbota","name":"Busila German Bunker","coordinates":[27.82592,47.39695]}]}