{"lat":47.25,"lon":-66.75,"programs":["pota","sota"],"count":16,"references":[{"code":"CA-4458","program":"pota","name":"Mount Elizabeth Protected Area","coordinates":[-66.51,47.316]},{"code":"CA-4466","program":"pota","name":"Nepisiquit Protected Area","coordinates":[-66.6,47.38]},{"code":"CA-6481","program":"pota","name":"New Brunswick Highlands Ecological Area","coordinates":[-66.5247,47.3271]},{"code":"CA-6549","program":"pota","name":"New Brunswick #6 Wildlife Management Area","coordinates":[-66.7125,47.2844]},{"code":"VE9/ND-006","program":"sota","name":"DesBarres","coordinates":[-66.59111,47.32722]},{"code":"VE9/ND-007","program":"sota","name":"Steeves","coordinates":[-66.58,47.30111]},{"code":"VE9/ND-008","program":"sota","name":"Walker","coordinates":[-66.65611,47.34417]},{"code":"VE9/ND-009","program":"sota","name":"Peak 26-39","coordinates":[-66.65583,47.42972]},{"code":"VE9/ND-010","program":"sota","name":"Peak 25-34","coordinates":[-66.56472,47.41945]},{"code":"VE9/ND-012","program":"sota","name":"Teneriffe","coordinates":[-66.73889,47.35861]},{"code":"VE9/ND-016","program":"sota","name":"Marie","coordinates":[-66.58028,47.37]},{"code":"VE9/ND-019","program":"sota","name":"Tour","coordinates":[-66.59,47.38972]},{"code":"VE9/ND-020","program":"sota","name":"Peak 25-37","coordinates":[-66.61777,47.41139]},{"code":"VE9/ND-031","program":"sota","name":"Boardman","coordinates":[-66.57306,47.46167]},{"code":"VE9/ND-035","program":"sota","name":"Cooney","coordinates":[-66.71278,47.38139]},{"code":"VE9/RG-004","program":"sota","name":"Vroom","coordinates":[-66.55917,47.48639]}]}