{"lat":47.25,"lon":6.25,"programs":["pota","sota"],"count":8,"references":[{"code":"FR-5950","program":"pota","name":"Cluse et anticlinal de Clerval Biological Reserve","coordinates":[6.48,47.43]},{"code":"FR-5951","program":"pota","name":"VALLEE DU CUSANCIN ET TORRENT DES ALLOZ Biological Reserve","coordinates":[6.42585,47.3232]},{"code":"FR-5952","program":"pota","name":"GORGES DE L'AUDEUX ET RUISSEAU DU SESSERANT Biological Reserve","coordinates":[6.34376,47.3219]},{"code":"FR-5953","program":"pota","name":"ROCHES DE CHATARD Biological Reserve","coordinates":[6.3661,47.3382]},{"code":"FR-6643","program":"pota","name":"MOYENNE VALLEE DU DOUBS Biological Reserve","coordinates":[6.27533,47.3171]},{"code":"FR-10284","program":"pota","name":"VALLEE DE L'OGNON DE VILLERSEXEL A RIGNEY Biological Reserve","coordinates":[6.31326,47.4814]},{"code":"F/JU-092","program":"sota","name":"Bois de Montfort","coordinates":[6.4747,47.3903]},{"code":"F/JU-100","program":"sota","name":"Bois de Babre","coordinates":[6.3823,47.3479]}]}