{"lat":47.25,"lon":-62,"programs":["pota","sota","wwbota"],"count":10,"references":[{"code":"CA-4951","program":"pota","name":"Parc de Gros-Cap Regional Park","coordinates":[-61.882,47.3467]},{"code":"CA-6402","program":"pota","name":"Phare de l'Île-du-Havre-aux-Maisons Historic Site","coordinates":[-61.7736,47.391]},{"code":"CA-6405","program":"pota","name":"Presbytère du Havre-aux-Maisons Historic Site","coordinates":[-61.8184,47.3982]},{"code":"CA-6409","program":"pota","name":"Phare du Borgot Historic Site","coordinates":[-61.9593,47.3849]},{"code":"CA-6410","program":"pota","name":"École Saint-Joseph Historic Site","coordinates":[-61.7914,47.4054]},{"code":"CA-6414","program":"pota","name":"Fumoirs de la Pointe-Basse Historic Site","coordinates":[-61.79,47.3916]},{"code":"CA-6415","program":"pota","name":"Église de Saint-Pierre-de-La Vernière Historic Site","coordinates":[-61.9071,47.371]},{"code":"CA-6416","program":"pota","name":"Vieux couvent de Havre-aux-Maisons Historic Site","coordinates":[-61.8184,47.3986]},{"code":"VE2/GA-270","program":"sota","name":"Butte du Vent - Île du Cap aux Meules","coordinates":[-61.916653,47.384403]},{"code":"B/CA-0881","program":"wwbota","name":"FRP HKPC4","coordinates":[-61.8701184,47.37779833]}]}