{"lat":47.25,"lon":-123,"programs":["pota"],"count":8,"references":[{"code":"US-3159","program":"pota","name":"Belfair State Park","coordinates":[-122.879,47.4298]},{"code":"US-3198","program":"pota","name":"Harstine Island State Park","coordinates":[-122.871,47.2625]},{"code":"US-3205","program":"pota","name":"Jarrell Cove State Park","coordinates":[-122.883,47.2844]},{"code":"US-3277","program":"pota","name":"Stretch Point Marine State Park","coordinates":[-122.82,47.3296]},{"code":"US-3284","program":"pota","name":"Twanoh State Park","coordinates":[-122.973,47.3779]},{"code":"US-5569","program":"pota","name":"Green Mountain-Tahuya State Forest","coordinates":[-122.911,47.4711]},{"code":"US-12309","program":"pota","name":"Haley State Park","coordinates":[-122.777,47.2907]},{"code":"US-12557","program":"pota","name":"Union River State Wildlife Area","coordinates":[-122.841,47.4473]}]}