{"lat":47.25,"lon":0.75,"programs":["pota"],"count":6,"references":[{"code":"FR-14697","program":"pota","name":"PARC ET COTEAUX DE VERETZ Biological Reserve","coordinates":[0.792,47.359]},{"code":"FR-14698","program":"pota","name":"Mare, prairies et landes humides du Champ de Manœuvre Biological Reserve","coordinates":[0.759,47.339]},{"code":"FR-14699","program":"pota","name":"LANDES DE LA PETITE BAMBOCHE Biological Reserve","coordinates":[0.769,47.322]},{"code":"FR-14705","program":"pota","name":"PRAIRIES ET COTEAUX DE L'INDRE AU MOULIN DE VONTES Biological Reserve","coordinates":[0.811,47.277]},{"code":"FR-14706","program":"pota","name":"SOURCES TUFEUSES DE L'ECHANDON, MOULIN PERRION Biological Reserve","coordinates":[0.789,47.259]},{"code":"FR-14707","program":"pota","name":"VALLEE DE L'ECHANDON Biological Reserve","coordinates":[0.798,47.251]}]}