{"lat":47.25,"lon":-114,"programs":["sota"],"count":22,"references":[{"code":"W7M/LM-001","program":"sota","name":"McDonald Peak","coordinates":[-113.9193,47.3827]},{"code":"W7M/LM-002","program":"sota","name":"East Saint Marys Peak","coordinates":[-113.9118,47.3024]},{"code":"W7M/LM-003","program":"sota","name":"9417","coordinates":[-113.9372,47.3844]},{"code":"W7M/LM-004","program":"sota","name":"Glacier Peaks","coordinates":[-113.8982,47.3599]},{"code":"W7M/LM-005","program":"sota","name":"Lowary Peak","coordinates":[-113.9007,47.313]},{"code":"W7M/LM-007","program":"sota","name":"9328","coordinates":[-113.9138,47.3663]},{"code":"W7M/LM-009","program":"sota","name":"Mountaineer Peak","coordinates":[-113.8826,47.3396]},{"code":"W7M/LM-013","program":"sota","name":"Mount Calowahcan","coordinates":[-113.9434,47.4576]},{"code":"W7M/LM-015","program":"sota","name":"Gray Wolf Peak","coordinates":[-113.8712,47.2881]},{"code":"W7M/LM-017","program":"sota","name":"8893","coordinates":[-113.9465,47.3625]},{"code":"W7M/LM-020","program":"sota","name":"Daughter of The Sun Mtn","coordinates":[-113.8501,47.3444]},{"code":"W7M/LM-023","program":"sota","name":"8660","coordinates":[-113.8767,47.3703]},{"code":"W7M/LM-025","program":"sota","name":"8632","coordinates":[-113.9419,47.4922]},{"code":"W7M/LM-033","program":"sota","name":"Lindy Peak","coordinates":[-113.8234,47.3543]},{"code":"W7M/LM-034","program":"sota","name":"Weisner Peak","coordinates":[-113.8905,47.4318]},{"code":"W7M/LM-035","program":"sota","name":"Sunset Peak","coordinates":[-113.8391,47.3045]},{"code":"W7M/LM-036","program":"sota","name":"8366","coordinates":[-113.9288,47.4658]},{"code":"W7M/LM-038","program":"sota","name":"8300","coordinates":[-113.9207,47.4704]},{"code":"W7M/LM-039","program":"sota","name":"8292","coordinates":[-113.8649,47.4285]},{"code":"W7M/LM-041","program":"sota","name":"8263","coordinates":[-113.9454,47.4386]},{"code":"W7M/LM-045","program":"sota","name":"8106","coordinates":[-113.822,47.2736]},{"code":"W7M/LM-080","program":"sota","name":"7561","coordinates":[-113.8936,47.4714]}]}