{"lat":47.25,"lon":4.5,"programs":["pota","sota"],"count":21,"references":[{"code":"FR-3722","program":"pota","name":"GITES ET HABITATS A CHAUVES SOURIS EN BOURGOGNE  FR2601012 Natura 2000","coordinates":[4.61361,47.4311]},{"code":"FR-13372","program":"pota","name":"AMONT DE LA VALLEE DE L'OZE Biological Reserve","coordinates":[4.747,47.363]},{"code":"FR-13373","program":"pota","name":"COMBE DE SAVRANGES A BLAISY-BAS Biological Reserve","coordinates":[4.731,47.353]},{"code":"FR-13375","program":"pota","name":"SOURCES DE L'IGNON Biological Reserve","coordinates":[4.749,47.476]},{"code":"FR-13409","program":"pota","name":"AUXOIS Biological Reserve","coordinates":[4.592,47.464]},{"code":"FR-13410","program":"pota","name":"VAL DE LA DRENNE ET COTEAUX ENTRE CHARENCEY ET DREE Biological Reserve","coordinates":[4.676,47.386]},{"code":"FR-13411","program":"pota","name":"PRAIRIES BOCAGERES DE MARCELLOIS ET AVOSNES Biological Reserve","coordinates":[4.61,47.352]},{"code":"FR-13412","program":"pota","name":"VALLEE DE LA BRENNE ET COTEAUX ET RESERVOIR DE GROSBOIS-EN-MONTAGNE Biological Reserve","coordinates":[4.567,47.325]},{"code":"FR-13413","program":"pota","name":"PLATEAU ENTRE CIVRY-EN-MONTAGNE ET POUILLY-EN-AUXOIS Biological Reserve","coordinates":[4.612,47.293]},{"code":"FR-13414","program":"pota","name":"ROCHES DE BEAUME A CREANCEY Biological Reserve","coordinates":[4.581,47.264]},{"code":"FR-13416","program":"pota","name":"RUISSEAU LA MOTTE A BELLENOT-SOUS-POUILLY Biological Reserve","coordinates":[4.544,47.279]},{"code":"FR-13417","program":"pota","name":"BOCAGES A POUILLY-EN-AUXOIS ET BELLENOT-SOUS-POUILLY Biological Reserve","coordinates":[4.553,47.257]},{"code":"FR-13418","program":"pota","name":"COTEAUX BOCAGERS DE VESVRES, BOUSSEY ET SOUSSEY-SOUS-BRIONNE Biological Reserve","coordinates":[4.533,47.331]},{"code":"FR-13419","program":"pota","name":"PLATEAU ET FALAISES DE SAFFRES Biological Reserve","coordinates":[4.582,47.362]},{"code":"FR-13420","program":"pota","name":"VALLEES ET COTEAUX BOCAGERS A DAMPIERRE-EN-MONTAGNE ET VILLEBERNY Biological Reserve","coordinates":[4.563,47.429]},{"code":"FR-13421","program":"pota","name":"FORET DE FLAVIGNY ET FALAISES DE LA ROCHE VANNEAU Biological Reserve","coordinates":[4.518,47.491]},{"code":"FR-13428","program":"pota","name":"HAUT-DE-MONDE A VILLEFERRY Biological Reserve","coordinates":[4.525,47.451]},{"code":"FR-13559","program":"pota","name":"Gites et habitats a chauves-souris en Bourgogne Biological Reserve","coordinates":[4.712,47.386]},{"code":"FL/VL-043","program":"sota","name":"Layé et Roche Chèvre","coordinates":[4.7342,47.2642]},{"code":"FL/VL-049","program":"sota","name":"La Montagne","coordinates":[4.7458,47.2983]},{"code":"FL/VL-052","program":"sota","name":"Montagne de St Laurent","coordinates":[4.7475,47.3108]}]}