{"lat":47.25,"lon":4.25,"programs":["gma","pota","sota"],"count":19,"references":[{"code":"FA/VL-020","program":"gma","name":"Butte de Thil","coordinates":[4.33594,47.38634]},{"code":"FR-13429","program":"pota","name":"PRAIRIES DE VOLNAY A ARNAY-SOUS-VITTEAUX Biological Reserve","coordinates":[4.485,47.421]},{"code":"FR-13465","program":"pota","name":"PLATEAU ET VALLONS ENTRE BLANCEY, EGUILLY ET GISSEY-LE-VIEIL Biological Reserve","coordinates":[4.488,47.313]},{"code":"FR-13466","program":"pota","name":"RUISSEAUX DE LA LANTILLIERE ET DES TREMBLAIES ENTRE BLANCEY ET CHAILLY-SUR-ARMANCON Biological Reserve","coordinates":[4.46,47.296]},{"code":"FR-13467","program":"pota","name":"PLATEAU DE MONT-SAINT-JEAN Biological Reserve","coordinates":[4.425,47.267]},{"code":"FR-13468","program":"pota","name":"BOCAGE ENTRE MISSERY ET SUSSEY Biological Reserve","coordinates":[4.364,47.281]},{"code":"FR-13488","program":"pota","name":"VALLEE ET BASSIN AMONT DU SEREIN Biological Reserve","coordinates":[4.373,47.25]},{"code":"FR-13489","program":"pota","name":"PRAIRIES ET BOCAGE A SAULIEU ET AU SUD DE VILLARGOIS Biological Reserve","coordinates":[4.318,47.276]},{"code":"FR-13490","program":"pota","name":"PRAIRIES ET BOCAGE DE VILLARGOIX Biological Reserve","coordinates":[4.296,47.289]},{"code":"FR-13491","program":"pota","name":"FORET ET PRAIRIES BOCAGERES A LA MOTTE TERNANT Biological Reserve","coordinates":[4.311,47.325]},{"code":"FR-13492","program":"pota","name":"BOCAGE ET MARES A LACOUR ET DOMPIERRE-EN-MORVAN Biological Reserve","coordinates":[4.252,47.359]},{"code":"FR-13493","program":"pota","name":"VALLEE DU SEREIN ET SES ABORDS A PRECY-SOUS-THIL ET VIC-SOUS-THIL Biological Reserve","coordinates":[4.314,47.365]},{"code":"FR-13494","program":"pota","name":"VALLEE ET COTEAUX DE L'ARMANCON ENTRE SAINT-THIBAULT ET BUFFON Biological Reserve","coordinates":[4.379,47.411]},{"code":"FR-13495","program":"pota","name":"BOCAGE, PRAIRIES ET MARES ENTRE FONTANGY ET SAINT-THIBAULT Biological Reserve","coordinates":[4.371,47.351]},{"code":"FR-13503","program":"pota","name":"VALLEE DU SEREIN DE BIERRE-LES-SEMUR A TOUTRY Biological Reserve","coordinates":[4.256,47.423]},{"code":"FL/VL-045","program":"sota","name":"Le Haut de la Rèpe","coordinates":[4.4208,47.3067]},{"code":"FL/VL-059","program":"sota","name":"Mont Ligot","coordinates":[4.3633,47.3508]},{"code":"FL/VL-063","program":"sota","name":"La Montagne","coordinates":[4.4717,47.4117]},{"code":"FL/VL-066","program":"sota","name":"Forêt de la Montagne","coordinates":[4.345,47.3725]}]}