{"lat":47.25,"lon":14.5,"programs":["gma","sota"],"count":63,"references":[{"code":"OE/ST-023","program":"gma","name":"Geierhaupt","coordinates":[14.63609982,47.37469864]},{"code":"OE/ST-024","program":"gma","name":"Hochreichhart","coordinates":[14.68169975,47.36330032]},{"code":"OE/ST-026","program":"gma","name":"Seckauer Zinken","coordinates":[14.7361002,47.33919907]},{"code":"OE/ST-028","program":"gma","name":"Gamskogel","coordinates":[14.54889965,47.36579895]},{"code":"OE/ST-034","program":"gma","name":"Großer Grießstein","coordinates":[14.5394001,47.39080048]},{"code":"OE/ST-044","program":"gma","name":"Lärchkogel","coordinates":[14.52140045,47.35359955]},{"code":"OE/ST-052","program":"gma","name":"Sonntagskogel","coordinates":[14.51029968,47.3905983]},{"code":"OE/ST-054","program":"gma","name":"Kerschkern","coordinates":[14.61390018,47.38779831]},{"code":"OE/ST-084","program":"gma","name":"Zeiritzkampel","coordinates":[14.7269001,47.49140167]},{"code":"OE/ST-090","program":"gma","name":"Himmeleck","coordinates":[14.60309982,47.42689896]},{"code":"OE/ST-093","program":"gma","name":"Feistererhorn","coordinates":[14.69999981,47.38470078]},{"code":"OE/ST-106","program":"gma","name":"Leobner","coordinates":[14.64999962,47.49440002]},{"code":"OE/ST-109","program":"gma","name":"Lahnerleitenspitze","coordinates":[14.67860031,47.4919014]},{"code":"OE/ST-123","program":"gma","name":"Blaseneck","coordinates":[14.6189003,47.49940109]},{"code":"OE/ST-141","program":"gma","name":"Großer Schober","coordinates":[14.63749981,47.44189835]},{"code":"OE/ST-144","program":"gma","name":"Vöttleck","coordinates":[14.55420017,47.45389938]},{"code":"OE/ST-215","program":"gma","name":"Hölzlberg","coordinates":[14.6714,47.25]},{"code":"OE/ST-338","program":"gma","name":"Maierangerkogel","coordinates":[14.71389961,47.34780121]},{"code":"OE/ST-429","program":"gma","name":"Pletzen","coordinates":[14.6172,47.3329]},{"code":"OE/ST-431","program":"gma","name":"Amachkogel","coordinates":[14.5381,47.3528]},{"code":"OE/ST-488","program":"gma","name":"Sonntagkogel","coordinates":[14.6026,47.3487]},{"code":"OE/ST-491","program":"gma","name":"Kettentalkogel","coordinates":[14.5958,47.3783]},{"code":"OE/ST-492","program":"gma","name":"Speikleitenberg","coordinates":[14.5817,47.365]},{"code":"OE/ST-522","program":"gma","name":"Triebenfeldkogel","coordinates":[14.5742,47.4257]},{"code":"OE/ST-535","program":"gma","name":"Tierkogel","coordinates":[14.52,47.4317]},{"code":"OE/ST-556","program":"gma","name":"Baierhubermauer","coordinates":[14.6992,47.4441]},{"code":"OE/ST-562","program":"gma","name":"Pretallerkogel","coordinates":[14.7164,47.4362]},{"code":"OE/ST-592","program":"gma","name":"Kleiner Grießstein","coordinates":[14.5447,47.384]},{"code":"OE0/ST-1022","program":"gma","name":"Schleifeck","coordinates":[14.51220036,47.36560059]},{"code":"OE0/ST-1023","program":"gma","name":"Lattenberg","coordinates":[14.60169983,47.40140152]},{"code":"OE0/ST-1032","program":"gma","name":"Rosenkogel","coordinates":[14.55169964,47.29719925]},{"code":"OE0/ST-1040","program":"gma","name":"Papstriegel","coordinates":[14.72360039,47.31330109]},{"code":"OE0/ST-1067","program":"gma","name":"Hölzlberg","coordinates":[14.67140007,47.25]},{"code":"OE0/ST-1185","program":"gma","name":"Großer Ringkogel","coordinates":[14.6218996,47.32080078]},{"code":"OE0/ST-1218","program":"gma","name":"Amachkogel","coordinates":[14.5383,47.3525]},{"code":"OE/ST-023","program":"sota","name":"Geierhaupt","coordinates":[14.6361,47.3747]},{"code":"OE/ST-024","program":"sota","name":"Hochreichhart","coordinates":[14.6817,47.3633]},{"code":"OE/ST-026","program":"sota","name":"Seckauer Zinken","coordinates":[14.7361,47.3392]},{"code":"OE/ST-028","program":"sota","name":"Gamskogel","coordinates":[14.5489,47.3658]},{"code":"OE/ST-034","program":"sota","name":"Großer Grießstein","coordinates":[14.5394,47.3908]},{"code":"OE/ST-044","program":"sota","name":"Lärchkogel","coordinates":[14.5214,47.3536]},{"code":"OE/ST-052","program":"sota","name":"Sonntagskogel","coordinates":[14.5103,47.3906]},{"code":"OE/ST-054","program":"sota","name":"Kerschkern","coordinates":[14.6139,47.3878]},{"code":"OE/ST-084","program":"sota","name":"Zeiritzkampel","coordinates":[14.7269,47.4914]},{"code":"OE/ST-090","program":"sota","name":"Himmeleck","coordinates":[14.6031,47.4269]},{"code":"OE/ST-093","program":"sota","name":"Feistererhorn","coordinates":[14.7,47.3847]},{"code":"OE/ST-106","program":"sota","name":"Leobner","coordinates":[14.65,47.4944]},{"code":"OE/ST-109","program":"sota","name":"Lahnerleitenspitze","coordinates":[14.6786,47.4919]},{"code":"OE/ST-123","program":"sota","name":"Blaseneck","coordinates":[14.6189,47.4994]},{"code":"OE/ST-141","program":"sota","name":"Großer Schober","coordinates":[14.6375,47.4419]},{"code":"OE/ST-144","program":"sota","name":"Vöttleck","coordinates":[14.5542,47.4539]},{"code":"OE/ST-215","program":"sota","name":"Hölzlberg","coordinates":[14.6714,47.25]},{"code":"OE/ST-338","program":"sota","name":"Maierangerkogel","coordinates":[14.7139,47.3478]},{"code":"OE/ST-429","program":"sota","name":"Pletzen","coordinates":[14.6172,47.3329]},{"code":"OE/ST-431","program":"sota","name":"Amachkogel","coordinates":[14.5381,47.3528]},{"code":"OE/ST-488","program":"sota","name":"Sonntagkogel","coordinates":[14.6026,47.3487]},{"code":"OE/ST-491","program":"sota","name":"Kettentalkogel","coordinates":[14.5958,47.3783]},{"code":"OE/ST-492","program":"sota","name":"Speikleitenberg","coordinates":[14.5817,47.365]},{"code":"OE/ST-522","program":"sota","name":"Triebenfeldkogel","coordinates":[14.5742,47.4257]},{"code":"OE/ST-535","program":"sota","name":"Tierkogel","coordinates":[14.52,47.4317]},{"code":"OE/ST-556","program":"sota","name":"Baierhubermauer","coordinates":[14.6992,47.4441]},{"code":"OE/ST-562","program":"sota","name":"Pretallerkogel","coordinates":[14.7164,47.4362]},{"code":"OE/ST-592","program":"sota","name":"Kleiner Grießstein","coordinates":[14.5447,47.384]}]}