{"lat":47.25,"lon":-0.75,"programs":["pota"],"count":14,"references":[{"code":"FR-9252","program":"pota","name":"RUISSEAU DE LA CONTRIE ET DE L'OYON Biological Reserve","coordinates":[-0.72801,47.3058]},{"code":"FR-9253","program":"pota","name":"CAVES ET DEPENDANCES DE L'AIGLERIE Biological Reserve","coordinates":[-0.68327,47.3376]},{"code":"FR-2647","program":"pota","name":"BASSES BROSSES ET CHEVALLERIES FR9300103 Regional Reserve","coordinates":[-0.6432,47.414]},{"code":"FR-2649","program":"pota","name":"COTEAUX DU PONT BARRE FR9300122 Regional Reserve","coordinates":[-0.61982,47.3174]},{"code":"FR-14112","program":"pota","name":"LE LAC DE MAINE Biological Reserve","coordinates":[-0.584,47.459]},{"code":"FR-14113","program":"pota","name":"Basses Vallees Angevines Marais De Basse Maine Et De Saint Aubin Biological Reserve","coordinates":[-0.6,47.423]},{"code":"FR-14114","program":"pota","name":"PRAIRIES ET ROCHER DE LA BAUMETTE Biological Reserve","coordinates":[-0.599,47.435]},{"code":"FR-14115","program":"pota","name":"PRAIRIES ENTRE LOIRE, LOUET ET AUBANCE Biological Reserve","coordinates":[-0.561,47.397]},{"code":"FR-14116","program":"pota","name":"COTEAUX SCHISTEUX DE MANTELON ET DENEE Biological Reserve","coordinates":[-0.605,47.381]},{"code":"FR-14117","program":"pota","name":"LE PETIT PRE Biological Reserve","coordinates":[-0.546,47.353]},{"code":"FR-14818","program":"pota","name":"FORET DE BEAULIEU Biological Reserve","coordinates":[-0.535,47.322]},{"code":"FR-14820","program":"pota","name":"VALLEE DU LAYON Biological Reserve","coordinates":[-0.692,47.335]},{"code":"FR-14913","program":"pota","name":"Parc du Petit Serrant Recreation Park","coordinates":[-0.618,47.412]},{"code":"FR-14914","program":"pota","name":"Site de la Piverdiere Recreation Park","coordinates":[-0.607,47.437]}]}