{"lat":47.25,"lon":9,"programs":["gma","pota","sota"],"count":37,"references":[{"code":"HB/AR-002","program":"gma","name":"Hochhamm","coordinates":[9.24530029,47.31689835]},{"code":"HB/AR-012","program":"gma","name":"Risiwald","coordinates":[9.244,47.3467]},{"code":"HB/SG-037","program":"gma","name":"Hinterfallenchopf","coordinates":[9.24470043,47.25749969]},{"code":"HB/SG-044","program":"gma","name":"Wilkethöchi","coordinates":[9.17469978,47.3382988]},{"code":"HB/SG-045","program":"gma","name":"Köbelisberg","coordinates":[9.11750031,47.31750107]},{"code":"HB/SG-046","program":"gma","name":"Ruine Neutoggenburg","coordinates":[9.11279964,47.32970047]},{"code":"HB/SG-060","program":"gma","name":"Tweralpspitz","coordinates":[9.02610016,47.29059982]},{"code":"HB/SG-063","program":"gma","name":"Eppenberg","coordinates":[9.12940025,47.40999985]},{"code":"HB/TG-007","program":"gma","name":"Oberheid/ Greutisbärg","coordinates":[9.0848999,47.49679947]},{"code":"HB/TG-009","program":"gma","name":"Rooset","coordinates":[9.0019,47.4474]},{"code":"HB9/AR-1006","program":"gma","name":"Sitz","coordinates":[9.22920036,47.34500122]},{"code":"HB9/SG-1008","program":"gma","name":"Halbrütispitz","coordinates":[9.0017004,47.30530167]},{"code":"HB9/SG-1010","program":"gma","name":"Bärensberg","coordinates":[9.08701801,47.43432617]},{"code":"HB9/SG-1011","program":"gma","name":"Vogelsberg","coordinates":[9.11565018,47.43674088]},{"code":"HB9/SG-1012","program":"gma","name":"Wildberg","coordinates":[9.11282158,47.41212463]},{"code":"HB9/SG-1013","program":"gma","name":"Kreienberg","coordinates":[9.1510601,47.41146469]},{"code":"HB9/SG-1014","program":"gma","name":"Chapf","coordinates":[9.12245941,47.41572189]},{"code":"HB9/SG-1015","program":"gma","name":"Riemensberg","coordinates":[9.10988426,47.39477539]},{"code":"HB9/SG-1016","program":"gma","name":"Winzenberg","coordinates":[9.11659908,47.3969841]},{"code":"HB9/SG-1023","program":"gma","name":"Chrüzegg","coordinates":[9.02029991,47.29809952]},{"code":"CH-0144","program":"pota","name":"Thurlandschaft zwischen Lichtensteig und Schwarzenbach Natural Monument","coordinates":[9.09162,47.3623]},{"code":"CH-0224","program":"pota","name":"Arniger Witi Nature Reserve","coordinates":[9.24561,47.4503]},{"code":"CH-0226","program":"pota","name":"Ghöggerhütte Wetland Reserve","coordinates":[9.21303,47.483]},{"code":"CH-0270","program":"pota","name":"Turpenried Wetland Reserve","coordinates":[9.03265,47.4044]},{"code":"CH-0275","program":"pota","name":"Bettnauer Weiher Wetland Reserve","coordinates":[9.106,47.4294]},{"code":"CH-0292","program":"pota","name":"Ruine Neutoggenburg Flora Reserve","coordinates":[9.11284,47.3298]},{"code":"CH-0225","program":"pota","name":"Unteres Ghögg Wetland Reserve","coordinates":[9.22613,47.488]},{"code":"HB/AR-002","program":"sota","name":"Hochhamm","coordinates":[9.245,47.3169]},{"code":"HB/AR-012","program":"sota","name":"Punkt 1102 bei Risi","coordinates":[9.244,47.3466]},{"code":"HB/SG-037","program":"sota","name":"Hinderfallenchopf","coordinates":[9.2449,47.2577]},{"code":"HB/SG-044","program":"sota","name":"Wilkethöchi","coordinates":[9.1745,47.3383]},{"code":"HB/SG-045","program":"sota","name":"Köbelisberg","coordinates":[9.1157,47.3163]},{"code":"HB/SG-046","program":"sota","name":"Burgruine Neu Toggenburg","coordinates":[9.1126,47.3295]},{"code":"HB/SG-060","program":"sota","name":"Tweralpspitz","coordinates":[9.0263,47.2907]},{"code":"HB/SG-063","program":"sota","name":"Höchi","coordinates":[9.1291,47.4096]},{"code":"HB/TG-007","program":"sota","name":"Punkt 775 bei Obere Heid","coordinates":[9.0843,47.4968]},{"code":"HB/TG-009","program":"sota","name":"Rooset","coordinates":[9.0018,47.4474]}]}