{"lat":47.25,"lon":15.75,"programs":["gma","pota","sota"],"count":16,"references":[{"code":"OE/ST-267","program":"gma","name":"Masenberg","coordinates":[15.87530041,47.3492012]},{"code":"OE/ST-268","program":"gma","name":"Wildwiesen","coordinates":[15.77499962,47.39440155]},{"code":"OE/ST-373","program":"gma","name":"Buchwald","coordinates":[15.85359955,47.43170166]},{"code":"OE0/ST-1088","program":"gma","name":"Hochkogel","coordinates":[15.98110008,47.4681015]},{"code":"OE0/ST-1097","program":"gma","name":"Krauserschöckl","coordinates":[15.75,47.42359924]},{"code":"OE0/ST-1098","program":"gma","name":"Arzberg","coordinates":[15.81779957,47.46689987]},{"code":"OE0/ST-1103","program":"gma","name":"Höhhansl","coordinates":[15.77000046,47.44829941]},{"code":"OE0/ST-1106","program":"gma","name":"Buchkogel","coordinates":[15.80500031,47.27030182]},{"code":"OE0/ST-1107","program":"gma","name":"Kreilkogel","coordinates":[15.76000023,47.26060104]},{"code":"OE0/ST-1210","program":"gma","name":"Ringkogel","coordinates":[15.9513998,47.29750061]},{"code":"AT-0069","program":"pota","name":"Poellauer Tal Nature Reserve","coordinates":[15.8385,47.3022]},{"code":"AT-0273","program":"pota","name":"Hartberger Gmoos Natura 2000","coordinates":[15.9713,47.274]},{"code":"AT-0276","program":"pota","name":"Poellauberg Historic Site","coordinates":[15.8572,47.3152]},{"code":"OE/ST-267","program":"sota","name":"Masenberg","coordinates":[15.8753,47.3492]},{"code":"OE/ST-268","program":"sota","name":"Wildwiesen","coordinates":[15.775,47.3944]},{"code":"OE/ST-373","program":"sota","name":"Buchwald","coordinates":[15.8536,47.4317]}]}