{"lat":47.5,"lon":8.75,"programs":["gma","pota","sota"],"count":15,"references":[{"code":"DA/BW-264","program":"gma","name":"Kressberg","coordinates":[8.86610031,47.68719864]},{"code":"DA/BW-755","program":"gma","name":"Rosenegger Berg","coordinates":[8.8156004,47.7344017]},{"code":"HB/TG-002","program":"gma","name":"Imenberg","coordinates":[8.97640038,47.53139877]},{"code":"HB/TG-008","program":"gma","name":"Rodebärg","coordinates":[8.77709961,47.67129898]},{"code":"HB/ZH-019","program":"gma","name":"Schneitberg","coordinates":[8.86870003,47.50619888]},{"code":"DE-0419","program":"pota","name":"Mettnaupark Recreation Park","coordinates":[8.99021,47.7309]},{"code":"DE-1074","program":"pota","name":"Schiener Berg und westlicher Untersee Flora and Fauna Reserve","coordinates":[8.94985,47.6779]},{"code":"CH-0020","program":"pota","name":"Stein am Rhein Nature Reserve","coordinates":[8.84506,47.6649]},{"code":"CH-0135","program":"pota","name":"Imenberg Natural Monument","coordinates":[8.97924,47.5301]},{"code":"CH-0136","program":"pota","name":"Glaziallandschaft zwischen Thur und Rhein Natural Monument","coordinates":[8.83677,47.6142]},{"code":"DM/BW-363","program":"sota","name":"Schiener Berg","coordinates":[8.9194,47.6856]},{"code":"DM/BW-365","program":"sota","name":"Rauhenberg","coordinates":[8.776951,47.704082]},{"code":"HB/TG-002","program":"sota","name":"Imebärg","coordinates":[8.976,47.5316]},{"code":"HB/TG-008","program":"sota","name":"Rodebärg","coordinates":[8.7774,47.6712]},{"code":"HB/ZH-019","program":"sota","name":"Schneitberg","coordinates":[8.8687,47.5062]}]}