{"lat":47.5,"lon":-2,"programs":["pota"],"count":9,"references":[{"code":"FR-12208","program":"pota","name":"ETANG DE L'ETIER Biological Reserve","coordinates":[-1.84,47.722]},{"code":"FR-12217","program":"pota","name":"MARAIS DE GANNEDEL Biological Reserve","coordinates":[-1.96,47.692]},{"code":"FR-12218","program":"pota","name":"ETANG DE SAINT JULIEN Biological Reserve","coordinates":[-1.984,47.719]},{"code":"FR-12219","program":"pota","name":"CANUT SUD Biological Reserve","coordinates":[-1.996,47.73]},{"code":"FR-12220","program":"pota","name":"DEMOISELLES DE COJOUX ET ETANG DU VAL Biological Reserve","coordinates":[-1.991,47.741]},{"code":"FR-3633","program":"pota","name":"FORET DE GAVRE  FR5212005 Natura 2000","coordinates":[-1.8,47.525]},{"code":"FR-12214","program":"pota","name":"MARAIS DE LA VILAINE EN AMONT DE REDON Biological Reserve","coordinates":[-1.922,47.68]},{"code":"FR-12215","program":"pota","name":"BUTTE DE VEAU Biological Reserve","coordinates":[-1.934,47.666]},{"code":"FR-12216","program":"pota","name":"LAC DE MURIN Biological Reserve","coordinates":[-1.934,47.673]}]}