{"lat":47.5,"lon":25.75,"programs":["gma","pota","sota"],"count":7,"references":[{"code":"YP/EC-005","program":"gma","name":"Plesa","coordinates":[25.77000046,47.7242012]},{"code":"YP/EC-006","program":"gma","name":"Dealul Magura","coordinates":[25.99799919,47.55139923]},{"code":"YP/EC-013","program":"gma","name":"Dealul Ciungi","coordinates":[25.99749947,47.55170059]},{"code":"RO-0021","program":"pota","name":"Ariniș Park","coordinates":[25.892,47.5474]},{"code":"YO/EC-384","program":"sota","name":"Dealul Vulturul","coordinates":[25.77,47.7242]},{"code":"YO/EC-576","program":"sota","name":"Cota 1071","coordinates":[25.7519,47.7001]},{"code":"YO/EC-584","program":"sota","name":"Pleșa","coordinates":[25.8081,47.6413]}]}