{"lat":47.5,"lon":24.25,"programs":["gma","pota","sota"],"count":13,"references":[{"code":"YP/EC-002","program":"gma","name":"Tibles","coordinates":[24.25880051,47.520401]},{"code":"RO-0208","program":"pota","name":"Masivul Țibleș National Landscape","coordinates":[24.2588,47.5204]},{"code":"RO-0301","program":"pota","name":"Mocanița Maramureș Historic Site","coordinates":[24.442,47.7149]},{"code":"YO/EC-063","program":"sota","name":"Bran","coordinates":[24.2683,47.5175]},{"code":"YO/EC-186","program":"sota","name":"Țiflei","coordinates":[24.4883,47.5592]},{"code":"YO/EC-293","program":"sota","name":"Ștefăniței","coordinates":[24.3758,47.5925]},{"code":"YO/EC-298","program":"sota","name":"Hoitu","coordinates":[24.4375,47.5142]},{"code":"YO/EC-316","program":"sota","name":"Măgura Săbii","coordinates":[24.3983,47.5525]},{"code":"YO/EC-321","program":"sota","name":"Pintenu","coordinates":[24.2925,47.6283]},{"code":"YO/EC-348","program":"sota","name":"Vârful lui Dan","coordinates":[24.4225,47.6783]},{"code":"YO/EC-402","program":"sota","name":"Rascului","coordinates":[24.2867,47.7267]},{"code":"YO/EC-419","program":"sota","name":"Cetățelu","coordinates":[24.3383,47.6808]},{"code":"YO/EC-478","program":"sota","name":"Petra","coordinates":[24.2925,47.5833]}]}