{"lat":47.5,"lon":-123.75,"programs":["sota"],"count":15,"references":[{"code":"W7W/NO-058","program":"sota","name":"Mount Seattle","coordinates":[-123.578,47.7311]},{"code":"W7W/NO-065","program":"sota","name":"Mount Christie","coordinates":[-123.5455,47.6981]},{"code":"W7W/NO-081","program":"sota","name":"Muncaster Mountain","coordinates":[-123.512,47.6379]},{"code":"W7W/NO-095","program":"sota","name":"5624 Near Vertical Incidence Pk","coordinates":[-123.5025,47.6277]},{"code":"W7W/NO-098","program":"sota","name":"5565 Mt Moonbounce","coordinates":[-123.6547,47.6973]},{"code":"W7W/NO-100","program":"sota","name":"Mount Zindorf","coordinates":[-123.6246,47.6871]},{"code":"W7W/NO-105","program":"sota","name":"Mount Lawson","coordinates":[-123.5885,47.6563]},{"code":"W7W/NO-108","program":"sota","name":"5345 Mt Rhombic","coordinates":[-123.5639,47.6475]},{"code":"W7W/NO-112","program":"sota","name":"5299 Precendence Pk","coordinates":[-123.6331,47.7107]},{"code":"W7W/NO-120","program":"sota","name":"No Name Peak","coordinates":[-123.6067,47.5258]},{"code":"W7W/NO-122","program":"sota","name":"4855 Mt Tuner","coordinates":[-123.5398,47.5509]},{"code":"W7W/NO-128","program":"sota","name":"Tshletshy Ridge","coordinates":[-123.7299,47.6476]},{"code":"W7W/NO-133","program":"sota","name":"4401 VOX Mtn","coordinates":[-123.6862,47.6141]},{"code":"W7W/SO-028","program":"sota","name":"4375 Mt J-Pole","coordinates":[-123.5179,47.5162]},{"code":"W7W/SO-120","program":"sota","name":"Discovery Peak","coordinates":[-123.5616,47.5164]}]}