{"lat":47.5,"lon":28,"programs":["gma","pota","sota"],"count":7,"references":[{"code":"ERM/MD-006","program":"gma","name":"RÄƒdoaia","coordinates":[28.149167,47.695]},{"code":"MD-0067","program":"pota","name":"Parcul din Sângerei Park","coordinates":[28.1445,47.6364]},{"code":"MD-0070","program":"pota","name":"Parcul Grădina boierească Park","coordinates":[28.0221,47.5636]},{"code":"ER/MD-010","program":"sota","name":"Dealul Rediu (Chișcăreni)","coordinates":[28.0099,47.536]},{"code":"ER/MD-018","program":"sota","name":"Dealul Vechi (Starîi deal)","coordinates":[28.2447,47.6879]},{"code":"ER/MD-024","program":"sota","name":"Movila Oușoru","coordinates":[28.1166,47.5899]},{"code":"ER/MD-025","program":"sota","name":"Movila Hurezu","coordinates":[28.0887,47.5473]}]}