{"lat":47.5,"lon":25.25,"programs":["pota","sota"],"count":17,"references":[{"code":"RO-0312","program":"pota","name":"Obcina Feredeului Protected Area","coordinates":[25.3491,47.6766]},{"code":"RO-0629","program":"pota","name":"Vârful Iorești Natural Area","coordinates":[25.4557,47.6421]},{"code":"RO-0630","program":"pota","name":"Lacul Iezerul Sadovei Natural Area","coordinates":[25.4485,47.6036]},{"code":"RO-0631","program":"pota","name":"Vârful Răchitiș Natural Area","coordinates":[25.4172,47.5593]},{"code":"RO-0632","program":"pota","name":"Tainic Natural Area","coordinates":[25.366,47.5006]},{"code":"YO/EC-025","program":"sota","name":"Păușa","coordinates":[25.4962,47.6096]},{"code":"YO/EC-156","program":"sota","name":"Veju Mare","coordinates":[25.285,47.7183]},{"code":"YO/EC-167","program":"sota","name":"Pașcani","coordinates":[25.3917,47.6542]},{"code":"YO/EC-202","program":"sota","name":"Orața","coordinates":[25.2575,47.5233]},{"code":"YO/EC-203","program":"sota","name":"Iorești","coordinates":[25.4575,47.6433]},{"code":"YO/EC-236","program":"sota","name":"Muncelu","coordinates":[25.4625,47.5458]},{"code":"YO/EC-266","program":"sota","name":"Răchitiș","coordinates":[25.4175,47.5592]},{"code":"YO/EC-267","program":"sota","name":"Bobeica","coordinates":[25.3789,47.5713]},{"code":"YO/EC-460","program":"sota","name":"Poreica","coordinates":[25.2717,47.7]},{"code":"YO/EC-536","program":"sota","name":"Tomnatecul Mic","coordinates":[25.405,47.665]},{"code":"YO/EC-556","program":"sota","name":"Muncel","coordinates":[25.3533,47.6325]},{"code":"YO/EC-572","program":"sota","name":"Chicera Neagră","coordinates":[25.4668,47.7469]}]}