{"lat":47.5,"lon":-4.25,"programs":["pota"],"count":7,"references":[{"code":"FR-3855","program":"pota","name":"Archipel de Glenan Natura 2000","coordinates":[-4.00889,47.7294]},{"code":"FR-5103","program":"pota","name":"GLENAN NORD (BLUINIERS-PENFRET) Biological Reserve","coordinates":[-4.00323,47.723]},{"code":"FR-5287","program":"pota","name":"ILES ET ILOTS DE GUIRIDEN, GUEOTEC, VIEUX GLENAN, BRILIMEC, QUIGNENEC, CIGOGNE, CASTEL BRAZ, ROC’H C’HOAR et LE GLUET (ARCHIPEL DES GLENAN) Biological Reserve","coordinates":[-4.00092,47.7149]},{"code":"FR-5609","program":"pota","name":"ARCHIPEL DES GLENAN 3 Biological Reserve","coordinates":[-4.0009,47.7117]},{"code":"FR-6336","program":"pota","name":"BORDURE SUD DU PLATIER ROCHEUX DE PENMARCH - MEN HIR AR BLEIZ BASSE LARGE BASSE PERENESSE Biological Reserve","coordinates":[-4.22001,47.7273]},{"code":"FR-7221","program":"pota","name":"EST ET SUD-EST DE BASSE CORNOC CLEUSTRE (SECTEUR DE BASSE LARGE) Biological Reserve","coordinates":[-4.24666,47.7261]},{"code":"FR-8456","program":"pota","name":"Archipel des glenan Biological Reserve","coordinates":[-4.0024,47.7229]}]}