{"lat":47.5,"lon":10.5,"programs":["gma","pota","sota"],"count":47,"references":[{"code":"DA/AL-085","program":"gma","name":"Kappelkoepfl","coordinates":[10.5031004,47.59859848]},{"code":"DA/AL-086","program":"gma","name":"Einerkopf","coordinates":[10.60060024,47.56809998]},{"code":"DA/AL-087","program":"gma","name":"Hohenfreyberg","coordinates":[10.58749962,47.61360168]},{"code":"DA/AL-088","program":"gma","name":"Hochegg","coordinates":[10.69419956,47.66360092]},{"code":"DA/AL-089","program":"gma","name":"Sulzberg","coordinates":[10.65439987,47.65499878]},{"code":"DA/AL-092","program":"gma","name":"Ellenberg","coordinates":[10.59220028,47.74470139]},{"code":"DA/AL-175","program":"gma","name":"Auf'm Berg","coordinates":[10.60060024,47.64889908]},{"code":"DA/AL-180","program":"gma","name":"Großer Josberg","coordinates":[10.54711,47.59816]},{"code":"DA/AL-186","program":"gma","name":"Aggenstein","coordinates":[10.55720043,47.53689957]},{"code":"DA/AL-216","program":"gma","name":"Zwoelferkopf","coordinates":[10.60529995,47.56689835]},{"code":"DA/AL-217","program":"gma","name":"Falkenstein","coordinates":[10.59109974,47.56940079]},{"code":"DA/AL-226","program":"gma","name":"Vilser Berg","coordinates":[10.6559,47.55929947]},{"code":"DA/AL-232","program":"gma","name":"Forchenbichel","coordinates":[10.7389261,47.7446207]},{"code":"DA/AM-014","program":"gma","name":"Pilgerschrofen","coordinates":[10.74170017,47.53969955]},{"code":"DA/AM-135","program":"gma","name":"Galgenbichel (Vorderer)","coordinates":[10.6973,47.57762]},{"code":"DA/AM-156","program":"gma","name":"Kienberg","coordinates":[10.71189976,47.56259918]},{"code":"OE/TI-402","program":"gma","name":"Gehrenspitze","coordinates":[10.65530014,47.50030136]},{"code":"OE/TI-441","program":"gma","name":"Gr. Schlicke","coordinates":[10.6232996,47.5182991]},{"code":"OE/TI-457","program":"gma","name":"Brentenjoch","coordinates":[10.58220005,47.53219986]},{"code":"OE/TI-468","program":"gma","name":"Aggenstein","coordinates":[10.55720043,47.53689957]},{"code":"OE/TI-509","program":"gma","name":"Einstein","coordinates":[10.51360035,47.52220154]},{"code":"OE/TI-515","program":"gma","name":"Vilser Kegel","coordinates":[10.62139988,47.53030014]},{"code":"OE/TI-958","program":"gma","name":"Gimpel","coordinates":[10.6125,47.5013]},{"code":"OE0/TI-1134","program":"gma","name":"Läuferspitze","coordinates":[10.59780025,47.51029968]},{"code":"OE0/TI-1135","program":"gma","name":"Sefenspitze","coordinates":[10.59029961,47.51689911]},{"code":"OE0/TI-1589","program":"gma","name":"Zwölferkopf","coordinates":[10.60529995,47.56689835]},{"code":"DE-0565","program":"pota","name":"Attlesee Natura 2000","coordinates":[10.5371,47.6313]},{"code":"DE-0566","program":"pota","name":"Wertachschlucht Natura 2000","coordinates":[10.5007,47.6354]},{"code":"DE-0735","program":"pota","name":"Aggenstein Nature Reserve","coordinates":[10.5639,47.5371]},{"code":"DE-0867","program":"pota","name":"Sulzschneider Moore Natura 2000","coordinates":[10.6536,47.6918]},{"code":"DE-0978","program":"pota","name":"Falkenstein, Alatsee, Faulenbacher- und Lechtal Flora and Fauna Reserve","coordinates":[10.6636,47.5629]},{"code":"DL/AL-158","program":"sota","name":"Breitenberg","coordinates":[10.55186,47.5486]},{"code":"DL/AL-164","program":"sota","name":"Kienberg","coordinates":[10.51416,47.5662]},{"code":"DL/AL-169","program":"sota","name":"Auerberg","coordinates":[10.73581,47.73555]},{"code":"DL/AL-170","program":"sota","name":"Zwieselberg","coordinates":[10.69107,47.64326]},{"code":"DL/AL-171","program":"sota","name":"Eisenberg","coordinates":[10.59013,47.61286]},{"code":"DL/AL-172","program":"sota","name":"Senkelekopf","coordinates":[10.65846,47.63592]},{"code":"DL/AL-287","program":"sota","name":"Salober","coordinates":[10.61302,47.56552]},{"code":"OE/TI-402","program":"sota","name":"Gehrenspitze","coordinates":[10.6553,47.5003]},{"code":"OE/TI-441","program":"sota","name":"Gr. Schlicke","coordinates":[10.6233,47.5183]},{"code":"OE/TI-457","program":"sota","name":"Brentenjoch","coordinates":[10.5822,47.5322]},{"code":"OE/TI-468","program":"sota","name":"Aggenstein","coordinates":[10.5572,47.5369]},{"code":"OE/TI-509","program":"sota","name":"Einstein","coordinates":[10.5136,47.5222]},{"code":"OE/TI-515","program":"sota","name":"Vilser Kegel","coordinates":[10.6214,47.5303]},{"code":"OE/TI-958","program":"sota","name":"Gimpel","coordinates":[10.6125,47.5013]},{"code":"OE/TL-045","program":"sota","name":"Schwarzenberg","coordinates":[10.69,47.5508]},{"code":"OE/TL-048","program":"sota","name":"Siebeler","coordinates":[10.6925,47.5233]}]}