{"lat":47.5,"lon":4,"programs":["pota","sota"],"count":9,"references":[{"code":"FR-6062","program":"pota","name":"COTE D'EGLARD ET PELOUSES AU NORD DE NOYERS Biological Reserve","coordinates":[4.01289,47.6964]},{"code":"FR-7335","program":"pota","name":"FALAISES ET VALLEE DE L'ARMANCON AU LARRIS BLANC, A CRY Biological Reserve","coordinates":[4.23073,47.7228]},{"code":"FR-7346","program":"pota","name":"COMBE DE L'AUTREMONT A PERRIGNY-SUR-ARMANCON Biological Reserve","coordinates":[4.1974,47.6854]},{"code":"FR-7347","program":"pota","name":"FORETS DE CHATEL-GERARD EST, DE SAINT-JEAN ET MASSIFS ENVIRONNANTS Biological Reserve","coordinates":[4.17473,47.6622]},{"code":"FR-7348","program":"pota","name":"VALLON DE LA COME DU PIED DE BICHE Biological Reserve","coordinates":[4.1646,47.6435]},{"code":"FR-7349","program":"pota","name":"COTEAU DU SEREIN A CIVRY-SUR-SEREIN Biological Reserve","coordinates":[4.0003,47.6022]},{"code":"FR-7350","program":"pota","name":"FORET DE CHATEL-GERARD OUEST, MASSIFS ENVIRONNANTS ET VALLEE DU SEREIN Biological Reserve","coordinates":[4.02319,47.6413]},{"code":"FL/VL-089","program":"sota","name":"Bois de Chabrolle","coordinates":[4.1542,47.5808]},{"code":"FL/VL-109","program":"sota","name":"Le Raseau","coordinates":[4.2136,47.54]}]}