{"lat":47.5,"lon":13,"programs":["gma","sota","wwbota"],"count":62,"references":[{"code":"DA/BG-033","program":"gma","name":"Hint. Kragenkopf","coordinates":[13.04810047,47.51580048]},{"code":"DA/BG-034","program":"gma","name":"Vord. Kragenkopf","coordinates":[13.0468998,47.52140045]},{"code":"DA/BG-035","program":"gma","name":"Hohes Brett","coordinates":[13.05000019,47.58530045]},{"code":"DA/BG-036","program":"gma","name":"Gr. Archenkopf","coordinates":[13.07079983,47.58720016]},{"code":"DA/BG-037","program":"gma","name":"Kehlstein","coordinates":[13.04170036,47.61249924]},{"code":"DA/BG-038","program":"gma","name":"Hennenk","coordinates":[13.0927,47.62670898]},{"code":"DA/BG-040","program":"gma","name":"Hoher Goell","coordinates":[13.06779957,47.59500122]},{"code":"DA/BG-041","program":"gma","name":"Salzburger Hochthron","coordinates":[13.00500011,47.71780014]},{"code":"DA/BG-057","program":"gma","name":"Windschartenkopf","coordinates":[13.04440022,47.5503006]},{"code":"DA/BG-063","program":"gma","name":"Hochzinken","coordinates":[13.03450012,47.69469833]},{"code":"OE/SB-033","program":"gma","name":"Hoher Göll","coordinates":[13.06690025,47.59420013]},{"code":"OE/SB-204","program":"gma","name":"Salzburger Hochthron","coordinates":[13.00500011,47.7181015]},{"code":"OE/SB-248","program":"gma","name":"Schwarzer Berg","coordinates":[13.23719978,47.60609818]},{"code":"OE/SB-336","program":"gma","name":"Eibleck","coordinates":[13.21,47.743]},{"code":"OE/SB-401","program":"gma","name":"Südlicher Wieselstein","coordinates":[13.2249,47.5343]},{"code":"OE/SB-403","program":"gma","name":"Hinteres Freieck","coordinates":[13.1004,47.5871]},{"code":"OE/SB-404","program":"gma","name":"Hühnerkrall","coordinates":[13.0888,47.5012]},{"code":"OE/SB-407","program":"gma","name":"Hochschottwies","coordinates":[13.1251,47.5141]},{"code":"OE/SB-408","program":"gma","name":"Hochgschirr","coordinates":[13.1147,47.5018]},{"code":"OE/SB-412","program":"gma","name":"Hochwieskopf","coordinates":[13.0996,47.5165]},{"code":"OE/SB-425","program":"gma","name":"Schmittenstein","coordinates":[13.2366,47.6832]},{"code":"OE/SB-432","program":"gma","name":"Wieserhörndl","coordinates":[13.2331,47.7272]},{"code":"OE/SB-454","program":"gma","name":"Sattelberg","coordinates":[13.2407,47.5704]},{"code":"OE/SB-457","program":"gma","name":"Lammeregg","coordinates":[13.2108,47.5818]},{"code":"OE0/SB-1077","program":"gma","name":"Raspenhöhe","coordinates":[13.10389996,47.66030121]},{"code":"OE0/SB-1081","program":"gma","name":"Heuberg","coordinates":[13.11690044,47.6955986]},{"code":"OE0/SB-1082","program":"gma","name":"Georgenberg","coordinates":[13.15970039,47.63499832]},{"code":"OE0/SB-1084","program":"gma","name":"Ahornbüchsenkopf","coordinates":[13.08170033,47.61940002]},{"code":"OE0/SB-1086","program":"gma","name":"Hennenköpfl","coordinates":[13.0927,47.62670898]},{"code":"OE0/SB-1103","program":"gma","name":"Mittleres Streitmandl","coordinates":[13.24530029,47.50249863]},{"code":"OE0/SB-1116","program":"gma","name":"Knallstein","coordinates":[13.23190022,47.54389954]},{"code":"OE0/SB-1129","program":"gma","name":"Tristkopf","coordinates":[13.12469959,47.53279877]},{"code":"OE0/SB-1161","program":"gma","name":"Kleiner Göll","coordinates":[13.12639999,47.58969879]},{"code":"OE0/SB-1170","program":"gma","name":"Schlenken","coordinates":[13.21329975,47.68170166]},{"code":"OE0/SB-1176","program":"gma","name":"Ochsenberg","coordinates":[13.20330048,47.74860001]},{"code":"OE0/SB-1192","program":"gma","name":"Oberalmberg","coordinates":[13.11499977,47.71419907]},{"code":"OE0/SB-1225","program":"gma","name":"Geiereck","coordinates":[13.00873,47.72243]},{"code":"DL/BG-022","program":"sota","name":"Kneifelspitze","coordinates":[13.01738,47.65826]},{"code":"DL/BG-023","program":"sota","name":"Ahornbüchsenkopf","coordinates":[13.081583,47.619606]},{"code":"DL/BG-060","program":"sota","name":"Kahlersberg","coordinates":[13.03199,47.53148]},{"code":"DL/BG-061","program":"sota","name":"Schneibstein","coordinates":[13.05744,47.56217]},{"code":"DL/BG-062","program":"sota","name":"Jenner","coordinates":[13.0203,47.57572]},{"code":"DL/BG-068","program":"sota","name":"Eckberg","coordinates":[13.02263,47.68611]},{"code":"DL/BG-089","program":"sota","name":"Brändlberg","coordinates":[13.0468,47.66411]},{"code":"DL/BG-090","program":"sota","name":"Lercheck","coordinates":[13.06764,47.66179]},{"code":"DL/BG-092","program":"sota","name":"Hohe Götschen","coordinates":[13.06429,47.69576]},{"code":"DL/BG-093","program":"sota","name":"Fagstein","coordinates":[13.03105,47.54903]},{"code":"OE/SB-033","program":"sota","name":"Hoher Göll","coordinates":[13.0669,47.5942]},{"code":"OE/SB-204","program":"sota","name":"Salzburger Hochthron","coordinates":[13.005,47.7181]},{"code":"OE/SB-248","program":"sota","name":"Schwarzer Berg","coordinates":[13.2372,47.6061]},{"code":"OE/SB-336","program":"sota","name":"Eibleck","coordinates":[13.21,47.743]},{"code":"OE/SB-401","program":"sota","name":"Südlicher Wieselstein","coordinates":[13.2249,47.5343]},{"code":"OE/SB-403","program":"sota","name":"Hinteres Freieck","coordinates":[13.1004,47.5871]},{"code":"OE/SB-404","program":"sota","name":"Hühnerkrall","coordinates":[13.0888,47.5012]},{"code":"OE/SB-407","program":"sota","name":"Hochschottwies","coordinates":[13.1251,47.5141]},{"code":"OE/SB-408","program":"sota","name":"Hochgschirr","coordinates":[13.1147,47.5018]},{"code":"OE/SB-412","program":"sota","name":"Hochwieskopf","coordinates":[13.0996,47.5165]},{"code":"OE/SB-425","program":"sota","name":"Schmittenstein","coordinates":[13.2366,47.6832]},{"code":"OE/SB-432","program":"sota","name":"Wieserhörndl","coordinates":[13.2331,47.7272]},{"code":"OE/SB-454","program":"sota","name":"Sattelberg","coordinates":[13.2407,47.5704]},{"code":"OE/SB-457","program":"sota","name":"Lammeregg","coordinates":[13.2108,47.5818]},{"code":"B/DL-0146","program":"wwbota","name":"Obersalzberg Bunker","coordinates":[13.041178,47.631947]}]}