{"lat":47.5,"lon":3.5,"programs":["pota","wwbota"],"count":14,"references":[{"code":"FR-1639","program":"pota","name":"Bois du Parc Provincial Park","coordinates":[3.65055,47.5811]},{"code":"FR-14982","program":"pota","name":"MASSIFS FORESTIERS DU SUD AUXERROIS Biological Reserve","coordinates":[3.611,47.666]},{"code":"FR-14983","program":"pota","name":"VALLEE ET COTEAUX DE L'YONNE DE COULANGES-SUR-YONNE A AUXERRE Biological Reserve","coordinates":[3.644,47.698]},{"code":"FR-14987","program":"pota","name":"BOISEMENTS ET VALLEES DU BORD DE LA CURE ENTRE VERMENTON ET LUCY-SUR-CURE Biological Reserve","coordinates":[3.718,47.644]},{"code":"FR-14988","program":"pota","name":"VALLEE ET COTEAUX DE MAILLY-LA-VILLE Biological Reserve","coordinates":[3.689,47.608]},{"code":"FR-14989","program":"pota","name":"CARRIERE SOUTERRAINE DE MAILLY-LA-VILLE Biological Reserve","coordinates":[3.689,47.589]},{"code":"FR-14990","program":"pota","name":"MARE DE LA CROIX RAMONET A MERRY-SUR-YONNE Biological Reserve","coordinates":[3.679,47.562]},{"code":"FR-14991","program":"pota","name":"MARES ET BOCAGES ENTRE MONTILLOT ET BOIS-D'ARCY Biological Reserve","coordinates":[3.724,47.524]},{"code":"FR-14992","program":"pota","name":"COLLINES CALCAIRES AU BORD DE LA VALLEE DE LA CURE A GIVRY ET MONTILLOT Biological Reserve","coordinates":[3.748,47.525]},{"code":"FR-14994","program":"pota","name":"VALLON ET COTEAUX ENTRE CHAMOUX ET CHATEL-CENSOIR Biological Reserve","coordinates":[3.736,47.515]},{"code":"FR-14995","program":"pota","name":"ROCHERS DU SAUSSOIS, BOIS DE LA TOUR, ROCHE AUX POULETS Biological Reserve","coordinates":[3.65,47.562]},{"code":"FR-14996","program":"pota","name":"COTE DE MAILLY-LE-CHATEAU, BOIS DU PARC ET DU CORMIER Biological Reserve","coordinates":[3.649,47.583]},{"code":"B/F-6462","program":"wwbota","name":"Cravant 1","coordinates":[3.663121,47.699086]},{"code":"B/F-6463","program":"wwbota","name":"Cravant 2","coordinates":[3.667507,47.697775]}]}