{"lat":47.5,"lon":11.5,"programs":["gma","pota","sota"],"count":95,"references":[{"code":"DA/BE-001","program":"gma","name":"Blomberg","coordinates":[11.50329971,47.73559952]},{"code":"DA/BE-002","program":"gma","name":"Heigelkopf","coordinates":[11.51469994,47.72859955]},{"code":"DA/BE-006","program":"gma","name":"Demelspitze","coordinates":[11.54559994,47.67029953]},{"code":"DA/BE-007","program":"gma","name":"Brauneck","coordinates":[11.52560043,47.66500092]},{"code":"DA/BE-008","program":"gma","name":"Schroedelstein","coordinates":[11.52079964,47.66279984]},{"code":"DA/BE-009","program":"gma","name":"Stangeneck","coordinates":[11.50860023,47.66059875]},{"code":"DA/BE-010","program":"gma","name":"Vorderer Kirchstein","coordinates":[11.5031004,47.66059875]},{"code":"DA/BE-014","program":"gma","name":"Anderlkopf","coordinates":[11.56439972,47.61169815]},{"code":"DA/BE-016","program":"gma","name":"Blaickenberg","coordinates":[11.54440022,47.65859985]},{"code":"DA/BE-019","program":"gma","name":"Bruenstkopf","coordinates":[11.51970005,47.59140015]},{"code":"DA/BE-021","program":"gma","name":"Eselauberg","coordinates":[11.54419994,47.65250015]},{"code":"DA/BE-024","program":"gma","name":"Falkenwand","coordinates":[11.50389957,47.58420181]},{"code":"DA/BE-030","program":"gma","name":"Hochbergschneid","coordinates":[11.56919956,47.62189865]},{"code":"DA/BE-034","program":"gma","name":"Katzenkopf","coordinates":[11.51860046,47.65499878]},{"code":"DA/BE-035","program":"gma","name":"Kesselkopf","coordinates":[11.50189972,47.68190002]},{"code":"DA/BE-037","program":"gma","name":"Klausenkopf (2)","coordinates":[11.50389957,47.68640137]},{"code":"DA/BE-038","program":"gma","name":"Kogelberg","coordinates":[11.53470039,47.67580032]},{"code":"DA/BE-039","program":"gma","name":"Kohlberg","coordinates":[11.54609966,47.63970184]},{"code":"DA/BE-044","program":"gma","name":"Laengentalkopf","coordinates":[11.51329994,47.66889954]},{"code":"DA/BE-047","program":"gma","name":"Mitterkopf","coordinates":[11.55609989,47.6114006]},{"code":"DA/BE-049","program":"gma","name":"Paradieskoepfl","coordinates":[11.55669975,47.60720062]},{"code":"DA/BE-056","program":"gma","name":"Schwarzberg","coordinates":[11.5017004,47.5746994]},{"code":"DA/BE-061","program":"gma","name":"Waxenstein (1)","coordinates":[11.54360008,47.66669846]},{"code":"DA/BE-065","program":"gma","name":"Hoher Zwiesler","coordinates":[11.54080009,47.60169983]},{"code":"DA/BE-072","program":"gma","name":"Lettnerberg","coordinates":[11.54249954,47.62139893]},{"code":"DA/BE-074","program":"gma","name":"Rotwand","coordinates":[11.50329971,47.59999847]},{"code":"DA/BE-075","program":"gma","name":"Schindelberg","coordinates":[11.52029991,47.57889938]},{"code":"DA/BE-076","program":"gma","name":"Talkopf","coordinates":[11.56219959,47.61809921]},{"code":"DA/KW-022","program":"gma","name":"Westl.Torjoch","coordinates":[11.50279999,47.50640106]},{"code":"DA/KW-023","program":"gma","name":"Oestl.Torjoch","coordinates":[11.54109955,47.50999832]},{"code":"DA/KW-024","program":"gma","name":"Großer Rhonkopf","coordinates":[11.53691,47.51688]},{"code":"DA/KW-027","program":"gma","name":"Stierjoch","coordinates":[11.51860046,47.51079941]},{"code":"DA/KW-035","program":"gma","name":"Laerchkogel","coordinates":[11.56190014,47.5141983]},{"code":"DA/KW-036","program":"gma","name":"Kotzen","coordinates":[11.51939964,47.53030014]},{"code":"DA/KW-037","program":"gma","name":"Rosskopf","coordinates":[11.52390003,47.55479813]},{"code":"DA/KW-038","program":"gma","name":"Jaegerbergl","coordinates":[11.55879974,47.57820129]},{"code":"DA/MF-001","program":"gma","name":"Muehltahleck","coordinates":[11.65999985,47.6556015]},{"code":"DA/MF-002","program":"gma","name":"Silberkopf","coordinates":[11.70059967,47.65530014]},{"code":"DA/MF-004","program":"gma","name":"Brandkopf","coordinates":[11.65279961,47.65610123]},{"code":"DA/MF-005","program":"gma","name":"Sonnberg","coordinates":[11.67469978,47.62919998]},{"code":"DA/MF-007","program":"gma","name":"Spitzkamp","coordinates":[11.65439987,47.65890121]},{"code":"DA/MF-008","program":"gma","name":"Ochsenkamp","coordinates":[11.66609955,47.66609955]},{"code":"DA/MF-009","program":"gma","name":"Schildenstein","coordinates":[11.72469997,47.59529877]},{"code":"DA/MF-013","program":"gma","name":"Rossstein","coordinates":[11.67609978,47.63389969]},{"code":"DA/MF-041","program":"gma","name":"Semmelberg","coordinates":[11.69559956,47.71250153]},{"code":"DA/MF-051","program":"gma","name":"Neuhütteneck","coordinates":[11.65329,47.67909]},{"code":"DA/MF-055","program":"gma","name":"Schürfenkopf","coordinates":[11.60068,47.72225]},{"code":"DA/MF-056","program":"gma","name":"Schwarzk","coordinates":[11.60806,47.72733]},{"code":"DA/MF-057","program":"gma","name":"Sulzkopf","coordinates":[11.62082,47.72948]},{"code":"DA/MF-060","program":"gma","name":"Reitstein","coordinates":[11.67749977,47.58560181]},{"code":"DA/MF-061","program":"gma","name":"Hochplatte","coordinates":[11.66720009,47.64080048]},{"code":"DA/MF-062","program":"gma","name":"Seekarkreuz","coordinates":[11.64309978,47.65219879]},{"code":"DA/MF-063","program":"gma","name":"Auerkamp","coordinates":[11.65970039,47.66109848]},{"code":"DA/MF-078","program":"gma","name":"Luckenkopf","coordinates":[11.66469955,47.71469879]},{"code":"DA/MF-079","program":"gma","name":"Keilkopf","coordinates":[11.60249996,47.69530106]},{"code":"DA/MF-080","program":"gma","name":"Schweinberg","coordinates":[11.62220001,47.69689941]},{"code":"DA/MF-081","program":"gma","name":"Sattelkopf","coordinates":[11.6722002,47.69419861]},{"code":"DA/MF-082","program":"gma","name":"Hoher Gernbergkopf","coordinates":[11.72669983,47.61439896]},{"code":"DA/MF-088","program":"gma","name":"Breitenkopf","coordinates":[11.63300037,47.61780167]},{"code":"OE/TI-436","program":"gma","name":"Hochunnutz","coordinates":[11.7361002,47.52000046]},{"code":"OE/TI-466","program":"gma","name":"Juifen","coordinates":[11.62580013,47.54330063]},{"code":"OE/TI-649","program":"gma","name":"Stierjoch","coordinates":[11.51860046,47.51079941]},{"code":"OE/TI-663","program":"gma","name":"Natterwand","coordinates":[11.74969959,47.57249832]},{"code":"OE0/TI-1158","program":"gma","name":"Christlumkopf","coordinates":[11.66110039,47.50329971]},{"code":"OE0/TI-1516","program":"gma","name":"Sonntagsspitze","coordinates":[11.64579964,47.50999832]},{"code":"OE0/TI-1520","program":"gma","name":"Hochplatte","coordinates":[11.64999962,47.52809906]},{"code":"OE0/TI-1576","program":"gma","name":"Demeljoch","coordinates":[11.58580017,47.54610062]},{"code":"OE0/TI-1582","program":"gma","name":"Schulterberg","coordinates":[11.64330006,47.55419922]},{"code":"OE0/TI-1583","program":"gma","name":"Pitzkopf","coordinates":[11.6232996,47.55720139]},{"code":"DE-0976","program":"pota","name":"Flyschberge bei Bad Wiessee Flora and Fauna Reserve","coordinates":[11.6699,47.7116]},{"code":"DL/BE-022","program":"sota","name":"Hoher Zwiesler","coordinates":[11.53999,47.60069]},{"code":"DL/BE-028","program":"sota","name":"Brandkopf","coordinates":[11.52325,47.61253]},{"code":"DL/BE-092","program":"sota","name":"Niederskopf","coordinates":[11.50328,47.5769]},{"code":"DL/KW-038","program":"sota","name":"Demeljoch","coordinates":[11.58641,47.54614]},{"code":"DL/MF-001","program":"sota","name":"Geigerstein","coordinates":[11.61998,47.67974]},{"code":"DL/MF-006","program":"sota","name":"Fockenstein","coordinates":[11.65221,47.6844]},{"code":"DL/MF-016","program":"sota","name":"Platteneck","coordinates":[11.71334,47.59151]},{"code":"DL/MF-018","program":"sota","name":"Schönberg","coordinates":[11.64229,47.63851]},{"code":"DL/MF-021","program":"sota","name":"Hirschberg","coordinates":[11.69609,47.6605]},{"code":"DL/MF-024","program":"sota","name":"Buchstein","coordinates":[11.67936,47.63306]},{"code":"DL/MF-094","program":"sota","name":"Rechelkopf","coordinates":[11.62473,47.72231]},{"code":"DL/MF-099","program":"sota","name":"Huder","coordinates":[11.67289,47.69984]},{"code":"DL/MF-102","program":"sota","name":"Saurüsselkopf","coordinates":[11.65187,47.62262]},{"code":"DL/MF-103","program":"sota","name":"Hochalm","coordinates":[11.60411,47.60896]},{"code":"DL/MF-104","program":"sota","name":"Filzenkogel","coordinates":[11.71314,47.64576]},{"code":"DL/MF-105","program":"sota","name":"Leonhardstein","coordinates":[11.71604,47.63697]},{"code":"DL/MF-106","program":"sota","name":"Grüneck","coordinates":[11.72281,47.63234]},{"code":"DL/MF-120","program":"sota","name":"Achselkopf","coordinates":[11.61761,47.58964]},{"code":"OE/TI-436","program":"sota","name":"Hochunnutz","coordinates":[11.7361,47.52]},{"code":"OE/TI-466","program":"sota","name":"Juifen","coordinates":[11.6258,47.5433]},{"code":"OE/TI-649","program":"sota","name":"Stierjoch","coordinates":[11.5186,47.5108]},{"code":"OE/TI-663","program":"sota","name":"Natterwand","coordinates":[11.7497,47.5725]},{"code":"OE/TL-013","program":"sota","name":"Schneckenspitze","coordinates":[11.6492,47.5]},{"code":"OE/TL-023","program":"sota","name":"Rether Kopf","coordinates":[11.6358,47.52]},{"code":"OE/TL-040","program":"sota","name":"Hofjoch","coordinates":[11.7017,47.5633]}]}