{"lat":47.5,"lon":26.5,"programs":["pota"],"count":6,"references":[{"code":"RO-0567","program":"pota","name":"Lacul cu nuferi Park","coordinates":[26.5527,47.746]},{"code":"RO-0568","program":"pota","name":"Mihai Eminescu Park","coordinates":[26.653,47.7427]},{"code":"RO-0569","program":"pota","name":"Curcubeului Park","coordinates":[26.6492,47.7398]},{"code":"RO-0575","program":"pota","name":"Turnul lui Făt-Frumos Park","coordinates":[26.5637,47.7487]},{"code":"RO-0576","program":"pota","name":"Pădurea Baisa Ipotești Protected Area","coordinates":[26.5889,47.7236]},{"code":"RO-0583","program":"pota","name":"Pădurea Tudora National Park","coordinates":[26.6656,47.505]}]}