{"lat":47.5,"lon":14.25,"programs":["gma","sota"],"count":77,"references":[{"code":"OE/OO-011","program":"gma","name":"Großer Pyhrgas","coordinates":[14.39719963,47.65250015]},{"code":"OE/OO-028","program":"gma","name":"Stubwieswipfel","coordinates":[14.30029964,47.65530014]},{"code":"OE/OO-035","program":"gma","name":"Wurzerkampl","coordinates":[14.28670025,47.64250183]},{"code":"OE/OO-183","program":"gma","name":"Scheiblingstein","coordinates":[14.42329979,47.65280151]},{"code":"OE/OO-197","program":"gma","name":"Kreuzmauer","coordinates":[14.44610023,47.65610123]},{"code":"OE/OO-240","program":"gma","name":"Karleck","coordinates":[14.36670017,47.61669922]},{"code":"OE/OO-243","program":"gma","name":"Schwarzkogel","coordinates":[14.48330021,47.68330002]},{"code":"OE/OO-245","program":"gma","name":"Schafkogel","coordinates":[14.4513998,47.67559814]},{"code":"OE/OO-248","program":"gma","name":"Wasserklotz","coordinates":[14.4666996,47.71670151]},{"code":"OE/OO-306","program":"gma","name":"Radingstein","coordinates":[14.29139996,47.74169922]},{"code":"OE/OO-381","program":"gma","name":"Wurberg","coordinates":[14.34220028,47.67559814]},{"code":"OE/OO-385","program":"gma","name":"Gunst","coordinates":[14.31169987,47.72919846]},{"code":"OE/OO-397","program":"gma","name":"Zeitschenberg","coordinates":[14.4456,47.7183]},{"code":"OE/OO-403","program":"gma","name":"Imitzberg","coordinates":[14.3944,47.6953]},{"code":"OE/OO-404","program":"gma","name":"Brunnstein","coordinates":[14.2964,47.6217]},{"code":"OE/OO-410","program":"gma","name":"Gugler","coordinates":[14.4562,47.749]},{"code":"OE/OO-432","program":"gma","name":"Kroneck","coordinates":[14.2722,47.7135]},{"code":"OE/OO-445","program":"gma","name":"Augustinkogel","coordinates":[14.3919,47.7342]},{"code":"OE/OO-447","program":"gma","name":"Langfirst","coordinates":[14.4647,47.7278]},{"code":"OE/ST-070","program":"gma","name":"Hexenturm","coordinates":[14.48110008,47.64580154]},{"code":"OE/ST-118","program":"gma","name":"Bosruck","coordinates":[14.34640026,47.62310028]},{"code":"OE/ST-178","program":"gma","name":"Dürrenschöberl","coordinates":[14.36559963,47.55279922]},{"code":"OE/ST-181","program":"gma","name":"Blosen","coordinates":[14.27140045,47.50059891]},{"code":"OE/ST-185","program":"gma","name":"Pleschberg","coordinates":[14.40250015,47.6108017]},{"code":"OE/ST-374","program":"gma","name":"Mitterberg","coordinates":[14.26169968,47.54169846]},{"code":"OE/ST-398","program":"gma","name":"Klosterkogel","coordinates":[14.4342,47.5508]},{"code":"OE/ST-399","program":"gma","name":"Harting","coordinates":[14.3094,47.5964]},{"code":"OE/ST-405","program":"gma","name":"Rauchschober","coordinates":[14.4833,47.6656]},{"code":"OE/ST-406","program":"gma","name":"Toneck","coordinates":[14.4556,47.5347]},{"code":"OE/ST-407","program":"gma","name":"Hirschriedel","coordinates":[14.2547,47.5936]},{"code":"OE/ST-420","program":"gma","name":"Leichenberg","coordinates":[14.4275,47.5911]},{"code":"OE/ST-548","program":"gma","name":"Salberg","coordinates":[14.2856,47.5737]},{"code":"OE0/OO-1022","program":"gma","name":"Schwarzeck","coordinates":[14.29780006,47.64559937]},{"code":"OE0/OO-1065","program":"gma","name":"Ramesch","coordinates":[14.25059986,47.65219879]},{"code":"OE0/OO-1075","program":"gma","name":"Lahnerkogel","coordinates":[14.33059978,47.6189003]},{"code":"OE0/OO-1086","program":"gma","name":"Mannsberg","coordinates":[14.42560005,47.6719017]},{"code":"OE0/OO-1094","program":"gma","name":"Astein","coordinates":[14.46920013,47.71920013]},{"code":"OE0/OO-1095","program":"gma","name":"Kampermauer","coordinates":[14.48919964,47.69079971]},{"code":"OE0/OO-1114","program":"gma","name":"Wurbauerkogel","coordinates":[14.33969975,47.7256012]},{"code":"OE0/OO-1124","program":"gma","name":"Kleiner Pyhrgas","coordinates":[14.40890026,47.66279984]},{"code":"OE0/OO-1126","program":"gma","name":"Rote Wand","coordinates":[14.27280045,47.65810013]},{"code":"OE0/OO-1192","program":"gma","name":"Seespitz","coordinates":[14.30060005,47.67779922]},{"code":"OE0/OO-1195","program":"gma","name":"Kleinerberg","coordinates":[14.36670017,47.73329926]},{"code":"OE0/ST-1102","program":"gma","name":"Dörfelstein","coordinates":[14.47859955,47.60359955]},{"code":"XOE/OO-442","program":"gma","name":"Langfirst","coordinates":[14.468,47.7279]},{"code":"OE/OO-011","program":"sota","name":"Großer Pyhrgas","coordinates":[14.3972,47.6525]},{"code":"OE/OO-028","program":"sota","name":"Stubwieswipfel","coordinates":[14.2995,47.6548]},{"code":"OE/OO-035","program":"sota","name":"Wurzerkampl","coordinates":[14.286,47.6414]},{"code":"OE/OO-183","program":"sota","name":"Scheiblingstein","coordinates":[14.4233,47.6528]},{"code":"OE/OO-197","program":"sota","name":"Kreuzmauer","coordinates":[14.4461,47.6561]},{"code":"OE/OO-240","program":"sota","name":"Karleck","coordinates":[14.375,47.6311]},{"code":"OE/OO-243","program":"sota","name":"Schwarzkogel","coordinates":[14.4882,47.6965]},{"code":"OE/OO-245","program":"sota","name":"Schafkogel","coordinates":[14.4514,47.6756]},{"code":"OE/OO-248","program":"sota","name":"Wasserklotz","coordinates":[14.4811,47.7211]},{"code":"OE/OO-306","program":"sota","name":"Radingstein","coordinates":[14.2914,47.7417]},{"code":"OE/OO-381","program":"sota","name":"Wurberg","coordinates":[14.3422,47.6756]},{"code":"OE/OO-385","program":"sota","name":"Gunst","coordinates":[14.312,47.7291]},{"code":"OE/OO-397","program":"sota","name":"Zeitschenberg","coordinates":[14.4456,47.7183]},{"code":"OE/OO-403","program":"sota","name":"Imitzberg","coordinates":[14.3944,47.6953]},{"code":"OE/OO-404","program":"sota","name":"Brunnstein","coordinates":[14.2964,47.6217]},{"code":"OE/OO-410","program":"sota","name":"Gugler","coordinates":[14.4563,47.7488]},{"code":"OE/OO-432","program":"sota","name":"Schweizersberg","coordinates":[14.2722,47.7135]},{"code":"OE/OO-445","program":"sota","name":"Augustinkogel","coordinates":[14.3919,47.7342]},{"code":"OE/OO-447","program":"sota","name":"Langfirst","coordinates":[14.4647,47.7278]},{"code":"OE/ST-070","program":"sota","name":"Hexenturm","coordinates":[14.4811,47.6458]},{"code":"OE/ST-118","program":"sota","name":"Bosruck","coordinates":[14.3461,47.623]},{"code":"OE/ST-178","program":"sota","name":"Dürrenschöberl","coordinates":[14.3656,47.5528]},{"code":"OE/ST-181","program":"sota","name":"Blosen","coordinates":[14.2714,47.5006]},{"code":"OE/ST-185","program":"sota","name":"Pleschberg","coordinates":[14.4025,47.6108]},{"code":"OE/ST-374","program":"sota","name":"Mitterberg","coordinates":[14.2617,47.5417]},{"code":"OE/ST-398","program":"sota","name":"Klosterkogel","coordinates":[14.4342,47.5508]},{"code":"OE/ST-399","program":"sota","name":"Harting","coordinates":[14.3094,47.5964]},{"code":"OE/ST-405","program":"sota","name":"Rauchschober","coordinates":[14.4833,47.6656]},{"code":"OE/ST-406","program":"sota","name":"Toneck","coordinates":[14.4556,47.5347]},{"code":"OE/ST-407","program":"sota","name":"Hirschriedel","coordinates":[14.2547,47.5936]},{"code":"OE/ST-420","program":"sota","name":"Leichenberg","coordinates":[14.4275,47.5911]},{"code":"OE/ST-548","program":"sota","name":"Salberg","coordinates":[14.2856,47.5737]}]}