{"lat":47.5,"lon":4.75,"programs":["pota"],"count":10,"references":[{"code":"FR-4425","program":"pota","name":"Massifs forestiers et vallees du chatillonnais Natura 2000","coordinates":[4.75,47.6667]},{"code":"FR-13343","program":"pota","name":"LA TILLE A LE MEIX ET VALLON DU VAU Biological Reserve","coordinates":[4.998,47.607]},{"code":"FR-13348","program":"pota","name":"COTEAU DE LA BONIERE ET VALLEE DE L'IGNON A COURTIVRON ET TARSUL Biological Reserve","coordinates":[4.994,47.54]},{"code":"FR-13349","program":"pota","name":"COMBE DE BELLEFONTAINE, DE CHAMPVAU et L'ABBAYE A MOLOY Biological Reserve","coordinates":[4.928,47.575]},{"code":"FR-13350","program":"pota","name":"VALLEE DE L'IGNON ENTRE FRENOIS ET LAMARGELLE Biological Reserve","coordinates":[4.889,47.528]},{"code":"FR-13351","program":"pota","name":"LAMARGELLE, ROCHERS DU GRAND CHARMOI Biological Reserve","coordinates":[4.846,47.541]},{"code":"FR-13352","program":"pota","name":"COMBES DE LA CHARRIERE ET DE BEDIEN Biological Reserve","coordinates":[4.931,47.529]},{"code":"FR-13403","program":"pota","name":"FORETS DE JUGNY ET DE DUESME, SEINE AMONT ET REVINSON Biological Reserve","coordinates":[4.775,47.582]},{"code":"FR-13405","program":"pota","name":"LE CREUX OUDA Biological Reserve","coordinates":[4.778,47.549]},{"code":"FR-13407","program":"pota","name":"RUISSEAU DE CRUSILLE ET MARAIS DE FOSSILLIERE A ETALANTE ET A ECHALOT Biological Reserve","coordinates":[4.779,47.619]}]}