{"lat":47.5,"lon":-70.75,"programs":["pota","sota"],"count":16,"references":[{"code":"CA-0015","program":"pota","name":"Charlevoix Biosphere Reserve","coordinates":[-70.55,47.6667]},{"code":"CA-0499","program":"pota","name":"Grands-Jardins National Park","coordinates":[-70.6282,47.6671]},{"code":"CA-2326","program":"pota","name":"Zec Des Martres Nature Reserve","coordinates":[-70.6414,47.6814]},{"code":"VE2/CV-012","program":"sota","name":"Mont Dufour","coordinates":[-70.5627,47.6925]},{"code":"VE2/CV-013","program":"sota","name":"Mont Du Lac à Moise","coordinates":[-70.66457,47.67856]},{"code":"VE2/CV-015","program":"sota","name":"Mont Blanc du Grand Lac","coordinates":[-70.699066,47.6211]},{"code":"VE2/CV-027","program":"sota","name":"Mont Eudore-Fortin","coordinates":[-70.57817,47.716976]},{"code":"VE2/CV-045","program":"sota","name":"VE2/CV-045","coordinates":[-70.68403,47.52772]},{"code":"VE2/CV-047","program":"sota","name":"VE2/CV-047","coordinates":[-70.72361,47.545383]},{"code":"VE2/CV-048","program":"sota","name":"Mont des Morios","coordinates":[-70.53794,47.736706]},{"code":"VE2/CV-049","program":"sota","name":"VE2/CV-049","coordinates":[-70.72474,47.64931]},{"code":"VE2/CV-055","program":"sota","name":"VE2/CV-055","coordinates":[-70.702896,47.5957]},{"code":"VE2/CV-063","program":"sota","name":"VE2/CV-063","coordinates":[-70.73559,47.709324]},{"code":"VE2/CV-103","program":"sota","name":"VE2/CV-103","coordinates":[-70.637,47.69699]},{"code":"VE2/CV-105","program":"sota","name":"Montagne des Îlets","coordinates":[-70.69283,47.566166]},{"code":"VE2/QC-079","program":"sota","name":"VE2/QC-079","coordinates":[-70.7285,47.5064]}]}