{"lat":47.5,"lon":12.5,"programs":["gma","pota","sota"],"count":80,"references":[{"code":"DA/CG-013","program":"gma","name":"Groehrkopf","coordinates":[12.56029987,47.74610138]},{"code":"DA/CG-015","program":"gma","name":"Hasenpoint","coordinates":[12.51309967,47.74470139]},{"code":"DA/CG-017","program":"gma","name":"Mansurfer","coordinates":[12.52579975,47.73749924]},{"code":"DA/CG-038","program":"gma","name":"Hoerndlwand","coordinates":[12.58640003,47.70669937]},{"code":"DA/CG-039","program":"gma","name":"Vorderer Rauschberg","coordinates":[12.68389988,47.73249817]},{"code":"DA/CG-040","program":"gma","name":"Streicher","coordinates":[12.71080017,47.73609924]},{"code":"DA/CG-041","program":"gma","name":"Sulzgrabenkopf","coordinates":[12.59140015,47.71720123]},{"code":"DA/CG-042","program":"gma","name":"Unternberg","coordinates":[12.63920021,47.72859955]},{"code":"DA/CG-043","program":"gma","name":"Durlachkopf","coordinates":[12.61439991,47.72389984]},{"code":"DA/CG-048","program":"gma","name":"Reifelberg","coordinates":[12.67780018,47.68220139]},{"code":"DA/CG-049","program":"gma","name":"Hochgern (Sonntagshorn)","coordinates":[12.70499992,47.68080139]},{"code":"DA/CG-050","program":"gma","name":"Fischbachkopf","coordinates":[12.66580009,47.68080139]},{"code":"DA/CG-051","program":"gma","name":"Ochsenhorn","coordinates":[12.71889973,47.68920135]},{"code":"DA/CG-052","program":"gma","name":"Augenstein","coordinates":[12.71689987,47.69889832]},{"code":"DA/CG-054","program":"gma","name":"Wildalphorn","coordinates":[12.62860012,47.67559814]},{"code":"DA/CG-055","program":"gma","name":"Lembergschneid","coordinates":[12.59529972,47.67309952]},{"code":"DA/CG-056","program":"gma","name":"Ochsenlahnerkopf","coordinates":[12.63580036,47.6733017]},{"code":"DA/CG-057","program":"gma","name":"Markkogel","coordinates":[12.52499962,47.63059998]},{"code":"DA/CG-058","program":"gma","name":"Lahnerkogel","coordinates":[12.51970005,47.62829971]},{"code":"DA/CG-075","program":"gma","name":"Aibleck","coordinates":[12.70810032,47.68970108]},{"code":"DA/CG-079","program":"gma","name":"Seekopf","coordinates":[12.62310028,47.70560074]},{"code":"DA/CG-080","program":"gma","name":"Sondersberg","coordinates":[12.55720043,47.65190125]},{"code":"OE/SB-035","program":"gma","name":"Großes Ochsenhorn","coordinates":[12.66059971,47.53829956]},{"code":"OE/SB-223","program":"gma","name":"Grubhörndl","coordinates":[12.66139984,47.59640121]},{"code":"OE/SB-236","program":"gma","name":"Großes Hundshorn","coordinates":[12.74940014,47.58280182]},{"code":"OE/SB-252","program":"gma","name":"Dietrichshorn","coordinates":[12.67420006,47.62220001]},{"code":"OE/SB-391","program":"gma","name":"Großes Reifhorn","coordinates":[12.6433,47.541]},{"code":"OE/SB-423","program":"gma","name":"Hochsäul","coordinates":[12.6694,47.5082]},{"code":"OE/SB-437","program":"gma","name":"Perhorn","coordinates":[12.7341,47.5976]},{"code":"OE/SB-441","program":"gma","name":"Martinsbichl","coordinates":[12.61,47.6492]},{"code":"OE/SB-444","program":"gma","name":"Rauchenberg","coordinates":[12.6866,47.5655]},{"code":"OE/SB-453","program":"gma","name":"Prechlerberg","coordinates":[12.7172,47.6329]},{"code":"OE/TI-238","program":"gma","name":"Mitterhorn","coordinates":[12.62860012,47.54940033]},{"code":"OE/TI-507","program":"gma","name":"Steinplatte","coordinates":[12.5777998,47.60390091]},{"code":"OE/TI-530","program":"gma","name":"Fellhorn","coordinates":[12.50889969,47.61000061]},{"code":"OE/TI-545","program":"gma","name":"Kirchberg","coordinates":[12.53530025,47.53779984]},{"code":"OE/TI-660","program":"gma","name":"Wallerberg","coordinates":[12.53439999,47.51440048]},{"code":"OE0/SB-1070","program":"gma","name":"Thällerer Kogel","coordinates":[12.68220043,47.62580109]},{"code":"OE0/SB-1171","program":"gma","name":"Schönbühel","coordinates":[12.64579964,47.59719849]},{"code":"OE0/SB-1173","program":"gma","name":"Schwarzeck","coordinates":[12.64750004,47.61389923]},{"code":"OE0/SB-1174","program":"gma","name":"Hochgimpling","coordinates":[12.62250042,47.66279984]},{"code":"OE0/SB-1184","program":"gma","name":"Dickkopf","coordinates":[12.65970039,47.65390015]},{"code":"OE0/TI-1063","program":"gma","name":"Rothorn","coordinates":[12.61359978,47.55279922]},{"code":"OE0/TI-1104","program":"gma","name":"Seehorn","coordinates":[12.59939957,47.54499817]},{"code":"OE0/TI-1167","program":"gma","name":"Lahnerkogel","coordinates":[12.51970005,47.62829971]},{"code":"DE-0272","program":"pota","name":"Östliche Chiemgauer Alpen National Park","coordinates":[12.7035,47.7164]},{"code":"DL/CG-015","program":"sota","name":"Haaralmschneid","coordinates":[12.56048,47.74192]},{"code":"DL/CG-055","program":"sota","name":"Gurnwandkopf","coordinates":[12.57886,47.70585]},{"code":"DL/CG-057","program":"sota","name":"Hinterer Rauschberg","coordinates":[12.69606,47.73305]},{"code":"DL/CG-059","program":"sota","name":"Zenokopf","coordinates":[12.71946,47.73458]},{"code":"DL/CG-062","program":"sota","name":"Eisenberg","coordinates":[12.62132,47.72882]},{"code":"DL/CG-072","program":"sota","name":"Sonntagshorn","coordinates":[12.6958,47.68222]},{"code":"DL/CG-082","program":"sota","name":"Dürrnbachhorn","coordinates":[12.60885,47.6739]},{"code":"DL/CG-089","program":"sota","name":"Hochscharten","coordinates":[12.53735,47.70201]},{"code":"DL/CG-090","program":"sota","name":"Rachelspitz","coordinates":[12.5222,47.7092]},{"code":"DL/CG-096","program":"sota","name":"Kl. Rechenberg","coordinates":[12.51764,47.72569]},{"code":"DL/CG-097","program":"sota","name":"Gründberg","coordinates":[12.56037,47.72536]},{"code":"DL/CG-104","program":"sota","name":"Kienbergl","coordinates":[12.74152,47.74634]},{"code":"DL/CG-108","program":"sota","name":"Vorderlahnerkopf","coordinates":[12.684065,47.682564]},{"code":"DL/CG-111","program":"sota","name":"Mühlprachkopf","coordinates":[12.52587,47.66916]},{"code":"DL/CG-112","program":"sota","name":"Stuhlkopf","coordinates":[12.54287,47.68809]},{"code":"DL/CG-113","program":"sota","name":"Saurüsselkopf","coordinates":[12.64932,47.69695]},{"code":"DL/CG-114","program":"sota","name":"Seßseekopf","coordinates":[12.71406,47.71628]},{"code":"OE/SB-035","program":"sota","name":"Großes Ochsenhorn","coordinates":[12.6606,47.5383]},{"code":"OE/SB-223","program":"sota","name":"Grubhörndl","coordinates":[12.6614,47.5964]},{"code":"OE/SB-236","program":"sota","name":"Großes Hundshorn","coordinates":[12.7494,47.5828]},{"code":"OE/SB-252","program":"sota","name":"Dietrichshorn","coordinates":[12.6742,47.6222]},{"code":"OE/SB-391","program":"sota","name":"Großes Reifhorn","coordinates":[12.6433,47.541]},{"code":"OE/SB-423","program":"sota","name":"Hochsäul","coordinates":[12.6694,47.5082]},{"code":"OE/SB-437","program":"sota","name":"Perhorn","coordinates":[12.7341,47.5976]},{"code":"OE/SB-441","program":"sota","name":"Martinsbichl","coordinates":[12.61,47.6492]},{"code":"OE/SB-444","program":"sota","name":"Rauchenberg","coordinates":[12.6866,47.5655]},{"code":"OE/SB-453","program":"sota","name":"Prechlerberg","coordinates":[12.7172,47.6329]},{"code":"OE/TI-238","program":"sota","name":"Mitterhorn","coordinates":[12.6286,47.5494]},{"code":"OE/TI-507","program":"sota","name":"Steinplatte","coordinates":[12.5778,47.6039]},{"code":"OE/TI-530","program":"sota","name":"Fellhorn","coordinates":[12.5089,47.61]},{"code":"OE/TI-545","program":"sota","name":"Kirchberg","coordinates":[12.5353,47.5378]},{"code":"OE/TI-660","program":"sota","name":"Wallerberg","coordinates":[12.5344,47.5144]},{"code":"OE/TL-046","program":"sota","name":"Unterberg","coordinates":[12.6042,47.5108]},{"code":"OE/TL-055","program":"sota","name":"Hochgruendberg","coordinates":[12.5357,47.5649]}]}