{"lat":47.5,"lon":-117,"programs":["pota","sota"],"count":10,"references":[{"code":"US-11331","program":"pota","name":"Mica Bay Boater Park BLM Recreation Management Area","coordinates":[-116.857,47.5947]},{"code":"US-12153","program":"pota","name":"Ross Point BLM Special Recreation Management Area","coordinates":[-116.872,47.7012]},{"code":"US-12229","program":"pota","name":"Blackwell Island Recreation Site BLM Recreation Management Area","coordinates":[-116.805,47.6863]},{"code":"US-12300","program":"pota","name":"Cougar Bay Preserve BLM Recreation Management Area","coordinates":[-116.836,47.6602]},{"code":"W7I/NP-095","program":"sota","name":"Mica Peak","coordinates":[-116.9885,47.6222]},{"code":"W7I/NP-124","program":"sota","name":"South Twin Peaks","coordinates":[-116.9774,47.5657]},{"code":"W7I/NP-174","program":"sota","name":"Red Hog","coordinates":[-116.8699,47.5732]},{"code":"W7I/NP-178","program":"sota","name":"3628","coordinates":[-116.7707,47.5066]},{"code":"W7I/NP-185","program":"sota","name":"3460","coordinates":[-116.893,47.6705]},{"code":"W7I/NP-192","program":"sota","name":"3296","coordinates":[-116.8884,47.6346]}]}