{"lat":47.5,"lon":1.25,"programs":["pota"],"count":12,"references":[{"code":"FR-2573","program":"pota","name":"Vallees de la Grand Pierre et de Vitain Nature Reserve","coordinates":[1.29112,47.6611]},{"code":"FR-4097","program":"pota","name":"Petite Beauce Natura 2000","coordinates":[1.31667,47.7333]},{"code":"FR-4098","program":"pota","name":"Vallee de la Loire du Loir et Cher Natura 2000","coordinates":[1.36167,47.5983]},{"code":"FR-4332","program":"pota","name":"Vallee de la Cisse en amont de Saint-Lubin Natura 2000","coordinates":[1.28972,47.6622]},{"code":"FR-4333","program":"pota","name":"Vallee de la Loire de Mosnes a Tavers Natura 2000","coordinates":[1.37183,47.6069]},{"code":"FR-11954","program":"pota","name":"HAUTE VALLEE DE LA CISSE Biological Reserve","coordinates":[1.316,47.745]},{"code":"FR-11955","program":"pota","name":"PELOUSES DE MOLINAS Biological Reserve","coordinates":[1.325,47.736]},{"code":"FR-11956","program":"pota","name":"PELOUSES DES VOUZOIRS Biological Reserve","coordinates":[1.342,47.742]},{"code":"FR-11957","program":"pota","name":"PELOUSES DE ROQUEZON ET DE LA CAVE Biological Reserve","coordinates":[1.358,47.747]},{"code":"FR-11958","program":"pota","name":"PELOUSES DE CONTREVAUX Biological Reserve","coordinates":[1.289,47.708]},{"code":"FR-11959","program":"pota","name":"MARAIS DES TRESSEAUX Biological Reserve","coordinates":[1.297,47.699]},{"code":"FR-11960","program":"pota","name":"PELOUSES DE LA GRAND PIERRE ET DE VITAIN Biological Reserve","coordinates":[1.289,47.665]}]}