{"lat":47.75,"lon":-4,"programs":["iota","pota","wwbota"],"count":14,"references":[{"code":"EU-094","program":"iota","name":"BRETAGNE","coordinates":[-3.95500004,47.77499962]},{"code":"FR-2880","program":"pota","name":"DUNES ET COTES DE TREVIGNON FR5312010 Natura 2000","coordinates":[-3.88667,47.8064]},{"code":"FR-4348","program":"pota","name":"Dunes et cotes de Trevignon Natura 2000","coordinates":[-3.88667,47.8064]},{"code":"FR-4794","program":"pota","name":"Raguenes Biological Reserve","coordinates":[-3.79131,47.7926]},{"code":"FR-4874","program":"pota","name":"Penfoulic Biological Reserve","coordinates":[-3.99914,47.8999]},{"code":"FR-4876","program":"pota","name":"Anse saint laurent Biological Reserve","coordinates":[-3.94654,47.8984]},{"code":"FR-4877","program":"pota","name":"Anse de pouldohan Biological Reserve","coordinates":[-3.88419,47.8576]},{"code":"FR-4878","program":"pota","name":"Dunes et etangs de kerouiny Biological Reserve","coordinates":[-3.8638,47.8155]},{"code":"FR-6638","program":"pota","name":"Kerdruc Conservation Area","coordinates":[-3.75468,47.8154]},{"code":"FR-7015","program":"pota","name":"DUNES ET ETANGS DE TREVIGNON Biological Reserve","coordinates":[-3.86757,47.8165]},{"code":"FR-7078","program":"pota","name":"POINTE DE TREVIGNON Biological Reserve","coordinates":[-3.85367,47.7918]},{"code":"FR-7657","program":"pota","name":"DUNES PERCHEES DE TREZ CAO, KERSIDAN ET DOURVEIL ET VALLONS ARRIERE-LITTORAUX Biological Reserve","coordinates":[-3.81894,47.8005]},{"code":"FR-12121","program":"pota","name":"VALLEE DE KERGOAT Biological Reserve","coordinates":[-3.809,47.915]},{"code":"B/F-6574","program":"wwbota","name":"Tregunc","coordinates":[-3.852482,47.80281]}]}