{"lat":47.75,"lon":-3.5,"programs":["pota","wwbota"],"count":10,"references":[{"code":"FR-10338","program":"pota","name":"ELLE A TY NADAN Biological Reserve","coordinates":[-3.46429,47.9066]},{"code":"FR-10339","program":"pota","name":"VALLEE DE L'ELLE, DE L'AVAL DU NAIC AUX ROCHES DU DIABLE Biological Reserve","coordinates":[-3.4889,47.9593]},{"code":"FR-10354","program":"pota","name":"SCORFF/FORET DE PONT-CALLECK Biological Reserve","coordinates":[-3.28062,47.9996]},{"code":"FR-10356","program":"pota","name":"FORET DE PONT SCORFF Biological Reserve","coordinates":[-3.39209,47.8313]},{"code":"FR-10357","program":"pota","name":"ETANG DE TRONCHATEAU - TAVARDY Biological Reserve","coordinates":[-3.39353,47.8671]},{"code":"FR-10358","program":"pota","name":"FORET DE PONT CALLECK Biological Reserve","coordinates":[-3.35244,47.9611]},{"code":"FR-10359","program":"pota","name":"SCORFF MEDIAN Biological Reserve","coordinates":[-3.32187,47.9883]},{"code":"FR-10360","program":"pota","name":"ETANG DE PONT-CALLECK Biological Reserve","coordinates":[-3.3344,47.9998]},{"code":"FR-12134","program":"pota","name":"BOIS DE TREMELIN Biological Reserve","coordinates":[-3.258,47.855]},{"code":"B/F-7053","program":"wwbota","name":"Radio Club F6KPQ","coordinates":[-3.315765,47.761942]}]}