{"lat":47.75,"lon":-1.5,"programs":["pota"],"count":7,"references":[{"code":"FR-12193","program":"pota","name":"ETANG DE CARCRAON Biological Reserve","coordinates":[-1.252,47.97]},{"code":"FR-12194","program":"pota","name":"ETANG DE MARCILLE-ROBERT Biological Reserve","coordinates":[-1.356,47.947]},{"code":"FR-12195","program":"pota","name":"FORET D'ARAIZE ET ETANG DE SAINT-MORAND Biological Reserve","coordinates":[-1.276,47.791]},{"code":"FR-12196","program":"pota","name":"FORET D'ARAIZE Biological Reserve","coordinates":[-1.255,47.79]},{"code":"FR-12198","program":"pota","name":"FORET DE JAVARDAN Biological Reserve","coordinates":[-1.386,47.803]},{"code":"FR-12199","program":"pota","name":"COURS DE LA BRUTZ ET ABORDS. Biological Reserve","coordinates":[-1.398,47.782]},{"code":"FR-12200","program":"pota","name":"PRAIRIES TOURBEUSES ET ETANG DU MOULIN DU HAUT Biological Reserve","coordinates":[-1.363,47.85]}]}