{"lat":47.75,"lon":-2.25,"programs":["pota"],"count":8,"references":[{"code":"FR-12222","program":"pota","name":"PRAIRIE TOURBEUSE DES LANDES DE COUESME - FONDEMAY Biological Reserve","coordinates":[-2.19,47.783]},{"code":"FR-12270","program":"pota","name":"ETANG DE LIVRY Biological Reserve","coordinates":[-2.019,47.951]},{"code":"FR-12271","program":"pota","name":"BOIS DU PLESSIX Biological Reserve","coordinates":[-2.096,47.947]},{"code":"FR-12272","program":"pota","name":"LANDES DE MONTENEUF Biological Reserve","coordinates":[-2.187,47.881]},{"code":"FR-12276","program":"pota","name":"LANDES TOURBEUSES DE COETQUIDAN Biological Reserve","coordinates":[-2.202,47.932]},{"code":"FR-12277","program":"pota","name":"FORET DE PAIMPONT 2 Biological Reserve","coordinates":[-2.209,47.954]},{"code":"FR-12278","program":"pota","name":"L'AFF Biological Reserve","coordinates":[-2.171,47.981]},{"code":"FR-12280","program":"pota","name":"LA BOUTIQUE SOUSINGUE Biological Reserve","coordinates":[-2.237,47.994]}]}