{"lat":47.75,"lon":-124,"programs":["sota"],"count":7,"references":[{"code":"W7W/NO-017","program":"sota","name":"Mount Tom","coordinates":[-123.7579,47.793]},{"code":"W7W/NO-094","program":"sota","name":"Boulder Peak","coordinates":[-123.7578,47.9718]},{"code":"W7W/NO-096","program":"sota","name":"Hoh Peak","coordinates":[-123.8248,47.7866]},{"code":"W7W/NO-130","program":"sota","name":"4425 Blackwood Peak","coordinates":[-123.8828,47.9362]},{"code":"W7W/NO-136","program":"sota","name":"3875 Superhetrodyne Mtn","coordinates":[-123.9825,47.99]},{"code":"W7W/NO-138","program":"sota","name":"3780 Mt Sensitivity","coordinates":[-123.8727,47.7515]},{"code":"W7W/NO-264","program":"sota","name":"Bogachiel Peak","coordinates":[-123.7775,47.9053]}]}