{"lat":47.75,"lon":18.75,"programs":["gma","pota","sota"],"count":58,"references":[{"code":"HG/EM-201","program":"gma","name":"Dob脙鲁-b脙漏rc","coordinates":[18.9779,47.9687]},{"code":"HG/EM-202","program":"gma","name":"Pog脙隆nyv脙隆r","coordinates":[18.9624,47.9569]},{"code":"HG/EM-203","program":"gma","name":"Hossz脙潞-b脙漏rc","coordinates":[18.9783,47.9385]},{"code":"HG/KD-281","program":"gma","name":"B脙漏la-tet脙碌 (Pilisszentl脙漏lek)","coordinates":[18.8117,47.7595]},{"code":"HG/KD-282","program":"gma","name":"Dobog脙鲁 (Esztergom-B脙潞b脙隆natv脙露lgy)","coordinates":[18.8139,47.7874]},{"code":"HG/KD-287","program":"gma","name":"Hossz脙潞-hegy (Pilisszentl脙漏lek)","coordinates":[18.8686,47.7522]},{"code":"HG/KD-288","program":"gma","name":"Istv脙隆n-hegy (Pilisszentl脙漏lek)","coordinates":[18.823,47.7503]},{"code":"HG/KD-292","program":"gma","name":"Sas-hegy (Esztergom-B脙潞b脙隆natv脙露lgy)","coordinates":[18.8264,47.8102]},{"code":"HG/KM-213","program":"gma","name":"Kopasz-hegy (M脙隆rianosztra)","coordinates":[18.8858,47.8799]},{"code":"HG/KM-214","program":"gma","name":"S脙隆kola-tet脙碌 (Letk脙漏s)","coordinates":[18.8222,47.896]},{"code":"HG/KM-215","program":"gma","name":"Sz脙漏les-hegy (Letk脙漏s)","coordinates":[18.8396,47.8889]},{"code":"HG/KM-216","program":"gma","name":"S脙鲁-hegy (Nagy脙颅rt脙隆spuszta)","coordinates":[18.8899,47.8924]},{"code":"HG/KM-217","program":"gma","name":"Zuv脙隆ri-hegy (M脙隆rianosztra)","coordinates":[18.8483,47.86]},{"code":"HG/KM-218","program":"gma","name":"Hegyes-hegy (Nagyb脙露rzs脙露ny)","coordinates":[18.8639,47.9269]},{"code":"HG/KM-219","program":"gma","name":"Hagyes-hegy (Nagyb脙露rzs脙露ny)","coordinates":[18.8499,47.9538]},{"code":"HG/KM-220","program":"gma","name":"Holl脙鲁-k脙碌 (Per脜鈥榗s脙漏ny)","coordinates":[18.8827,47.972]},{"code":"HG/KM-221","program":"gma","name":"Hossz脙潞-b脙漏rc (Nagyb脙露rzs脙露ny)","coordinates":[18.8552,47.9171]},{"code":"HG/KM-222","program":"gma","name":"Magyal-hegy (Nagyb脙露rzs脙露ny)","coordinates":[18.8719,47.9488]},{"code":"HG/KM-223","program":"gma","name":"Sz脙隆raz-fa-b脙漏rc (Nagyb脙露rzs脙露ny)","coordinates":[18.8787,47.9226]},{"code":"HG/KM-224","program":"gma","name":"G脙露mb脙露ly脙禄-k脙碌 (Nagyb脙露rzs脙露ny)","coordinates":[18.8339,47.913]},{"code":"HG/KM-225","program":"gma","name":"Jancsi-hegy (Per脜鈥榗s脙漏ny)","coordinates":[18.8877,47.9792]},{"code":"HG/KM-226","program":"gma","name":"Kis-Kopp脙隆ny (Nagyb脙露rzs脙露ny)","coordinates":[18.8391,47.9058]},{"code":"HG/KM-227","program":"gma","name":"Tolm脙隆cs-hegy (Nagy脙颅rt脙隆spuszta)","coordinates":[18.8686,47.9109]},{"code":"HG/KM-257","program":"gma","name":"Hegyes-tet脙碌 (Julianus-kil脙隆t脙鲁)","coordinates":[18.9336,47.7841]},{"code":"HG/KM-258","program":"gma","name":"L脙鲁czi-pihen脙碌","coordinates":[18.9288,47.7909]},{"code":"HG/KM-259","program":"gma","name":"Nagy-Vill脙隆m","coordinates":[18.9923,47.7956]},{"code":"HG/KM-261","program":"gma","name":"脙拧j-hegy","coordinates":[18.9815,47.7749]},{"code":"HG/KM-262","program":"gma","name":"Fekete-hegy","coordinates":[18.9841,47.788]},{"code":"HG/KM-263","program":"gma","name":"Fellegv脙隆r","coordinates":[18.9804,47.7936]},{"code":"HG/KM-264","program":"gma","name":"Kapu-hegy","coordinates":[18.9514,47.8094]},{"code":"HG/KM-265","program":"gma","name":"Kis-Vill脙隆m","coordinates":[18.9901,47.8021]},{"code":"HG/KM-266","program":"gma","name":"Malom-hegy","coordinates":[18.9056,47.8164]},{"code":"HG/KM-267","program":"gma","name":"Nacsapereg","coordinates":[18.988,47.8477]},{"code":"HG/KM-268","program":"gma","name":"V脙隆rhegy","coordinates":[18.982,47.894]},{"code":"HG/KM-269","program":"gma","name":"S脙鲁-hegy","coordinates":[18.9692,47.8246]},{"code":"HG/KM-270","program":"gma","name":"Nagy-M脙隆na","coordinates":[18.9633,47.9661]},{"code":"HG/KM-271","program":"gma","name":"Nagy-Hideg-hegy","coordinates":[18.9226,47.937]},{"code":"HG/KM-272","program":"gma","name":"Halyagos","coordinates":[18.9102,47.9601]},{"code":"HG/KM-273","program":"gma","name":"Lopona-f脙碌","coordinates":[18.9709,47.9953]},{"code":"HG/KM-274","program":"gma","name":"Magas-Tax","coordinates":[18.9368,47.923]},{"code":"HG/KM-275","program":"gma","name":"Nagy-In脙鲁c","coordinates":[18.9147,47.9219]},{"code":"HG/KM-276","program":"gma","name":"God脙鲁v脙隆r","coordinates":[18.9057,47.9798]},{"code":"HG/KM-277","program":"gma","name":"Magosfa","coordinates":[18.9386,47.9577]},{"code":"HG/KM-278","program":"gma","name":"Rakotty脙隆s-b脙漏rc","coordinates":[18.9521,47.9711]},{"code":"HG/KM-279","program":"gma","name":"Kis-Hideg-hegy","coordinates":[18.9078,47.9419]},{"code":"HU-0114","program":"pota","name":"Helemba island Natura 2000","coordinates":[18.7968,47.8207]},{"code":"HA/KD-025","program":"sota","name":"Vaskapu","coordinates":[18.7747,47.7867]},{"code":"HA/KD-054","program":"sota","name":"Szam谩r-hegy","coordinates":[18.7981,47.8086]},{"code":"HA/KM-001","program":"sota","name":"Cs贸v谩nyos","coordinates":[18.94806,47.94861]},{"code":"HA/KM-003","program":"sota","name":"V谩r-b眉kk","coordinates":[18.8775,47.95778]},{"code":"HA/KM-008","program":"sota","name":"Bugyih贸","coordinates":[18.98861,47.9875]},{"code":"HA/KM-009","program":"sota","name":"Nagy-Sas-hegy","coordinates":[18.89194,47.8975]},{"code":"HA/KM-020","program":"sota","name":"Tar P茅ter-hegy","coordinates":[18.95944,47.87806]},{"code":"HA/KM-023","program":"sota","name":"Szent Mih谩ly-hegy","coordinates":[18.92778,47.77583]},{"code":"HA/KM-024","program":"sota","name":"Nagy-Galla","coordinates":[18.82722,47.875]},{"code":"HA/KM-032","program":"sota","name":"Nagy-Kopp谩ny","coordinates":[18.85222,47.89889]},{"code":"HA/KM-033","program":"sota","name":"Cs谩k-hegy","coordinates":[18.86583,47.855]},{"code":"OM/NR-008","program":"sota","name":"Burdov","coordinates":[18.7808,47.8327]}]}