{"lat":47.75,"lon":24.25,"programs":["gma","pota","sota"],"count":14,"references":[{"code":"YP/EC-007","program":"gma","name":"Pop Ivan","coordinates":[24.32749939,47.92419815]},{"code":"YP/EC-008","program":"gma","name":"Mica Mare","coordinates":[24.4741993,47.96250153]},{"code":"RO-0601","program":"pota","name":"Vârful Farcău - Lacul Vinderelu - Vârful Mihăilecu National Reserve","coordinates":[24.4555,47.9089]},{"code":"RO-1168","program":"pota","name":"Cabana Coşnea – valea Paulic – Stanisoara – Vf. Mihailecu –Lacul Vinderel National Scenic Trail","coordinates":[24.4758,47.9038]},{"code":"UT/CA-005","program":"sota","name":"Поп Иван (Pop Ivan)","coordinates":[24.3272,47.924]},{"code":"UT/CA-008","program":"sota","name":"Мика-Маре (Mika-Mare)","coordinates":[24.4741,47.9622]},{"code":"UT/CA-011","program":"sota","name":"Петрос (Petros)","coordinates":[24.3381,47.9624]},{"code":"UT/CA-019","program":"sota","name":"Берлебашка (Berlebashka)","coordinates":[24.3157,47.9533]},{"code":"UT/CA-067","program":"sota","name":"Мегура (Megura)","coordinates":[24.2832,47.9903]},{"code":"YO/EC-048","program":"sota","name":"Farcău","coordinates":[24.45,47.9217]},{"code":"YO/EC-054","program":"sota","name":"Mihăilecu","coordinates":[24.465,47.9058]},{"code":"YO/EC-277","program":"sota","name":"Maxim","coordinates":[24.3825,47.7925]},{"code":"YO/EC-545","program":"sota","name":"Vâjii","coordinates":[24.3467,47.8667]},{"code":"YO/EC-575","program":"sota","name":"Minciul","coordinates":[24.4892,47.8083]}]}