{"lat":47.75,"lon":5.25,"programs":["pota","sota"],"count":5,"references":[{"code":"FR-3421","program":"pota","name":"Rebord du plateau de Langres a Cohons et Chalindrey FR2100248 Natura 2000","coordinates":[5.395,47.8008]},{"code":"FR-3535","program":"pota","name":"Tufiere de Rolampont FR2100278 Natura 2000","coordinates":[5.25556,47.9478]},{"code":"FR-3580","program":"pota","name":"Ouvrages militaires de la region de Langres FR2100337 Natura 2000","coordinates":[5.30778,47.8303]},{"code":"FR-3581","program":"pota","name":"Fort de Dampierre ou Magalotti FR2100338 Natura 2000","coordinates":[5.42722,47.9592]},{"code":"FL/NO-046","program":"sota","name":"Fort de Dampierre","coordinates":[5.4291,47.9608]}]}