{"lat":47.75,"lon":27.25,"programs":["pota"],"count":5,"references":[{"code":"MD-0157","program":"pota","name":"Rezervația silvică Lucăceni Forest Reserve","coordinates":[27.316,47.8648]},{"code":"MD-0167","program":"pota","name":"Rezervația silvică Pocimbeni Forest Reserve","coordinates":[27.2621,47.9898]},{"code":"MD-0172","program":"pota","name":"Rezervația silvică Șaptebani Forest Reserve","coordinates":[27.3393,47.9283]},{"code":"MD-0177","program":"pota","name":"Rezervația silvică Stânca Forest Reserve","coordinates":[27.2936,47.9297]},{"code":"MD-0224","program":"pota","name":"Rezervația peisagistică Suta de movile Landscape Reserve","coordinates":[27.2842,47.7957]}]}