{"lat":47.75,"lon":15.25,"programs":["gma","sota"],"count":62,"references":[{"code":"OE/NO-008","program":"gma","name":"Göller","coordinates":[15.49190044,47.79330063]},{"code":"OE/NO-037","program":"gma","name":"Großer Sulzberg","coordinates":[15.38389969,47.83890152]},{"code":"OE/NO-041","program":"gma","name":"Tirolerkogel","coordinates":[15.42080021,47.87360001]},{"code":"OE/NO-048","program":"gma","name":"Hennesteck","coordinates":[15.3597002,47.89250183]},{"code":"OE/NO-064","program":"gma","name":"Hohenstein","coordinates":[15.49860001,47.9844017]},{"code":"OE/NO-066","program":"gma","name":"Eisenstein","coordinates":[15.43970013,47.95970154]},{"code":"OE/NO-098","program":"gma","name":"Schnabelstein","coordinates":[15.38720036,47.98389816]},{"code":"OE/NO-220","program":"gma","name":"Großer Kegel","coordinates":[15.3956,47.9014]},{"code":"OE/NO-221","program":"gma","name":"Brandmäuer","coordinates":[15.2578,47.9094]},{"code":"OE/NO-222","program":"gma","name":"Enzian","coordinates":[15.4878,47.86]},{"code":"OE/NO-232","program":"gma","name":"Hochstadelberg","coordinates":[15.3219,47.8849]},{"code":"OE/NO-234","program":"gma","name":"Großer Koller","coordinates":[15.2805,47.8681]},{"code":"OE/NO-237","program":"gma","name":"Anestberg","coordinates":[15.4914,47.9703]},{"code":"OE/NO-240","program":"gma","name":"Gromann","coordinates":[15.3422,47.9538]},{"code":"OE/NO-248","program":"gma","name":"Schwarzenberg","coordinates":[15.4358,47.985]},{"code":"OE/NO-263","program":"gma","name":"Sonnberg","coordinates":[15.3465,47.9733]},{"code":"OE/NO-284","program":"gma","name":"Bichleralpe","coordinates":[15.3375,47.8367]},{"code":"OE/NO-286","program":"gma","name":"Hoher Ulreichberg","coordinates":[15.4428,47.8272]},{"code":"OE/NO-287","program":"gma","name":"Scheiblingberg","coordinates":[15.3878,47.8642]},{"code":"OE/NO-290","program":"gma","name":"Mäuerlberg","coordinates":[15.2783,47.935]},{"code":"OE/NO-308","program":"gma","name":"Holzerberg","coordinates":[15.3142,47.9583]},{"code":"OE/NO-313","program":"gma","name":"Thorriegl","coordinates":[15.2944,47.9497]},{"code":"OE/ST-229","program":"gma","name":"Wildalpe","coordinates":[15.45580006,47.75360107]},{"code":"OE/ST-265","program":"gma","name":"Bürgeralpe","coordinates":[15.32919979,47.78779984]},{"code":"OE/ST-552","program":"gma","name":"Schwarzkogel","coordinates":[15.4017,47.785]},{"code":"OE/ST-568","program":"gma","name":"Schindelkogel","coordinates":[15.3423,47.8221]},{"code":"OE/ST-570","program":"gma","name":"Sonneck","coordinates":[15.3283,47.8042]},{"code":"OE/ST-573","program":"gma","name":"Rasingberg","coordinates":[15.2806,47.777]},{"code":"OE/ST-574","program":"gma","name":"Grosser Kainz","coordinates":[15.265,47.7875]},{"code":"OE0/NO-1019","program":"gma","name":"Alpl","coordinates":[15.32579994,47.8431015]},{"code":"OE0/NO-1026","program":"gma","name":"Schafkogel","coordinates":[15.43830013,47.89279938]},{"code":"OE0/NO-1033","program":"gma","name":"Eibl","coordinates":[15.4527998,47.91579819]},{"code":"OE0/ST-1080","program":"gma","name":"Feldhütl","coordinates":[15.25469971,47.75500107]},{"code":"OE/NO-008","program":"sota","name":"Göller","coordinates":[15.4919,47.7936]},{"code":"OE/NO-037","program":"sota","name":"Großer Sulzberg","coordinates":[15.3839,47.8389]},{"code":"OE/NO-041","program":"sota","name":"Tirolerkogel","coordinates":[15.4214,47.8739]},{"code":"OE/NO-048","program":"sota","name":"Hennesteck","coordinates":[15.3597,47.8925]},{"code":"OE/NO-064","program":"sota","name":"Hohenstein","coordinates":[15.4986,47.9844]},{"code":"OE/NO-066","program":"sota","name":"Eisenstein","coordinates":[15.4397,47.9597]},{"code":"OE/NO-098","program":"sota","name":"Schnabelstein","coordinates":[15.3872,47.9839]},{"code":"OE/NO-220","program":"sota","name":"Großer Kegel","coordinates":[15.3956,47.9014]},{"code":"OE/NO-221","program":"sota","name":"Brandmäuer","coordinates":[15.2578,47.9094]},{"code":"OE/NO-222","program":"sota","name":"Enzian","coordinates":[15.4878,47.86]},{"code":"OE/NO-232","program":"sota","name":"Hochstadelberg","coordinates":[15.3219,47.8849]},{"code":"OE/NO-234","program":"sota","name":"Großer Koller","coordinates":[15.2805,47.8681]},{"code":"OE/NO-237","program":"sota","name":"Anestberg","coordinates":[15.4914,47.9703]},{"code":"OE/NO-240","program":"sota","name":"Gromann","coordinates":[15.3422,47.9538]},{"code":"OE/NO-248","program":"sota","name":"Schwarzenberg","coordinates":[15.4358,47.985]},{"code":"OE/NO-263","program":"sota","name":"Sonnberg","coordinates":[15.3465,47.9733]},{"code":"OE/NO-284","program":"sota","name":"Bichleralpe","coordinates":[15.3375,47.8367]},{"code":"OE/NO-286","program":"sota","name":"Hoher Ulreichberg","coordinates":[15.4428,47.8272]},{"code":"OE/NO-287","program":"sota","name":"Scheiblingberg","coordinates":[15.3878,47.8642]},{"code":"OE/NO-290","program":"sota","name":"Mäuerlberg","coordinates":[15.2783,47.935]},{"code":"OE/NO-308","program":"sota","name":"Holzerberg","coordinates":[15.3142,47.9583]},{"code":"OE/NO-313","program":"sota","name":"Thorriegl","coordinates":[15.2944,47.9497]},{"code":"OE/ST-229","program":"sota","name":"Wildalpe","coordinates":[15.4558,47.7536]},{"code":"OE/ST-265","program":"sota","name":"Bürgeralpe","coordinates":[15.3292,47.7878]},{"code":"OE/ST-552","program":"sota","name":"Schwarzkogel","coordinates":[15.4017,47.785]},{"code":"OE/ST-568","program":"sota","name":"Schindelkogel","coordinates":[15.3423,47.8221]},{"code":"OE/ST-570","program":"sota","name":"Sonneck","coordinates":[15.3283,47.8042]},{"code":"OE/ST-573","program":"sota","name":"Rasingberg","coordinates":[15.2806,47.777]},{"code":"OE/ST-574","program":"sota","name":"Grosser Kainz","coordinates":[15.265,47.7875]}]}