{"lat":47.75,"lon":12.75,"programs":["gma","pota","sota"],"count":17,"references":[{"code":"DA/BG-001","program":"gma","name":"Mittelstaufen","coordinates":[12.83530045,47.75640106]},{"code":"DA/BG-042","program":"gma","name":"Gamsknogel ","coordinates":[12.80477,47.75529]},{"code":"DA/CG-085","program":"gma","name":"Grosswald","coordinates":[12.81760025,47.78499985]},{"code":"OE/SB-294","program":"gma","name":"Haunsberg","coordinates":[12.9968996,47.91500092]},{"code":"AT-0337","program":"pota","name":"Bürmooser Moor Nature Conservation Reserve","coordinates":[12.9278,47.9994]},{"code":"DE-0273","program":"pota","name":"Schönramer Filz National Recreation Area","coordinates":[12.8595,47.8987]},{"code":"DE-0299","program":"pota","name":"Moore im Salzach-Hügelland Natura 2000","coordinates":[12.7578,47.8959]},{"code":"DE-0317","program":"pota","name":"Abtsdorfer See Recreation Park","coordinates":[12.9068,47.9093]},{"code":"DE-0319","program":"pota","name":"Waginger See Recreation Park","coordinates":[12.7764,47.9366]},{"code":"DE-0442","program":"pota","name":"Ainringer Moos Landscape Reserve","coordinates":[12.9264,47.8279]},{"code":"DE-0889","program":"pota","name":"Marzoller Au Flora and Fauna Reserve","coordinates":[12.9138,47.7546]},{"code":"DE-1003","program":"pota","name":"Berchtesgadener Land Biosphere Reserve","coordinates":[12.8406,47.7829]},{"code":"DL/BG-001","program":"sota","name":"Zwiesel","coordinates":[12.81408,47.75571]},{"code":"DL/BG-003","program":"sota","name":"Hochstaufen","coordinates":[12.84878,47.75492]},{"code":"DL/CG-102","program":"sota","name":"Teisenberg","coordinates":[12.76815,47.80562]},{"code":"DL/CG-107","program":"sota","name":"Högl","coordinates":[12.89985,47.80809]},{"code":"OE/SB-294","program":"sota","name":"Haunsberg","coordinates":[12.9965,47.9151]}]}