{"lat":47.75,"lon":0.25,"programs":["pota"],"count":17,"references":[{"code":"FR-3639","program":"pota","name":"VALLEE DU NARAIS FORET DE BERCE ET RUISSEAU DU DINAN  FR5200647 Natura 2000","coordinates":[0.37472,47.8931]},{"code":"FR-6990","program":"pota","name":"VALLEE DU NARAIS ET AFFLUENTS Biological Reserve","coordinates":[0.39435,47.946]},{"code":"FR-6992","program":"pota","name":"PRAIRIES TOURBEUSES DE COMBRAY Biological Reserve","coordinates":[0.44393,47.9951]},{"code":"FR-6993","program":"pota","name":"ETANGS ET BOIS DE LOUDON Biological Reserve","coordinates":[0.3746,47.9733]},{"code":"FR-6994","program":"pota","name":"VALLON DE L'ETANG DE GARDONNIERE Biological Reserve","coordinates":[0.41629,47.9666]},{"code":"FR-6995","program":"pota","name":"VALLEE DU NARAIS, DE LA HUNE ET DU VIVIER, DU MOULIN DE BEGAULT A GRIPOUCE Biological Reserve","coordinates":[0.42624,47.9435]},{"code":"FR-6996","program":"pota","name":"ZONE TOURBEUSE DE CANADA Biological Reserve","coordinates":[0.40613,47.9219]},{"code":"FR-6997","program":"pota","name":"VALLEE DU VIVIER A L'EST DE LA BLOTTIERE Biological Reserve","coordinates":[0.42755,47.9101]},{"code":"FR-6998","program":"pota","name":"SOURCE DU VIVIER AU SUD DE VAUJOUIN Biological Reserve","coordinates":[0.42542,47.8875]},{"code":"FR-6999","program":"pota","name":"VALLEE DU RUISSEAU DU PONT AUX BREBIS Biological Reserve","coordinates":[0.37415,47.8994]},{"code":"FR-7000","program":"pota","name":"ALENTOURS DE LA D. 52 AU NORD DE LA CROIX DES PIERRES Biological Reserve","coordinates":[0.34689,47.8944]},{"code":"FR-7001","program":"pota","name":"SOURCE DU NARAIS ET ALENTOURS DE GRAMMONT Biological Reserve","coordinates":[0.37957,47.8552]},{"code":"FR-7002","program":"pota","name":"MASSIFS FORESTIERS DE SAMBRIS ET DU MINERAIS Biological Reserve","coordinates":[0.41377,47.8597]},{"code":"FR-7003","program":"pota","name":"RUISSELET DES MORTONNIERES Biological Reserve","coordinates":[0.44918,47.8087]},{"code":"FR-7004","program":"pota","name":"MASSIF FORESTIER DE BERCE ET RUISSEAU DU DINAN Biological Reserve","coordinates":[0.39689,47.7876]},{"code":"FR-7005","program":"pota","name":"ETANG DES SALLES Biological Reserve","coordinates":[0.36302,47.773]},{"code":"FR-10768","program":"pota","name":"COTEAU DE BALTAZAR Biological Reserve","coordinates":[0.43064,47.7894]}]}