{"lat":47.75,"lon":16.75,"programs":["pota"],"count":6,"references":[{"code":"AT-0008","program":"pota","name":"Neusiedel Mole West State Harbor","coordinates":[16.8348,47.9289]},{"code":"AT-0034","program":"pota","name":"Neusiedler See Natura 2000 Nature Reserve","coordinates":[16.7681,47.8576]},{"code":"AT-0040","program":"pota","name":"Neusiedler See Seewinkel National Park","coordinates":[16.7979,47.7707]},{"code":"AT-0241","program":"pota","name":"Hackelsberg Protected Area","coordinates":[16.774,47.954]},{"code":"AT-0242","program":"pota","name":"Jungerberg Protected Area","coordinates":[16.7787,47.9605]},{"code":"AT-0260","program":"pota","name":"Pfarrwiesen Illmitz Protected Area","coordinates":[16.817,47.7631]}]}