{"lat":47.75,"lon":15.5,"programs":["gma","pota","sota"],"count":60,"references":[{"code":"OE/NO-013","program":"gma","name":"Gippel","coordinates":[15.58059978,47.7983017]},{"code":"OE/NO-016","program":"gma","name":"Großer SonnleitÃ‚Â­stein","coordinates":[15.6388998,47.75189972]},{"code":"OE/NO-032","program":"gma","name":"Obersberg (Ahornberg)","coordinates":[15.66559982,47.81470108]},{"code":"OE/NO-038","program":"gma","name":"Reisalpe","coordinates":[15.66359997,47.95640182]},{"code":"OE/NO-044","program":"gma","name":"Türnitzer Höger","coordinates":[15.55609989,47.91970062]},{"code":"OE/NO-045","program":"gma","name":"Handlesberg","coordinates":[15.73970032,47.82559967]},{"code":"OE/NO-050","program":"gma","name":"Hinteralm","coordinates":[15.61060047,47.97190094]},{"code":"OE/NO-057","program":"gma","name":"Jochart","coordinates":[15.71189976,47.91220093]},{"code":"OE/NO-058","program":"gma","name":"Paulmauer","coordinates":[15.56779957,47.88169861]},{"code":"OE/NO-065","program":"gma","name":"Großer Fegenberg","coordinates":[15.72000027,47.7806015]},{"code":"OE/NO-073","program":"gma","name":"Haselstein","coordinates":[15.62689972,47.8492012]},{"code":"OE/NO-087","program":"gma","name":"Sulzberg","coordinates":[15.67169952,47.8492012]},{"code":"OE/NO-210","program":"gma","name":"Donnerkogel","coordinates":[15.6175,47.7669]},{"code":"OE/NO-212","program":"gma","name":"Mitterberg","coordinates":[15.5733,47.7681]},{"code":"OE/NO-219","program":"gma","name":"Hochstaff","coordinates":[15.6901,47.9704]},{"code":"OE/NO-224","program":"gma","name":"Hegerberg","coordinates":[15.6672,47.9026]},{"code":"OE/NO-230","program":"gma","name":"Sonnberg","coordinates":[15.5153,47.8311]},{"code":"OE/NO-235","program":"gma","name":"Edlaberg","coordinates":[15.7402,47.8794]},{"code":"OE/NO-264","program":"gma","name":"Gamsmauer","coordinates":[15.5509,47.7866]},{"code":"OE/NO-289","program":"gma","name":"Größenberg","coordinates":[15.6825,47.8708]},{"code":"OE/NO-292","program":"gma","name":"Baumeckkogel","coordinates":[15.7297,47.7964]},{"code":"OE0/NO-1004","program":"gma","name":"Schwarzauer GipÃ‚Â­pel","coordinates":[15.61219978,47.80250168]},{"code":"OE0/NO-1009","program":"gma","name":"Preineckkogel","coordinates":[15.62469959,47.81420135]},{"code":"OE0/NO-1010","program":"gma","name":"Mitterberg","coordinates":[15.65439987,47.78110123]},{"code":"OE0/NO-1015","program":"gma","name":"Mitterschwarzriegel","coordinates":[15.64420033,47.76440048]},{"code":"OE0/NO-1017","program":"gma","name":"Hubmerkogel","coordinates":[15.6814003,47.7743988]},{"code":"OE0/NO-1018","program":"gma","name":"Hainboden","coordinates":[15.72669983,47.75780106]},{"code":"OE0/NO-1020","program":"gma","name":"Linsberg","coordinates":[15.56830025,47.89189911]},{"code":"OE0/NO-1021","program":"gma","name":"Zwieselmauer","coordinates":[15.6718998,47.77560043]},{"code":"OE0/NO-1023","program":"gma","name":"Sonnstein","coordinates":[15.74170017,47.92419815]},{"code":"OE0/NO-1025","program":"gma","name":"Schwarzwaldeck","coordinates":[15.71780014,47.99639893]},{"code":"OE0/NO-1031","program":"gma","name":"Hochsteinkogel","coordinates":[15.56750011,47.82220078]},{"code":"OE0/NO-1034","program":"gma","name":"Ursprungkogel","coordinates":[15.59529972,47.81420135]},{"code":"OE0/NO-1037","program":"gma","name":"Heimhöh","coordinates":[15.58920002,47.82170105]},{"code":"OE0/NO-1067","program":"gma","name":"Lahnberg","coordinates":[15.61999989,47.77830124]},{"code":"OE0/NO-1073","program":"gma","name":"Falkenstein","coordinates":[15.70170021,47.82279968]},{"code":"OE0/NO-1132","program":"gma","name":"Schnalzstein","coordinates":[15.54500008,47.78919983]},{"code":"OE0/ST-1096","program":"gma","name":"Sulzriegl","coordinates":[15.50329971,47.76060104]},{"code":"AT-0019","program":"pota","name":"Falkenstein Nature Reserve","coordinates":[15.7065,47.8157]},{"code":"OE/NO-013","program":"sota","name":"Gippel","coordinates":[15.5806,47.7983]},{"code":"OE/NO-016","program":"sota","name":"Großer Sonnleitstein","coordinates":[15.6389,47.7519]},{"code":"OE/NO-032","program":"sota","name":"Obersberg (Ahornberg)","coordinates":[15.6656,47.8147]},{"code":"OE/NO-038","program":"sota","name":"Reisalpe","coordinates":[15.6636,47.9564]},{"code":"OE/NO-044","program":"sota","name":"Türnitzer Höger","coordinates":[15.5561,47.9197]},{"code":"OE/NO-045","program":"sota","name":"Handlesberg","coordinates":[15.7397,47.8256]},{"code":"OE/NO-050","program":"sota","name":"Hinteralm","coordinates":[15.6106,47.9719]},{"code":"OE/NO-057","program":"sota","name":"Jochart","coordinates":[15.7119,47.9122]},{"code":"OE/NO-058","program":"sota","name":"Paulmauer","coordinates":[15.5678,47.8817]},{"code":"OE/NO-065","program":"sota","name":"Großer Fegenberg","coordinates":[15.72,47.7806]},{"code":"OE/NO-073","program":"sota","name":"Haselstein","coordinates":[15.6269,47.8492]},{"code":"OE/NO-087","program":"sota","name":"Sulzberg","coordinates":[15.6717,47.8492]},{"code":"OE/NO-210","program":"sota","name":"Donnerkogel","coordinates":[15.6175,47.7669]},{"code":"OE/NO-212","program":"sota","name":"Mitterberg","coordinates":[15.5733,47.7681]},{"code":"OE/NO-219","program":"sota","name":"Hochstaff","coordinates":[15.6901,47.9704]},{"code":"OE/NO-224","program":"sota","name":"Hegerberg","coordinates":[15.6672,47.9026]},{"code":"OE/NO-230","program":"sota","name":"Sonnberg","coordinates":[15.5153,47.8311]},{"code":"OE/NO-235","program":"sota","name":"Edlaberg","coordinates":[15.7402,47.8794]},{"code":"OE/NO-264","program":"sota","name":"Gamsmauer","coordinates":[15.5509,47.7866]},{"code":"OE/NO-289","program":"sota","name":"Größenberg","coordinates":[15.6825,47.8708]},{"code":"OE/NO-292","program":"sota","name":"Baumeckkogel","coordinates":[15.7297,47.7964]}]}