{"lat":47.75,"lon":-123.75,"programs":["sota"],"count":27,"references":[{"code":"W7W/NO-001","program":"sota","name":"Mount-West Peak Olympus","coordinates":[-123.7107,47.8014]},{"code":"W7W/NO-008","program":"sota","name":"Athena","coordinates":[-123.6895,47.7815]},{"code":"W7W/NO-014","program":"sota","name":"Mount Mathias","coordinates":[-123.6767,47.805]},{"code":"W7W/NO-020","program":"sota","name":"Mount Carrie","coordinates":[-123.6493,47.8942]},{"code":"W7W/NO-022","program":"sota","name":"Mercury","coordinates":[-123.6706,47.8203]},{"code":"W7W/NO-025","program":"sota","name":"Mount Fairchild","coordinates":[-123.6333,47.9001]},{"code":"W7W/NO-040","program":"sota","name":"Mount Meany","coordinates":[-123.5979,47.7509]},{"code":"W7W/NO-044","program":"sota","name":"Mount Queets","coordinates":[-123.5952,47.7623]},{"code":"W7W/NO-046","program":"sota","name":"Stephen Peak","coordinates":[-123.5957,47.87]},{"code":"W7W/NO-049","program":"sota","name":"6351 Bandpass Pk","coordinates":[-123.6791,47.8407]},{"code":"W7W/NO-050","program":"sota","name":"Atlas","coordinates":[-123.7388,47.8386]},{"code":"W7W/NO-054","program":"sota","name":"Mount Pulitzer","coordinates":[-123.5741,47.8356]},{"code":"W7W/NO-064","program":"sota","name":"Mount Childs","coordinates":[-123.5863,47.8122]},{"code":"W7W/NO-066","program":"sota","name":"Cotleton","coordinates":[-123.7346,47.945]},{"code":"W7W/NO-069","program":"sota","name":"Valhallas-Woden","coordinates":[-123.7448,47.7511]},{"code":"W7W/NO-070","program":"sota","name":"6024 Hexadecimal Pk","coordinates":[-123.5618,47.7778]},{"code":"W7W/NO-076","program":"sota","name":"Mount Wilder","coordinates":[-123.5196,47.7676]},{"code":"W7W/NO-077","program":"sota","name":"5925 Gigahertz Pk","coordinates":[-123.6874,47.9324]},{"code":"W7W/NO-078","program":"sota","name":"5925 Dummy Load Mtn","coordinates":[-123.7014,47.9223]},{"code":"W7W/NO-079","program":"sota","name":"Cat Peak","coordinates":[-123.6801,47.9001]},{"code":"W7W/NO-080","program":"sota","name":"Mount Scott","coordinates":[-123.5297,47.841]},{"code":"W7W/NO-082","program":"sota","name":"Ludden Peak","coordinates":[-123.5402,47.8562]},{"code":"W7W/NO-084","program":"sota","name":"Dodger Point","coordinates":[-123.5099,47.8742]},{"code":"W7W/NO-086","program":"sota","name":"Hurricane Hill","coordinates":[-123.5291,47.9902]},{"code":"W7W/NO-101","program":"sota","name":"5518 Mt Multiband","coordinates":[-123.5955,47.8474]},{"code":"W7W/NO-109","program":"sota","name":"5325 Second Hop Summit","coordinates":[-123.742,47.9224]},{"code":"W7W/NO-126","program":"sota","name":"4654 Shortwave Summit","coordinates":[-123.5236,47.8025]}]}