{"lat":47.75,"lon":16.25,"programs":["gma","pota","sota"],"count":20,"references":[{"code":"OE/BL-012","program":"gma","name":"Sonnenberg","coordinates":[16.47559929,47.87530136]},{"code":"OE0/NO-1106","program":"gma","name":"Gespitzter Riegel","coordinates":[16.29669952,47.75830078]},{"code":"AT-0181","program":"pota","name":"Feuchte Ebene - Leithaauen (Natura 2000) Natura 2000","coordinates":[16.4216,47.9017]},{"code":"AT-0207","program":"pota","name":"Kurpark Bad Sauerbrunn Park","coordinates":[16.3261,47.7751]},{"code":"AT-0214","program":"pota","name":"Zylinderteich Protected Area","coordinates":[16.4221,47.8879]},{"code":"AT-0215","program":"pota","name":"Bubanj Protected Area","coordinates":[16.4231,47.8895]},{"code":"AT-0222","program":"pota","name":"Weißes Kreuz Protected Area","coordinates":[16.4837,47.8462]},{"code":"AT-0230","program":"pota","name":"Burgruine Hornstein Historic Site","coordinates":[16.4543,47.8762]},{"code":"AT-0240","program":"pota","name":"Neufeldersee Recreation Site","coordinates":[16.388,47.8686]},{"code":"AT-0272","program":"pota","name":"Friedenspark Hirm Park","coordinates":[16.4513,47.7862]},{"code":"AT-0287","program":"pota","name":"Pfefferbuechsel Historic Site","coordinates":[16.4585,47.9289]},{"code":"AT-0303","program":"pota","name":"Fronwiesen und Johannesbach Natura 2000","coordinates":[16.4906,47.9286]},{"code":"AT-0305","program":"pota","name":"Sonnenbergwarte Scenic Site","coordinates":[16.4746,47.8761]},{"code":"AT-0307","program":"pota","name":"Erlebnisarena Neufeld Recreation Site","coordinates":[16.374,47.867]},{"code":"AT-0177","program":"pota","name":"Pottendorfer Schlosspark Country Park","coordinates":[16.3822,47.9124]},{"code":"AT-0199","program":"pota","name":"Steinfeld Natura 2000","coordinates":[16.3315,47.8987]},{"code":"AT-0229","program":"pota","name":"Schoenauer Teich Protected Area","coordinates":[16.2569,47.9226]},{"code":"AT-0239","program":"pota","name":"Naturdenkmal Fischaursprung Protected Area","coordinates":[16.3264,47.8769]},{"code":"AT-0278","program":"pota","name":"Kalkschottersteppe Obereggendorf Protected Area","coordinates":[16.2871,47.8553]},{"code":"OE/BL-012","program":"sota","name":"Sonnenberg","coordinates":[16.4756,47.8753]}]}