{"lat":47.75,"lon":0.5,"programs":["pota"],"count":12,"references":[{"code":"FR-7238","program":"pota","name":"COTEAU DE LA REDONNE Biological Reserve","coordinates":[0.73007,47.8647]},{"code":"FR-7239","program":"pota","name":"VALLON DU COURT-S'IL-PLEUT Biological Reserve","coordinates":[0.60707,47.8921]},{"code":"FR-7242","program":"pota","name":"BORD DE ROUTE DU BOIS DE LA COUDRAIE AU BOIS MINOT Biological Reserve","coordinates":[0.6062,47.9583]},{"code":"FR-7244","program":"pota","name":"BOIS DES LOGES AU SUD-OUEST DE LA CABANE ROUGE Biological Reserve","coordinates":[0.62153,47.9563]},{"code":"FR-7245","program":"pota","name":"BOIS DE LA GAUTRIE Biological Reserve","coordinates":[0.68766,47.9478]},{"code":"FR-7246","program":"pota","name":"ETANG SALLE Biological Reserve","coordinates":[0.64842,47.9681]},{"code":"FR-7247","program":"pota","name":"D. 74 DE BUSSE CARREE A LA LOGE DU PARC Biological Reserve","coordinates":[0.64204,47.9684]},{"code":"FR-7248","program":"pota","name":"BORD DE ROUTE A BUSSE CARREE Biological Reserve","coordinates":[0.62705,47.9785]},{"code":"FR-7249","program":"pota","name":"D. 249 AU SUD-EST DES PETITES BORDES Biological Reserve","coordinates":[0.66345,47.9836]},{"code":"FR-7250","program":"pota","name":"BORD DE ROUTE DU PETIT POIL DE TRUIE AU BOIS DU CORBEAU Biological Reserve","coordinates":[0.67282,47.9911]},{"code":"FR-7251","program":"pota","name":"ETANG DU FIEF Biological Reserve","coordinates":[0.70146,47.9889]},{"code":"FR-4299","program":"pota","name":"Carrieres souterraines de la Voloniere Natura 2000","coordinates":[0.65194,47.7603]}]}