{"lat":47.75,"lon":10.25,"programs":["gma"],"count":7,"references":[{"code":"DA/AL-090","program":"gma","name":"Upratsberg","coordinates":[10.46420002,47.84170151]},{"code":"DA/AL-158","program":"gma","name":"Eschers","coordinates":[10.3767004,47.84780121]},{"code":"DA/AL-225","program":"gma","name":"Steig","coordinates":[10.38529968,47.79359818]},{"code":"DA/AL-227","program":"gma","name":"Haarberg","coordinates":[10.4428,47.78315]},{"code":"DA/AV-010","program":"gma","name":"Schlegelsberg","coordinates":[10.45826435,47.81077576]},{"code":"DA/AV-013","program":"gma","name":"Rosskopf","coordinates":[10.48598862,47.97987366]},{"code":"DA/AV-428","program":"gma","name":"Hochfirst","coordinates":[10.3978067,47.9956369]}]}