{"lat":47.75,"lon":24.5,"programs":["gma","pota","sota"],"count":9,"references":[{"code":"YP/EC-010","program":"gma","name":"?uligul","coordinates":[24.71500015,47.84000015]},{"code":"RO-0195","program":"pota","name":"Munții Maramureșului National Park","coordinates":[24.5641,47.7841]},{"code":"UT/CA-014","program":"sota","name":"Чивчин (Chivchin)","coordinates":[24.7107,47.8651]},{"code":"UT/CA-026","program":"sota","name":"Сулигул (Suligul)","coordinates":[24.7151,47.8399]},{"code":"UT/CA-037","program":"sota","name":"Похрептына (Pohreptyna)","coordinates":[24.7328,47.9356]},{"code":"YO/EC-061","program":"sota","name":"Pietrosu Bardău","coordinates":[24.6108,47.8317]},{"code":"YO/EC-074","program":"sota","name":"Țiganului","coordinates":[24.7067,47.7533]},{"code":"YO/EC-115","program":"sota","name":"Greben","coordinates":[24.5817,47.7542]},{"code":"YO/EC-557","program":"sota","name":"Stânișoara","coordinates":[24.5033,47.8717]}]}