{"lat":47.75,"lon":3.25,"programs":["pota","sota"],"count":10,"references":[{"code":"FR-2608","program":"pota","name":"LANDES ET TOURBIERE DU BOIS DE LA BICHE FR2600990 Natura 2000","coordinates":[3.48611,47.8586]},{"code":"FR-15178","program":"pota","name":"BOIS DE MONTHOLON Biological Reserve","coordinates":[3.362,47.943]},{"code":"FR-15179","program":"pota","name":"PLAINE ET BUTTE DE MONTHOLON Biological Reserve","coordinates":[3.371,47.935]},{"code":"FR-15180","program":"pota","name":"VALLEE DE L'YONNE ENTRE CHAMPLAY ET CEZY Biological Reserve","coordinates":[3.41,47.965]},{"code":"FR-15181","program":"pota","name":"MARAIS DES NOUES D'ABANDON Biological Reserve","coordinates":[3.42,47.957]},{"code":"FR-15182","program":"pota","name":"VALS DE L'OCRE ET DU THOLON Biological Reserve","coordinates":[3.353,47.945]},{"code":"FR-15183","program":"pota","name":"FORET DE POILLY ET RUISSEAU LE RAVILLON Biological Reserve","coordinates":[3.431,47.889]},{"code":"FR-7305","program":"pota","name":"COTE AU ROI ET GARENNE DE LOOZE Biological Reserve","coordinates":[3.44975,47.9994]},{"code":"FR-6065","program":"pota","name":"VALLEES DE L'YONNE ET DE LA BAULCHE ET FORETS AUTOUR D'AUXERRE Biological Reserve","coordinates":[3.459,47.755]},{"code":"FL/VL-103","program":"sota","name":"Bois de Montholon","coordinates":[3.3775,47.9392]}]}