{"lat":47.75,"lon":15.75,"programs":["gma","pota","sota"],"count":73,"references":[{"code":"OE/NO-001","program":"gma","name":"Klosterwappen","coordinates":[15.80500031,47.76720047]},{"code":"OE/NO-062","program":"gma","name":"Schober","coordinates":[15.85719967,47.81779861]},{"code":"OE/NO-063","program":"gma","name":"Katharinenschlag","coordinates":[15.92169952,47.83309937]},{"code":"OE/NO-071","program":"gma","name":"Kieneck","coordinates":[15.87390041,47.96080017]},{"code":"OE/NO-082","program":"gma","name":"Großer Neukogel","coordinates":[15.91139984,47.85469818]},{"code":"OE/NO-085","program":"gma","name":"Hocheck","coordinates":[15.95189953,47.99639893]},{"code":"OE/NO-115","program":"gma","name":"Hochriegel","coordinates":[15.9189,47.9931]},{"code":"OE/NO-130","program":"gma","name":"Großer Kitzberg","coordinates":[15.97859955,47.88439941]},{"code":"OE/NO-199","program":"gma","name":"Unterberg","coordinates":[15.81890011,47.93809891]},{"code":"OE/NO-223","program":"gma","name":"Größenberg","coordinates":[15.8706,47.8067]},{"code":"OE/NO-225","program":"gma","name":"Hutberg","coordinates":[15.8006,47.8214]},{"code":"OE/NO-227","program":"gma","name":"Trafelberg","coordinates":[15.8687,47.9292]},{"code":"OE/NO-233","program":"gma","name":"Haltberg","coordinates":[15.9173,47.808]},{"code":"OE/NO-238","program":"gma","name":"Furtnerberg","coordinates":[15.7669,47.9172]},{"code":"OE/NO-239","program":"gma","name":"Almesbrunnberg","coordinates":[15.9206,47.9356]},{"code":"OE/NO-245","program":"gma","name":"Streimling","coordinates":[15.7941,47.8536]},{"code":"OE/NO-246","program":"gma","name":"Haberkogel","coordinates":[15.7992,47.8875]},{"code":"OE/NO-249","program":"gma","name":"Höhenberg","coordinates":[15.7636,47.9961]},{"code":"OE/NO-251","program":"gma","name":"Gelände","coordinates":[15.9698,47.8049]},{"code":"OE/NO-252","program":"gma","name":"Kienberg","coordinates":[15.9461,47.7808]},{"code":"OE/NO-254","program":"gma","name":"Nebelstein","coordinates":[15.8654,47.8396]},{"code":"OE/NO-255","program":"gma","name":"Großer Geißkopf","coordinates":[15.8398,47.8873]},{"code":"OE/NO-256","program":"gma","name":"Gemeindealpe","coordinates":[15.7561,47.9692]},{"code":"OE/NO-258","program":"gma","name":"Gaisstein","coordinates":[15.9345,47.9641]},{"code":"OE/NO-259","program":"gma","name":"Hutberg","coordinates":[15.9537,47.8094]},{"code":"OE/NO-266","program":"gma","name":"Oberhöhe","coordinates":[15.8033,47.9875]},{"code":"OE/NO-269","program":"gma","name":"Kohlberg","coordinates":[15.8297,47.8135]},{"code":"OE/NO-270","program":"gma","name":"Residenzberg","coordinates":[15.87,47.8713]},{"code":"OE/NO-293","program":"gma","name":"Mitterberg","coordinates":[15.7533,47.9058]},{"code":"OE/NO-300","program":"gma","name":"Schacher","coordinates":[15.9358,47.7558]},{"code":"OE/NO-302","program":"gma","name":"Absandberg","coordinates":[15.9592,47.755]},{"code":"OE/NO-325","program":"gma","name":"Hochwald","coordinates":[15.9813,47.9344]},{"code":"OE0/NO-1022","program":"gma","name":"Öhler","coordinates":[15.8781004,47.82189941]},{"code":"OE0/NO-1024","program":"gma","name":"Geißruck","coordinates":[15.90530014,47.9530983]},{"code":"OE0/NO-1027","program":"gma","name":"Kirchwaldberg","coordinates":[15.85639954,47.94720078]},{"code":"OE0/NO-1028","program":"gma","name":"Reingupf","coordinates":[15.86670017,47.97169876]},{"code":"OE0/NO-1076","program":"gma","name":"Himberg","coordinates":[15.92329979,47.78720093]},{"code":"AT-0058","program":"pota","name":"Johannisbachklamm Nature Reserve","coordinates":[15.9716,47.7829]},{"code":"AT-0195","program":"pota","name":"Myrafälle Park","coordinates":[15.9367,47.9137]},{"code":"AT-0250","program":"pota","name":"Northeastern edge of the Alps: Hohe Wand - Schneeberg - Rax Natura 2000","coordinates":[15.9947,47.8444]},{"code":"AT-0279","program":"pota","name":"Hohe Wand - Duerre Wand Protected Landscape","coordinates":[15.9708,47.835]},{"code":"OE/NO-001","program":"sota","name":"Klosterwappen","coordinates":[15.805,47.7672]},{"code":"OE/NO-062","program":"sota","name":"Schober","coordinates":[15.8572,47.8178]},{"code":"OE/NO-063","program":"sota","name":"Katharinenschlag","coordinates":[15.9217,47.8331]},{"code":"OE/NO-071","program":"sota","name":"Kieneck","coordinates":[15.8739,47.9608]},{"code":"OE/NO-082","program":"sota","name":"Großer Neukogel","coordinates":[15.9114,47.8547]},{"code":"OE/NO-085","program":"sota","name":"Hocheck","coordinates":[15.9519,47.9964]},{"code":"OE/NO-115","program":"sota","name":"Hochriegel","coordinates":[15.9189,47.9931]},{"code":"OE/NO-130","program":"sota","name":"Großer Kitzberg","coordinates":[15.9786,47.8844]},{"code":"OE/NO-199","program":"sota","name":"Unterberg","coordinates":[15.8189,47.9381]},{"code":"OE/NO-223","program":"sota","name":"Größenberg","coordinates":[15.8706,47.8067]},{"code":"OE/NO-225","program":"sota","name":"Hutberg","coordinates":[15.8006,47.8214]},{"code":"OE/NO-227","program":"sota","name":"Trafelberg","coordinates":[15.8687,47.9292]},{"code":"OE/NO-233","program":"sota","name":"Haltberg","coordinates":[15.9173,47.808]},{"code":"OE/NO-238","program":"sota","name":"Furtnerberg","coordinates":[15.7669,47.9172]},{"code":"OE/NO-239","program":"sota","name":"Almesbrunnberg","coordinates":[15.9206,47.9356]},{"code":"OE/NO-245","program":"sota","name":"Streimling","coordinates":[15.7941,47.8536]},{"code":"OE/NO-246","program":"sota","name":"Haberkogel","coordinates":[15.7992,47.8875]},{"code":"OE/NO-249","program":"sota","name":"Höhenberg","coordinates":[15.7636,47.9961]},{"code":"OE/NO-251","program":"sota","name":"Gelände","coordinates":[15.9698,47.8049]},{"code":"OE/NO-252","program":"sota","name":"Kienberg","coordinates":[15.9461,47.7808]},{"code":"OE/NO-254","program":"sota","name":"Nebelstein","coordinates":[15.8654,47.8396]},{"code":"OE/NO-255","program":"sota","name":"Großer Geißkopf","coordinates":[15.8398,47.8873]},{"code":"OE/NO-256","program":"sota","name":"Gemeindealpe","coordinates":[15.7561,47.9692]},{"code":"OE/NO-258","program":"sota","name":"Gaisstein","coordinates":[15.9345,47.9641]},{"code":"OE/NO-259","program":"sota","name":"Hutberg","coordinates":[15.9537,47.8094]},{"code":"OE/NO-266","program":"sota","name":"Oberhöhe","coordinates":[15.8033,47.9875]},{"code":"OE/NO-269","program":"sota","name":"Kohlberg","coordinates":[15.8297,47.8135]},{"code":"OE/NO-270","program":"sota","name":"Residenzberg","coordinates":[15.87,47.8713]},{"code":"OE/NO-293","program":"sota","name":"Mitterberg","coordinates":[15.7533,47.9058]},{"code":"OE/NO-300","program":"sota","name":"Schacher","coordinates":[15.9358,47.7558]},{"code":"OE/NO-302","program":"sota","name":"Absandberg","coordinates":[15.9592,47.755]},{"code":"OE/NO-325","program":"sota","name":"Hochwald","coordinates":[15.9813,47.9344]}]}