{"lat":48,"lon":-4.75,"programs":["pota","wwbota"],"count":43,"references":[{"code":"FR-5696","program":"pota","name":"Pointe de penharn Biological Reserve","coordinates":[-4.62938,48.0685]},{"code":"FR-2868","program":"pota","name":"COTES DE CROZON FR5302006 Natura 2000","coordinates":[-4.61528,48.2192]},{"code":"FR-2869","program":"pota","name":"PRESQU ILE DE CROZON FR5300019 Natura 2000","coordinates":[-4.54389,48.2425]},{"code":"FR-2876","program":"pota","name":"CAP SIZUN FR5300020 Natura 2000","coordinates":[-4.70139,48.0464]},{"code":"FR-3852","program":"pota","name":"Cap Sizun Natura 2000","coordinates":[-4.58333,48.0667]},{"code":"FR-4345","program":"pota","name":"Cap Sizun Natura 2000","coordinates":[-4.70139,48.0464]},{"code":"FR-4379","program":"pota","name":"Conglomerat stephanien de la Baie des Trepasses - Cleden-Cap Sizun-Plogoff Biological Reserve","coordinates":[-4.7,48.046]},{"code":"FR-5069","program":"pota","name":"Conglomerat de la Baie des Trepasses Biological Reserve","coordinates":[-4.706,48.048]},{"code":"FR-5153","program":"pota","name":"POINTE DU RAZ ET COTE ROCHEUSE DE PLOGOFF Biological Reserve","coordinates":[-4.69344,48.032]},{"code":"FR-5594","program":"pota","name":"POINTE DE LUGUENEZ Conservation Area","coordinates":[-4.53696,48.0916]},{"code":"FR-5616","program":"pota","name":"CAP SIZUN FACE NORD Biological Reserve","coordinates":[-4.61813,48.0773]},{"code":"FR-5695","program":"pota","name":"Pointe de castelmeur Biological Reserve","coordinates":[-4.69006,48.0605]},{"code":"FR-5834","program":"pota","name":"Ilots de goulien Biological Reserve","coordinates":[-4.60838,48.0741]},{"code":"FR-5878","program":"pota","name":"Trez ar goarem Biological Reserve","coordinates":[-4.58622,48.0112]},{"code":"FR-6454","program":"pota","name":"ESTUAIRE DU GOYEN ET BOIS DE SUGUENSOU Biological Reserve","coordinates":[-4.52279,48.0359]},{"code":"FR-6683","program":"pota","name":"DUNES DE TREZ GOAREM Biological Reserve","coordinates":[-4.58856,48.0137]},{"code":"FR-6764","program":"pota","name":"Pointe du raz Biological Reserve","coordinates":[-4.70813,48.0348]},{"code":"FR-6904","program":"pota","name":"DUNE DE LA BAIE DES TREPASSES ET ETANG DE LAOUAL Biological Reserve","coordinates":[-4.69879,48.0458]},{"code":"FR-7531","program":"pota","name":"ILOTS, FALAISES ET LANDES DE LA COTE NORD DU CAP SIZUN Biological Reserve","coordinates":[-4.55984,48.0803]},{"code":"FR-8567","program":"pota","name":"Cap de la chevre Conservation Area","coordinates":[-4.54057,48.2016]},{"code":"FR-8568","program":"pota","name":"CAP DE LA CHEVRE 2 Biological Reserve","coordinates":[-4.54168,48.2028]},{"code":"FR-8569","program":"pota","name":"Porz-Koubou Conservation Area","coordinates":[-4.564,48.231]},{"code":"FR-8570","program":"pota","name":"Tourbiere De Tromel Biological Reserve","coordinates":[-4.54028,48.2278]},{"code":"FR-8571","program":"pota","name":"Pointe de Lostmarc'h Conservation Area","coordinates":[-4.557,48.213]},{"code":"FR-8572","program":"pota","name":"Porz Kregwenn Conservation Area","coordinates":[-4.551,48.182]},{"code":"FR-6291","program":"pota","name":"Pointe de kastel koz Conservation Park","coordinates":[-4.51909,48.085]},{"code":"B/F-6546","program":"wwbota","name":"Goulien2","coordinates":[-4.544814,48.240596]},{"code":"B/F-6547","program":"wwbota","name":"Goulien1","coordinates":[-4.546076,48.240159]},{"code":"B/F-6550","program":"wwbota","name":"Pointe de Kerdra","coordinates":[-4.552792,48.206502]},{"code":"B/F-6553","program":"wwbota","name":"Crozon1","coordinates":[-4.555808,48.170734]},{"code":"B/F-6554","program":"wwbota","name":"Crozon3","coordinates":[-4.549627,48.169806]},{"code":"B/F-6555","program":"wwbota","name":"Crozon4","coordinates":[-4.549136,48.169764]},{"code":"B/F-6556","program":"wwbota","name":"Crozon2","coordinates":[-4.55108,48.16944]},{"code":"B/F-6561","program":"wwbota","name":"Pointe du Raz1","coordinates":[-4.706618,48.044847]},{"code":"B/F-6562","program":"wwbota","name":"Pointe du Raz2","coordinates":[-4.723337,48.037607]},{"code":"B/F-6563","program":"wwbota","name":"Pointe du Raz3","coordinates":[-4.722412,48.036872]},{"code":"B/F-6564","program":"wwbota","name":"Pointe du Raz4","coordinates":[-4.718082,48.035906]},{"code":"B/F-6565","program":"wwbota","name":"Primelin1","coordinates":[-4.629672,48.026774]},{"code":"B/F-6566","program":"wwbota","name":"Primelin2","coordinates":[-4.629957,48.026463]},{"code":"B/F-6567","program":"wwbota","name":"Esquibien","coordinates":[-4.59477,48.013297]},{"code":"B/F-6568","program":"wwbota","name":"Plouhinec4","coordinates":[-4.535857,48.01105]},{"code":"B/F-6569","program":"wwbota","name":"Plouhinec3","coordinates":[-4.534956,48.010575]},{"code":"B/F-6570","program":"wwbota","name":"Plouhinec2","coordinates":[-4.514163,48.006554]}]}