{"lat":48,"lon":11.5,"programs":["gma","pota","wwbota"],"count":41,"references":[{"code":"DA/AV-171","program":"gma","name":"Olympiaberg","coordinates":[11.55187798,48.16970062]},{"code":"DA/AV-330","program":"gma","name":"Perlacher Mugl","coordinates":[11.57703876,48.06916046]},{"code":"DA/AV-359","program":"gma","name":"Rodelhügel im Riemer Park (Aussichtshügel BuGa)","coordinates":[11.71048,48.130668]},{"code":"DA/AV-361","program":"gma","name":"Fröttmaninger Berg","coordinates":[11.63068,48.21447]},{"code":"DA/AV-394","program":"gma","name":"Hypoberg","coordinates":[11.6454,48.2045]},{"code":"DA/AV-395","program":"gma","name":"Luitpoldhügel","coordinates":[11.57086,48.17255]},{"code":"DA/AV-396","program":"gma","name":"Aussichtsplattform Ostpark","coordinates":[11.6445266,48.11190188]},{"code":"DE-0157","program":"pota","name":"Englischer Garten Recreation Park","coordinates":[11.6056,48.1641]},{"code":"DE-0158","program":"pota","name":"Ostpark München Recreation Park","coordinates":[11.6389,48.1138]},{"code":"DE-0281","program":"pota","name":"Heckenstallerpark Recreation Park","coordinates":[11.53,48.1101]},{"code":"DE-0283","program":"pota","name":"Olympiapark München Recreation Park","coordinates":[11.5499,48.171]},{"code":"DE-0284","program":"pota","name":"Westpark Recreation Park","coordinates":[11.5151,48.1227]},{"code":"DE-0285","program":"pota","name":"Südpark Recreation Park","coordinates":[11.5093,48.1031]},{"code":"DE-0286","program":"pota","name":"Königlicher Hirschgarten Recreation Park","coordinates":[11.5129,48.1487]},{"code":"DE-0287","program":"pota","name":"Bavariapark Recreation Park","coordinates":[11.5431,48.1311]},{"code":"DE-0288","program":"pota","name":"Hirschau und Obere Isarau Nature Reserve","coordinates":[11.6225,48.1816]},{"code":"DE-0545","program":"pota","name":"Naturerlebnis Umweltgarten Nature Park","coordinates":[11.6561,48.0783]},{"code":"DE-0546","program":"pota","name":"Hachinger Tal Landscape Park","coordinates":[11.6479,48.0747]},{"code":"DE-0588","program":"pota","name":"Riemer Park Recreation Park","coordinates":[11.6939,48.1257]},{"code":"DE-0594","program":"pota","name":"Münchner Jakobsweg von Kelheim bis Bodensee National Historic Trail","coordinates":[11.5723,48.1341]},{"code":"DE-0798","program":"pota","name":"Ismaninger Speichersee und ehemalige Fischteiche Nature Reserve","coordinates":[11.7464,48.2177]},{"code":"DE-0942","program":"pota","name":"Via Julia National Historic Trail","coordinates":[11.586,48.0133]},{"code":"DE-1036","program":"pota","name":"Alter Botanischer Garten München National Historical Park","coordinates":[11.5643,48.1418]},{"code":"DE-1087","program":"pota","name":"Neuhofener Berg Recreation Park","coordinates":[11.5412,48.1075]},{"code":"DE-1134","program":"pota","name":"Heideflächen und Lohwälder nördlich von München Flora and Fauna Reserve","coordinates":[11.5952,48.2436]},{"code":"DE-1151","program":"pota","name":"Luitpoldpark München National Historical Park","coordinates":[11.5698,48.171]},{"code":"DE-1152","program":"pota","name":"Perlacher Forst Landscape Reserve","coordinates":[11.5739,48.0616]},{"code":"DE-1153","program":"pota","name":"Grünwalder Forst Landscape Reserve","coordinates":[11.5363,48.0218]},{"code":"B/DL-0078","program":"wwbota","name":"Hochbunker Blumenstraße München","coordinates":[11.573531,48.133792]},{"code":"B/DL-0079","program":"wwbota","name":"Hochbunker Prinzregentenstraße (Kunstbunker Tumulka)","coordinates":[11.609464,48.13889]},{"code":"B/DL-0080","program":"wwbota","name":"Hochbunker Sonnwendjochstraße München","coordinates":[11.645353,48.120922]},{"code":"B/DL-0096","program":"wwbota","name":"Hochbunker Quellenstraße","coordinates":[11.585958,48.126578]},{"code":"B/DL-0229","program":"wwbota","name":"Hochbunker Anhalter Platz","coordinates":[11.561378,48.187178]},{"code":"B/DL-0230","program":"wwbota","name":"Hochbunker Schleißheimer Straße","coordinates":[11.566589,48.181389]},{"code":"B/DL-0231","program":"wwbota","name":"Hochbunker Lerchenauer Straße","coordinates":[11.55965,48.1745]},{"code":"B/DL-0232","program":"wwbota","name":"Bunker 5 Oberföring","coordinates":[11.623275,48.164722]},{"code":"B/DL-0233","program":"wwbota","name":"Marienklausebrücke","coordinates":[11.549419,48.092094]},{"code":"B/DL-0401","program":"wwbota","name":"Shelter FP Neubiberg","coordinates":[11.648657,48.068964]},{"code":"B/DL-0409","program":"wwbota","name":"Atomschutzbunker Ottobrunn","coordinates":[11.66232,48.063917]},{"code":"B/DL-0737","program":"wwbota","name":"Munitionsbunker","coordinates":[11.64655,48.068622]},{"code":"B/DL-0746","program":"wwbota","name":"Bunker Flugabwehr, Perlacher Mugl","coordinates":[11.576862,48.069221]}]}