{"lat":48,"lon":23.25,"programs":["pota","sota"],"count":11,"references":[{"code":"RO-0612","program":"pota","name":"Tinoavele din Munții Oaș Flora Reserve","coordinates":[23.2931,48.0121]},{"code":"RO-1104","program":"pota","name":"Munții Oaș Natural Area","coordinates":[23.3574,48.0008]},{"code":"UT/CA-309","program":"sota","name":"Фрасин (Frasin)","coordinates":[23.2614,48.1088]},{"code":"UT/CA-315","program":"sota","name":"Сироки (Siroky)","coordinates":[23.2924,48.0731]},{"code":"UT/CA-346","program":"sota","name":"Зеленый Луг (Zeleny Lug)","coordinates":[23.3382,48.0343]},{"code":"UT/CA-353","program":"sota","name":"Вар-Хедь (Var-Hed)","coordinates":[23.4592,48.0055]},{"code":"UT/CA-372","program":"sota","name":"Шаян (Shayan)","coordinates":[23.3542,48.0638]},{"code":"YO/EC-429","program":"sota","name":"Holmul Mare","coordinates":[23.2917,48.0458]},{"code":"YO/EC-436","program":"sota","name":"Geamăna Mare","coordinates":[23.3242,48.0158]},{"code":"YO/EC-619","program":"sota","name":"Copârcea","coordinates":[23.2683,48.0317]},{"code":"YO/EC-621","program":"sota","name":"Ceaslăș","coordinates":[23.2733,48.0125]}]}