{"lat":48,"lon":-3.75,"programs":["pota","sota"],"count":21,"references":[{"code":"FR-2839","program":"pota","name":"COMPLEXE DE L EST DES MONTAGNES NOIRES Natura 2000","coordinates":[-3.51028,48.2003]},{"code":"FR-10340","program":"pota","name":"VALLEE DU SAINT ANTOINE Biological Reserve","coordinates":[-3.58116,48.0077]},{"code":"FR-10341","program":"pota","name":"INAM Biological Reserve","coordinates":[-3.5008,48.0167]},{"code":"FR-10343","program":"pota","name":"RUISSEAU DU MOULIN DU DUC Biological Reserve","coordinates":[-3.53672,48.0995]},{"code":"FR-11420","program":"pota","name":"LE MOUSTOIR Biological Reserve","coordinates":[-3.73519,48.1349]},{"code":"FR-11421","program":"pota","name":"MENEZ AN DUC - CASTEL RUPHEL, LE QUEIDEL, ET LANDES DE COAT-QUILVERN A LENTEGANT Biological Reserve","coordinates":[-3.70738,48.1472]},{"code":"FR-11422","program":"pota","name":"SITE DE KUDEL Biological Reserve","coordinates":[-3.67364,48.1601]},{"code":"FR-11423","program":"pota","name":"TOURBIERE DE GUERVEUR Biological Reserve","coordinates":[-3.63668,48.1494]},{"code":"FR-11424","program":"pota","name":"LANDES ET CARRIERES DE MINEZ CLUON Biological Reserve","coordinates":[-3.60895,48.1605]},{"code":"FR-11425","program":"pota","name":"TOURBIERE DE COAT CRENN Biological Reserve","coordinates":[-3.62386,48.176]},{"code":"FR-11426","program":"pota","name":"RUISSEAU DU CRANN Biological Reserve","coordinates":[-3.70169,48.1811]},{"code":"FR-11427","program":"pota","name":"LE STER - COAT QUEVERAN Biological Reserve","coordinates":[-3.64917,48.2103]},{"code":"FR-11428","program":"pota","name":"CANAL DE NANTES A BREST DE PART ET D'AUTRE DU PORT DE CARHAIX Biological Reserve","coordinates":[-3.60365,48.2447]},{"code":"FR-11429","program":"pota","name":"TOURBIERE DE LIORZ MARGOT - GOULOUDIC Biological Reserve","coordinates":[-3.52867,48.1913]},{"code":"FR-11430","program":"pota","name":"LANDE ET TOURBIERE DE MINEZ GLIGUERIC - POULLOUDU Biological Reserve","coordinates":[-3.50943,48.2015]},{"code":"FR-12122","program":"pota","name":"TRONCON A LURONIUM NATANS SUR L'ISOLE AMONT Biological Reserve","coordinates":[-3.704,48.059]},{"code":"FR-12124","program":"pota","name":"TOURBIERE DE MINE RULAN ET CARRIERES DE STANG BLANC Biological Reserve","coordinates":[-3.714,48.016]},{"code":"FR-12126","program":"pota","name":"L'ISOLE A CASCADEC Biological Reserve","coordinates":[-3.687,48.001]},{"code":"FR-12127","program":"pota","name":"TOURBIERES DE PONT LEDAN ET BIGODOU Biological Reserve","coordinates":[-3.65,48.028]},{"code":"FR-12128","program":"pota","name":"TOURBIERE DE BOUDOUBANAL Biological Reserve","coordinates":[-3.673,48.06]},{"code":"FL/NO-022","program":"sota","name":"Roc'h Toullaëron","coordinates":[-3.6419,48.1686]}]}