{"lat":48,"lon":16.25,"programs":["gma","pota"],"count":20,"references":[{"code":"OE0/WI-1006","program":"gma","name":"Satzberg","coordinates":[16.25,48.20000076]},{"code":"OE0/WI-1010","program":"gma","name":"Schafberg","coordinates":[16.2833004,48.23329926]},{"code":"OE0/WI-1011","program":"gma","name":"Michaelerberg","coordinates":[16.2833004,48.23329926]},{"code":"OE0/WI-1013","program":"gma","name":"Heuberg","coordinates":[16.27470016,48.22940063]},{"code":"AT-0007","program":"pota","name":"Schlosspark Laxenburg Recreation Park","coordinates":[16.363,48.0618]},{"code":"AT-0293","program":"pota","name":"Schlosspark Tribuswinkel Park","coordinates":[16.2762,48.0052]},{"code":"AT-0294","program":"pota","name":"Eichkogel Protected Area","coordinates":[16.292,48.0636]},{"code":"AT-0295","program":"pota","name":"Glaslauterriegel-Heferlberg Protected Area","coordinates":[16.2536,48.0335]},{"code":"AT-0345","program":"pota","name":"Stadtpark Traiskirchen Park","coordinates":[16.2991,48.013]},{"code":"AT-0001","program":"pota","name":"Schweizergarten Park","coordinates":[16.3857,48.1869]},{"code":"AT-0002","program":"pota","name":"Vienna Prater Recreation Park","coordinates":[16.4175,48.2035]},{"code":"AT-0003","program":"pota","name":"Schoenbrunner Schlosspark Park","coordinates":[16.3105,48.1816]},{"code":"AT-0004","program":"pota","name":"Schoenbrunner Tiergarten Park","coordinates":[16.3046,48.1822]},{"code":"AT-0046","program":"pota","name":"Botanischer garten Wien County Showground","coordinates":[16.3841,48.1924]},{"code":"AT-0174","program":"pota","name":"Wienerberg Recreatiion Area Recreation Park","coordinates":[16.3462,48.1611]},{"code":"AT-0187","program":"pota","name":"Augarten Park","coordinates":[16.3767,48.2261]},{"code":"AT-0189","program":"pota","name":"Forsthauspark Park","coordinates":[16.374,48.2443]},{"code":"AT-0203","program":"pota","name":"Laaer Wald Recreation Park","coordinates":[16.3964,48.1607]},{"code":"AT-0204","program":"pota","name":"Kurpark Oberlaa Park","coordinates":[16.4001,48.1487]},{"code":"AT-0213","program":"pota","name":"Donaupark Recreation Park","coordinates":[16.4115,48.2393]}]}