{"lat":48,"lon":-69.5,"programs":["pota","wwbota"],"count":6,"references":[{"code":"CA-0004","program":"pota","name":"Baie de l'Isle-Verte National Wildlife Area","coordinates":[-69.3416,48.0213]},{"code":"CA-2068","program":"pota","name":"Isle Verte Migratory Bird Sanctuary","coordinates":[-69.342,48.0215]},{"code":"CA-2216","program":"pota","name":"Reserve naturelle de l'Ile-aux-Pommes Nature Reserve","coordinates":[-69.323,48.1054]},{"code":"CA-6205","program":"pota","name":"Île-Verte Lighthouse National Historic Site","coordinates":[-69.4242,48.0511]},{"code":"CA-6206","program":"pota","name":"L'Isle-Verte Court House National Historic Site","coordinates":[-69.3389,48.0124]},{"code":"B/CA-1617","program":"wwbota","name":"Despatcher Telephone: Trois-Pistoles - Rivière-du-Loup","coordinates":[-69.31051295,48.02798625]}]}