{"lat":48,"lon":10.25,"programs":["gma"],"count":8,"references":[{"code":"DA/AV-006","program":"gma","name":"Lindenberg","coordinates":[10.2990694,48.19297409]},{"code":"DA/AV-007","program":"gma","name":"Schellenberg","coordinates":[10.36961365,48.10842133]},{"code":"DA/AV-009","program":"gma","name":"Sonnenberg ","coordinates":[10.40459156,48.07383728]},{"code":"DA/AV-011","program":"gma","name":"Doldenhausener Berg","coordinates":[10.46339417,48.08660126]},{"code":"DA/AV-357","program":"gma","name":"Höhenberg","coordinates":[10.42042,48.14327]},{"code":"DA/AV-358","program":"gma","name":"Boschhorn","coordinates":[10.41165,48.16454]},{"code":"DA/AV-360","program":"gma","name":"Kohlberg","coordinates":[10.38459,48.03917]},{"code":"DA/AV-437","program":"gma","name":"Kugelberg","coordinates":[10.4327569,48.2460031]}]}