{"lat":48,"lon":27,"programs":["pota"],"count":5,"references":[{"code":"MD-0051","program":"pota","name":"Parcul boierului Stroescu (La Brânzeni) Landscape Park","coordinates":[27.1808,48.0861]},{"code":"MD-0052","program":"pota","name":"Parcul Hancăuți Park","coordinates":[27.1522,48.0406]},{"code":"MD-0210","program":"pota","name":"Rezervația peisagistică Fetești Landscape Reserve","coordinates":[27.1193,48.1799]},{"code":"MD-0215","program":"pota","name":"Rezervația peisagistică La Castel Landscape Reserve","coordinates":[27.1516,48.1417]},{"code":"MD-0234","program":"pota","name":"Rezervația peisagistică Zăbriceni Landscape Reserve","coordinates":[27.2364,48.0728]}]}