{"lat":48,"lon":-118,"programs":["pota","sota"],"count":8,"references":[{"code":"US-12281","program":"pota","name":"North Huckleberry Mountains BLM Recreation Management Area","coordinates":[-117.893,48.194]},{"code":"US-12434","program":"pota","name":"Waitts State Fishing Lake","coordinates":[-117.781,48.1771]},{"code":"W7W/ST-004","program":"sota","name":"Huckleberry Mountain","coordinates":[-117.9772,48.211]},{"code":"W7W/ST-033","program":"sota","name":"Lane Mountain","coordinates":[-117.8653,48.1697]},{"code":"W7W/ST-071","program":"sota","name":"Empey Mountain","coordinates":[-117.897,48.0884]},{"code":"W7W/ST-102","program":"sota","name":"3458 Gain Summit","coordinates":[-117.8975,48.1822]},{"code":"W7W/ST-122","program":"sota","name":"Wrights Mountain","coordinates":[-117.7673,48.2181]},{"code":"W7W/ST-126","program":"sota","name":"3075 Field Effect Hill","coordinates":[-117.8522,48.2011]}]}