{"lat":48,"lon":-120.25,"programs":["pota","sota"],"count":13,"references":[{"code":"US-12505","program":"pota","name":"Texas Creek State Wildlife Area","coordinates":[-120.126,48.2169]},{"code":"W7W/CH-183","program":"sota","name":"Fox Peak","coordinates":[-120.2331,48.0884]},{"code":"W7W/CH-184","program":"sota","name":"6100Poison Peak","coordinates":[-120.1831,48.0739]},{"code":"W7W/CH-250","program":"sota","name":"Cooper Mountain","coordinates":[-120.0839,48.0113]},{"code":"W7W/OK-175","program":"sota","name":"Middle Fork Ridge","coordinates":[-120.2193,48.1813]},{"code":"W7W/OK-190","program":"sota","name":"South Fork Ridge","coordinates":[-120.1783,48.1607]},{"code":"W7W/OK-196","program":"sota","name":"Gold Ridge","coordinates":[-120.2226,48.2405]},{"code":"W7W/OK-212","program":"sota","name":"Hungry Mountain","coordinates":[-120.1469,48.1414]},{"code":"W7W/OK-216","program":"sota","name":"East Gold Ridge","coordinates":[-120.1811,48.2282]},{"code":"W7W/OK-255","program":"sota","name":"4015 Longpath Mtn","coordinates":[-120.0311,48.184]},{"code":"W7W/OK-261","program":"sota","name":"3938 Impedance Mtn","coordinates":[-120.1183,48.1149]},{"code":"W7W/OK-269","program":"sota","name":"3820 Full Quieting Pk","coordinates":[-120.06,48.0793]},{"code":"W7W/OK-278","program":"sota","name":"Hunter Mountain","coordinates":[-120.0554,48.1102]}]}