{"lat":48,"lon":23.5,"programs":["sota"],"count":10,"references":[{"code":"UT/CA-296","program":"sota","name":"Березниковата-Кичера (Bereznikovata-Kichera)","coordinates":[23.7209,48.2028]},{"code":"UT/CA-313","program":"sota","name":"Рункул (Runkul)","coordinates":[23.7226,48.2237]},{"code":"UT/CA-345","program":"sota","name":"Лазова Кичера (Lazova Kichera)","coordinates":[23.6106,48.2228]},{"code":"UT/CA-352","program":"sota","name":"Высота 591 (Height 591)","coordinates":[23.5198,48.2469]},{"code":"UT/CA-355","program":"sota","name":"Высота 573 (Height 573)","coordinates":[23.7116,48.1053]},{"code":"UT/CA-358","program":"sota","name":"Кичера (Kichera)","coordinates":[23.6938,48.0487]},{"code":"UT/CA-361","program":"sota","name":"Чернавода (Chernavoda)","coordinates":[23.6339,48.0877]},{"code":"UT/CA-366","program":"sota","name":"Высота 500 (Height 500)","coordinates":[23.6541,48.0851]},{"code":"UT/CA-367","program":"sota","name":"Рако-Чертеш (Rako-Chertesh)","coordinates":[23.5583,48.1562]},{"code":"UT/CA-370","program":"sota","name":"Кичера (Kichera)","coordinates":[23.5299,48.118]}]}