{"lat":48,"lon":18.25,"programs":["pota"],"count":6,"references":[{"code":"SK-0055","program":"pota","name":"Maniansky park - Protected Area","coordinates":[18.2846,48.1517]},{"code":"SK-0076","program":"pota","name":"Žitavský park - Protected Area","coordinates":[18.2979,48.2046]},{"code":"SK-0164","program":"pota","name":"Park Kaštieľ Lúčnica nad Žitavou - National Monument","coordinates":[18.2909,48.2152]},{"code":"SK-0168","program":"pota","name":"Rudnyanského park Trávnica - National Monument","coordinates":[18.3347,48.1365]},{"code":"SK-0170","program":"pota","name":"Park Kaštieľ Kolta - National Monument","coordinates":[18.4139,48.0196]},{"code":"SK-0171","program":"pota","name":"Barlanghiho park - National Monument","coordinates":[18.3294,48.1365]}]}