{"lat":48,"lon":-0.25,"programs":["gma","pota"],"count":35,"references":[{"code":"FA/NO-036","program":"gma","name":"Les Bercons","coordinates":[-0.0015,48.2285]},{"code":"FR-7462","program":"pota","name":"ANCIENNE CARRIERE DES BOULAIS Biological Reserve","coordinates":[-0.00712,48.0816]},{"code":"FR-7463","program":"pota","name":"TALUS AU SUD-OUEST DU PETIT MANS Biological Reserve","coordinates":[-0.02912,48.0861]},{"code":"FR-7465","program":"pota","name":"CARRIERE SOUTERRAINE DE BERNAY Biological Reserve","coordinates":[-0.07667,48.0706]},{"code":"FR-7466","program":"pota","name":"TALUS ROUTIER EN BORDURE DU BOIS DE CHAGON Biological Reserve","coordinates":[-0.10641,48.0045]},{"code":"FR-7467","program":"pota","name":"VALLEE DU PALAIS A L'EST DE JOUE Biological Reserve","coordinates":[-0.18405,48.0181]},{"code":"FR-7471","program":"pota","name":"FORET DE MEZIERES Biological Reserve","coordinates":[-0.06085,48.144]},{"code":"FR-7472","program":"pota","name":"TALUS AU SUD DE LA PERRIERE Biological Reserve","coordinates":[-0.02935,48.1263]},{"code":"FR-7473","program":"pota","name":"LA FONTAINE SALEE Biological Reserve","coordinates":[-0.00645,48.1456]},{"code":"FR-7475","program":"pota","name":"TALUS AU NORD-OUEST DE BOUILLONNAY Biological Reserve","coordinates":[-0.00908,48.1675]},{"code":"FR-7476","program":"pota","name":"TALUS AU NORD DE LA CROIX DE TROGNE Biological Reserve","coordinates":[-0.0146,48.1629]},{"code":"FR-7478","program":"pota","name":"SOURCES DU RUISSEAU DE BONNE FONTAINE Biological Reserve","coordinates":[-0.03374,48.1527]},{"code":"FR-7479","program":"pota","name":"SOURCE ET RUISSEAU DE POMMERAY Biological Reserve","coordinates":[-0.04363,48.1672]},{"code":"FR-7480","program":"pota","name":"TALUS ROUTIER AU SUD DU CHAMP DE VOIE Biological Reserve","coordinates":[-0.05992,48.1582]},{"code":"FR-7481","program":"pota","name":"SOURCES A L'EST DE SAINT-REMY-DE-SILLE Biological Reserve","coordinates":[-0.07535,48.1829]},{"code":"FR-7483","program":"pota","name":"PELOUSE DE L'ANCIENNE GARE DE PEZE-LE-ROBERT Biological Reserve","coordinates":[-0.05329,48.1898]},{"code":"FR-7491","program":"pota","name":"PRAIRIES DU VALLON DU DEFFAYS A LA COUR DE CORDE Biological Reserve","coordinates":[-0.06982,48.2484]},{"code":"FR-4296","program":"pota","name":"Bocage a Osmoderma eremita entre Sille-le-Guillaume et la Grande-Charnie Natura 2000","coordinates":[-0.16,48.11]},{"code":"FR-4310","program":"pota","name":"Foret de Sille Natura 2000","coordinates":[-0.11306,48.2111]},{"code":"FR-6983","program":"pota","name":"ABORDS DE LA SARTHE A LA TRIBOUILLERE Biological Reserve","coordinates":[-0.18553,48.0705]},{"code":"FR-10874","program":"pota","name":"VALLEE DE L'ORTHE Biological Reserve","coordinates":[-0.23691,48.2191]},{"code":"FR-10876","program":"pota","name":"PRAIRIES HUMIDES DE LA TOUCHE MORIN Biological Reserve","coordinates":[-0.18577,48.2136]},{"code":"FR-10877","program":"pota","name":"PRAIRIES DE LA VALLEE DE L'ERVE : LE BURON Biological Reserve","coordinates":[-0.24266,48.1882]},{"code":"FR-10885","program":"pota","name":"RUISSEAU DE L'ETANG NEUF AU SUD-EST DES COQUERIERS Biological Reserve","coordinates":[-0.23955,48.0387]},{"code":"FR-10886","program":"pota","name":"ETANG EN BORDURE DE LA GRANDE CHARNIE Biological Reserve","coordinates":[-0.23323,48.0604]},{"code":"FR-10887","program":"pota","name":"ETANG ET CARRIERE D'ETIVAL EN CHARNIE Biological Reserve","coordinates":[-0.22077,48.0508]},{"code":"FR-10888","program":"pota","name":"BOIS DE CHEMIRE Biological Reserve","coordinates":[-0.2195,48.0632]},{"code":"FR-10889","program":"pota","name":"PRAIRIE TOURBEUSE AU NORD-OUEST DE PUISSET Biological Reserve","coordinates":[-0.20719,48.0706]},{"code":"FR-10890","program":"pota","name":"BOCAGE A VIEUX ARBRES ENTRE LES MASSIFS DE CHARNIE ET DE SILLE-LE-GUILLAUME Biological Reserve","coordinates":[-0.15858,48.1284]},{"code":"FR-10892","program":"pota","name":"BOCAGE A VIEUX ARBRES ENTRE LES MASSIFS DE CHARNIE ET DE SILLE-LE-GUILLAUME Biological Reserve","coordinates":[-0.15858,48.1284]},{"code":"FR-10893","program":"pota","name":"COTEAU DE LA VALLEE A ROUESSE-VASSE Biological Reserve","coordinates":[-0.24153,48.1546]},{"code":"FR-14465","program":"pota","name":"COTEAU DE LA VALLEE A ROUESSE-VASSE Biological Reserve","coordinates":[-0.236,48.158]},{"code":"FR-14466","program":"pota","name":"PRAIRIES HUMIDES DU VALLON DE JUILLE Biological Reserve","coordinates":[-0.244,48.126]},{"code":"FR-14467","program":"pota","name":"PARCELLE FORESTERE ENTRE LA CROIX DE LA MARE ET LE SENTIER Biological Reserve","coordinates":[-0.202,48.173]},{"code":"FR-14468","program":"pota","name":"BOIS ET GROTTES DU PETIT COURTALIERU Biological Reserve","coordinates":[-0.228,48.191]}]}