{"lat":48,"lon":-2,"programs":["pota"],"count":11,"references":[{"code":"FR-9298","program":"pota","name":"GRAVIERES DU SUD DE RENNES Biological Reserve","coordinates":[-1.76095,48.0585]},{"code":"FR-9299","program":"pota","name":"BOIS ET GRAVIERES DE CICE Biological Reserve","coordinates":[-1.76288,48.0435]},{"code":"FR-9300","program":"pota","name":"PRAIRIE DU BAS COURTIL Biological Reserve","coordinates":[-1.78742,48.0883]},{"code":"FR-9301","program":"pota","name":"BOCAGE DE LA VALLEE DE LA FLUME Biological Reserve","coordinates":[-1.79781,48.1281]},{"code":"FR-9302","program":"pota","name":"BOIS DE CHAMPAGNE Biological Reserve","coordinates":[-1.77963,48.1558]},{"code":"FR-12263","program":"pota","name":"LA ROCHE DU BOIS Biological Reserve","coordinates":[-1.855,48.019]},{"code":"FR-12265","program":"pota","name":"ETANG DE LA MUSSE Biological Reserve","coordinates":[-1.955,48.003]},{"code":"FR-12266","program":"pota","name":"PLATEAU DE LA GARE AU FRANC BOIS Biological Reserve","coordinates":[-1.942,48.032]},{"code":"FR-12267","program":"pota","name":"BARRAGE DE LA CHAIZE Biological Reserve","coordinates":[-1.965,48.021]},{"code":"FR-12293","program":"pota","name":"VALLEE DU SEREIN ET BOCAGE ADJACENT Biological Reserve","coordinates":[-1.956,48.064]},{"code":"FR-12294","program":"pota","name":"VALLEE DU ROHUEL Biological Reserve","coordinates":[-1.933,48.051]}]}