{"lat":48,"lon":16.75,"programs":["gma","pota","sota"],"count":14,"references":[{"code":"OE/NO-180","program":"gma","name":"Hundsheimer Berg","coordinates":[16.93919945,48.13190079]},{"code":"OE/NO-197","program":"gma","name":"Braunsberg","coordinates":[16.95750046,48.15309906]},{"code":"OE0/NO-1061","program":"gma","name":"Heimenburg (Schlossberg)","coordinates":[16.94785,48.14244]},{"code":"AT-0184","program":"pota","name":"Parndorfer Platte - Heideboden Natura 2000","coordinates":[16.9031,48.007]},{"code":"AT-0060","program":"pota","name":"Donau-March-Thaya-Auen Nature Reserve","coordinates":[16.8,48.1301]},{"code":"AT-0234","program":"pota","name":"Schlosshof Historic Site","coordinates":[16.9357,48.2146]},{"code":"AT-0254","program":"pota","name":"Harrachpark Park","coordinates":[16.7908,48.0265]},{"code":"AT-0256","program":"pota","name":"Roman City of Carnuntum Historic Site","coordinates":[16.8592,48.1126]},{"code":"AT-0257","program":"pota","name":"Roman Military Town Amphitheater Historic Site","coordinates":[16.8926,48.1266]},{"code":"AT-0258","program":"pota","name":"Kurpark Bad Deutsch Altenburg Park","coordinates":[16.902,48.1399]},{"code":"AT-0349","program":"pota","name":"Naturschutzgebiet Braunsberg-Hundsheimerberg Protected Area","coordinates":[16.9574,48.1535]},{"code":"OE/NO-180","program":"sota","name":"Hundsheimer Berg","coordinates":[16.9392,48.1319]},{"code":"OE/NO-197","program":"sota","name":"Braunsberg","coordinates":[16.9575,48.1531]},{"code":"OM/BA-004","program":"sota","name":"Devínska Kobyla","coordinates":[16.9955,48.1894]}]}