{"lat":48,"lon":20.25,"programs":["gma","pota","sota"],"count":39,"references":[{"code":"HG/EM-256","program":"gma","name":"Akaszt脙鲁-hegy","coordinates":[20.275,48.231]},{"code":"HG/EM-259","program":"gma","name":"Kopasz-Galya","coordinates":[20.3932,48.0313]},{"code":"HG/EM-260","program":"gma","name":"Tardos-hegy","coordinates":[20.3401,48.0079]},{"code":"HG/EM-268","program":"gma","name":"B脙隆lv脙隆ny","coordinates":[20.4721,48.0996]},{"code":"HG/EM-269","program":"gma","name":"Barta-lyuk hegyese","coordinates":[20.4677,48.031]},{"code":"HG/EM-270","program":"gma","name":"Gerennav脙隆r","coordinates":[20.4308,48.0904]},{"code":"HG/EM-271","program":"gma","name":"Lambot-hegyese","coordinates":[20.4658,48.0414]},{"code":"HG/EM-272","program":"gma","name":"Tar-k脙碌","coordinates":[20.4611,48.0572]},{"code":"HG/EM-273","program":"gma","name":"Pes-k脙碌","coordinates":[20.4269,48.0494]},{"code":"HG/EM-274","program":"gma","name":"Pipis-hegy","coordinates":[20.4797,48.0893]},{"code":"HG/EM-275","program":"gma","name":"V脙露r脙露s-s脙隆r-hegy","coordinates":[20.4447,48.0774]},{"code":"HG/EM-276","program":"gma","name":"V脙露r脙露s-S脙隆r-hegyese","coordinates":[20.4604,48.0071]},{"code":"HG/EM-277","program":"gma","name":"Isp脙隆n-hegy","coordinates":[20.4313,48.0768]},{"code":"HG/EM-278","program":"gma","name":"Kukucs脙鲁-hegy","coordinates":[20.4389,48.0798]},{"code":"HG/EM-279","program":"gma","name":"Nagy-Kopasz","coordinates":[20.4251,48.0637]},{"code":"HG/EM-280","program":"gma","name":"Vir脙隆gos-s脙隆r-hegy","coordinates":[20.4438,48.067]},{"code":"HG/EM-281","program":"gma","name":"Kis-Vir脙隆gos-hegy","coordinates":[20.4459,48.0582]},{"code":"HG/EM-282","program":"gma","name":"Fekete-s脙隆r-b脙漏rc","coordinates":[20.4586,48.0765]},{"code":"HG/EM-283","program":"gma","name":"Kis-s脙隆r-b脙漏rc","coordinates":[20.4631,48.0789]},{"code":"HG/EM-284","program":"gma","name":"Huta-b脙漏rc","coordinates":[20.4575,48.0821]},{"code":"HG/EM-285","program":"gma","name":"Nagy-k脙碌h脙隆t","coordinates":[20.4771,48.0671]},{"code":"HG/EM-286","program":"gma","name":"Kis-k脙碌h脙隆t","coordinates":[20.4858,48.0667]},{"code":"HG/EM-287","program":"gma","name":"K脙碌r脙露s-b脙漏rc","coordinates":[20.4513,48.0722]},{"code":"HG/EM-288","program":"gma","name":"Fes脙碌-Borovny脙隆k","coordinates":[20.4906,48.0993]},{"code":"HG/EM-289","program":"gma","name":"Fodor-hegy","coordinates":[20.4695,48.0864]},{"code":"HG/EM-290","program":"gma","name":"Nagy-Istv脙隆n-er脙碌se","coordinates":[20.4629,48.0904]},{"code":"HG/EM-291","program":"gma","name":"Kecskor-hegy","coordinates":[20.4504,48.0434]},{"code":"HG/EM-292","program":"gma","name":"Kir脙隆ly-sz脙漏k","coordinates":[20.4088,48.0323]},{"code":"HG/EM-293","program":"gma","name":"脙鈥-k脙碌","coordinates":[20.4079,48.0511]},{"code":"HG/EM-294","program":"gma","name":"Ny脙隆rj脙潞-hegy","coordinates":[20.4975,48.113]},{"code":"HG/EM-295","program":"gma","name":"Verepce-b脙漏rc","coordinates":[20.4787,48.119]},{"code":"HG/EM-296","program":"gma","name":"Kalica-tet脙碌","coordinates":[20.4514,48.2183]},{"code":"HU-0003","program":"pota","name":"B眉kki National Park","coordinates":[20.4208,48.0628]},{"code":"HA/EM-003","program":"sota","name":"Ist谩ll贸s-k枚","coordinates":[20.43,48.0694]},{"code":"HA/EM-065","program":"sota","name":"V铆z-k枚z","coordinates":[20.4472,48.2064]},{"code":"HA/EM-082","program":"sota","name":"Kelemen sz茅ke","coordinates":[20.3975,48.0631]},{"code":"HA/EM-111","program":"sota","name":"H谩rom-k枚","coordinates":[20.4572,48.2292]},{"code":"HA/EM-114","program":"sota","name":"Boroszl贸-f枚","coordinates":[20.3083,48.1719]},{"code":"HA/EM-122","program":"sota","name":"R贸zsa-domb","coordinates":[20.2853,48.1939]}]}