{"lat":48,"lon":24.25,"programs":["sota"],"count":5,"references":[{"code":"UT/CA-004","program":"sota","name":"Петрос (Petros)","coordinates":[24.4212,48.1716]},{"code":"UT/CA-041","program":"sota","name":"Менчиль (Menchil)","coordinates":[24.4421,48.1132]},{"code":"UT/CA-087","program":"sota","name":"Сеглин (Seglin)","coordinates":[24.3718,48.1015]},{"code":"UT/CA-108","program":"sota","name":"Менчул (Menchul)","coordinates":[24.2619,48.0223]},{"code":"UT/CA-150","program":"sota","name":"Штевьера (Shteviera)","coordinates":[24.3033,48.1009]}]}