{"lat":48,"lon":23.75,"programs":["sota"],"count":11,"references":[{"code":"UT/CA-063","program":"sota","name":"Апецка (Apetska)","coordinates":[23.9968,48.1832]},{"code":"UT/CA-168","program":"sota","name":"Высота 1177 (Height 1177)","coordinates":[23.8719,48.225]},{"code":"UT/CA-226","program":"sota","name":"Полонинка-Гора (Poloninka-Gora)","coordinates":[23.8066,48.2344]},{"code":"UT/CA-284","program":"sota","name":"Долуц (Doluts)","coordinates":[23.8556,48.2034]},{"code":"UT/CA-285","program":"sota","name":"Магура (Magura)","coordinates":[23.9281,48.1217]},{"code":"UT/CA-292","program":"sota","name":"Высота 872 (Height 872)","coordinates":[23.7931,48.1785]},{"code":"UT/CA-303","program":"sota","name":"Перекрестья (Perekrestiya)","coordinates":[23.7773,48.247]},{"code":"UT/CA-317","program":"sota","name":"Клева (Kleva)","coordinates":[23.9342,48.0843]},{"code":"UT/CA-325","program":"sota","name":"Боулуй (Bouluy)","coordinates":[23.8827,48.097]},{"code":"UT/CA-339","program":"sota","name":"Плеска (Pleska)","coordinates":[23.8486,48.1461]},{"code":"UT/CA-359","program":"sota","name":"Кичера (Kichera)","coordinates":[23.7863,48.0343]}]}