{"lat":48.25,"lon":2.75,"programs":["pota"],"count":7,"references":[{"code":"FR-11450","program":"pota","name":"ETANG DE GOURVEAUX Biological Reserve","coordinates":[2.96939,48.2603]},{"code":"FR-11461","program":"pota","name":"CHAOS DU GOUET Biological Reserve","coordinates":[2.83911,48.4389]},{"code":"FR-4040","program":"pota","name":"Rivieres du Loing et du Lunain Natura 2000","coordinates":[2.79417,48.2775]},{"code":"FR-4041","program":"pota","name":"Basse vallee du Loing Natura 2000","coordinates":[2.78028,48.3242]},{"code":"FR-15082","program":"pota","name":"VALLEE DE LA SEINE ENTRE MELUN ET CHAMPAGNE-SUR-SEINE Biological Reserve","coordinates":[2.771,48.463]},{"code":"FR-15095","program":"pota","name":"FORET DE BARBEAU ET BOIS DE SAINT-DENIS 1 Biological Reserve","coordinates":[2.778,48.473]},{"code":"FR-15096","program":"pota","name":"FORET DE BARBEAU ET BOIS DE SAINT-DENIS Biological Reserve","coordinates":[2.787,48.461]}]}