{"lat":48.25,"lon":16,"programs":["gma","pota","sota"],"count":10,"references":[{"code":"OE/NO-186","program":"gma","name":"Haberg","coordinates":[16.06500053,48.48419952]},{"code":"OE0/NO-1054","program":"gma","name":"Wolfpassinger Berg","coordinates":[16.18779945,48.30110168]},{"code":"OE0/NO-1058","program":"gma","name":"Auberg","coordinates":[16.04439926,48.2655983]},{"code":"OE0/NO-1113","program":"gma","name":"Tulbinger Kogel","coordinates":[16.14889908,48.28170013]},{"code":"OE0/NO-1129","program":"gma","name":"Hohenau","coordinates":[16.249139,48.29425]},{"code":"AT-0017","program":"pota","name":"Eichenhain Nature Reserve","coordinates":[16.2398,48.2928]},{"code":"AT-0198","program":"pota","name":"Tullnerfelder Donau-Auen Natura 2000","coordinates":[16.0065,48.35]},{"code":"AT-0206","program":"pota","name":"Wasserpark Tulln Recreation Park","coordinates":[16.039,48.3294]},{"code":"AT-0249","program":"pota","name":"Aubad Tulln Recreation Site","coordinates":[16.077,48.3318]},{"code":"OE/NO-186","program":"sota","name":"Haberg","coordinates":[16.065,48.4842]}]}