{"lat":48.25,"lon":16.25,"programs":["gma","pota","sota"],"count":20,"references":[{"code":"OE/NO-281","program":"gma","name":"Hadersfeld Obelisk","coordinates":[16.2582,48.3386]},{"code":"OE/WI-001","program":"gma","name":"Hermannskogel","coordinates":[16.29360008,48.27030182]},{"code":"OE0/NO-1118","program":"gma","name":"Michelberg","coordinates":[16.28890038,48.42969894]},{"code":"OE0/NO-1121","program":"gma","name":"Glockenberg","coordinates":[16.44720078,48.42890167]},{"code":"OE0/NO-1122","program":"gma","name":"Buchberg","coordinates":[16.30750084,48.29940033]},{"code":"OE0/NO-1123","program":"gma","name":"Bisamberg","coordinates":[16.36170006,48.32080078]},{"code":"OE0/NO-1128","program":"gma","name":"Sonnberg","coordinates":[16.25189972,48.32329941]},{"code":"OE0/NO-1136","program":"gma","name":"Donaubrunnfeld","coordinates":[16.424112,48.395918]},{"code":"OE0/WI-1001","program":"gma","name":"Vogelsangberg","coordinates":[16.29999924,48.26670074]},{"code":"OE0/WI-1003","program":"gma","name":"Kahlenberg","coordinates":[16.33298,48.27636]},{"code":"OE0/WI-1008","program":"gma","name":"Leopoldsberg","coordinates":[16.34519,48.27825]},{"code":"OE0/WI-1012","program":"gma","name":"Burgstall","coordinates":[16.35000038,48.26670074]},{"code":"OE0/WI-1016","program":"gma","name":"Latisberg (Cobenzl)","coordinates":[16.31442,48.26699]},{"code":"AT-0190","program":"pota","name":"Donauinsel Park","coordinates":[16.3838,48.2512]},{"code":"AT-0216","program":"pota","name":"Bisamberg Protected Landscape Area","coordinates":[16.3779,48.3221]},{"code":"AT-0237","program":"pota","name":"Aupark Klosterneuburg Park","coordinates":[16.3331,48.3073]},{"code":"AT-0248","program":"pota","name":"Au-Erlebnisweg Klosterneuburg Natural Area","coordinates":[16.3327,48.3069]},{"code":"AT-0188","program":"pota","name":"Theresa-Tauscher-Park Park","coordinates":[16.4297,48.2602]},{"code":"OE/NO-281","program":"sota","name":"Hadersfeld Obelisk","coordinates":[16.2582,48.3386]},{"code":"OE/WI-001","program":"sota","name":"Hermannskogel","coordinates":[16.2936,48.2703]}]}