{"lat":48.25,"lon":-113.75,"programs":["sota"],"count":30,"references":[{"code":"W7M/FN-011","program":"sota","name":"Mount Phillips","coordinates":[-113.5251,48.4774]},{"code":"W7M/FN-015","program":"sota","name":"Mount Saint Nicholas","coordinates":[-113.5503,48.3914]},{"code":"W7M/FN-017","program":"sota","name":"Mount Pinchot","coordinates":[-113.5951,48.4955]},{"code":"W7M/FN-026","program":"sota","name":"Eaglehead Mountain","coordinates":[-113.6054,48.4736]},{"code":"W7M/FN-031","program":"sota","name":"9010","coordinates":[-113.5701,48.4991]},{"code":"W7M/FN-044","program":"sota","name":"Battlement Mountain","coordinates":[-113.5182,48.4147]},{"code":"W7M/FN-045","program":"sota","name":"Church Butte","coordinates":[-113.5137,48.3816]},{"code":"W7M/FN-052","program":"sota","name":"8710","coordinates":[-113.5508,48.4459]},{"code":"W7M/FN-054","program":"sota","name":"South Cloudcroft Peaks","coordinates":[-113.569,48.4339]},{"code":"W7M/FN-057","program":"sota","name":"Peril Peak","coordinates":[-113.5904,48.4564]},{"code":"W7M/FN-078","program":"sota","name":"8455","coordinates":[-113.5864,48.4389]},{"code":"W7M/FN-089","program":"sota","name":"Threesuns Mountain","coordinates":[-113.6556,48.4902]},{"code":"W7M/FN-097","program":"sota","name":"Mount Liebig","coordinates":[-113.7331,48.3081]},{"code":"W7M/FN-108","program":"sota","name":"7852","coordinates":[-113.7244,48.2769]},{"code":"W7M/FN-113","program":"sota","name":"7804","coordinates":[-113.7297,48.2847]},{"code":"W7M/FN-114","program":"sota","name":"7798","coordinates":[-113.6967,48.2622]},{"code":"W7M/FN-119","program":"sota","name":"Running Rabbit Mountain","coordinates":[-113.5408,48.2589]},{"code":"W7M/FN-151","program":"sota","name":"Paola Ridge","coordinates":[-113.6678,48.3039]},{"code":"W7M/FN-155","program":"sota","name":"7180","coordinates":[-113.6783,48.2725]},{"code":"W7M/FN-158","program":"sota","name":"7140","coordinates":[-113.7139,48.3589]},{"code":"W7M/FN-159","program":"sota","name":"7135","coordinates":[-113.5144,48.3185]},{"code":"W7M/FN-168","program":"sota","name":"Essex Mountain","coordinates":[-113.6639,48.2644]},{"code":"W7M/FN-170","program":"sota","name":"6953","coordinates":[-113.5441,48.3083]},{"code":"W7M/FN-172","program":"sota","name":"6885","coordinates":[-113.6797,48.3269]},{"code":"W7M/FN-174","program":"sota","name":"Rampage Mountain","coordinates":[-113.5884,48.346]},{"code":"W7M/FN-177","program":"sota","name":"North Threetops Mountain","coordinates":[-113.7044,48.4577]},{"code":"W7M/FN-187","program":"sota","name":"Riverview Mountain","coordinates":[-113.6162,48.3669]},{"code":"W7M/FN-207","program":"sota","name":"West Double Mountain","coordinates":[-113.6528,48.4001]},{"code":"W7M/FN-234","program":"sota","name":"4625","coordinates":[-113.7429,48.4267]},{"code":"W7M/FN-248","program":"sota","name":"Scalplock Mountain","coordinates":[-113.5748,48.3]}]}