{"lat":48.25,"lon":-123.5,"programs":["pota","sota"],"count":15,"references":[{"code":"CA-3487","program":"pota","name":"Esquimalt Lagoon Migratory Bird Sanctuary","coordinates":[-123.472,48.4173]},{"code":"CA-3688","program":"pota","name":"Mount Douglas Park","coordinates":[-123.338,48.4909]},{"code":"CA-3917","program":"pota","name":"Oak Bay Islands Ecological Reserve","coordinates":[-123.268,48.4215]},{"code":"CA-4191","program":"pota","name":"Ten Mile Point Ecological Reserve","coordinates":[-123.266,48.451]},{"code":"CA-4218","program":"pota","name":"Trial Islands Ecological Reserve","coordinates":[-123.306,48.4004]},{"code":"CA-4258","program":"pota","name":"Victoria Harbour Migratory Bird Sanctuary","coordinates":[-123.337,48.4099]},{"code":"CA-4787","program":"pota","name":"Fisgard Lighthouse National Historic Site","coordinates":[-123.448,48.4304]},{"code":"CA-4789","program":"pota","name":"Fort Rodd Hill National Historic Site","coordinates":[-123.454,48.4339]},{"code":"CA-5326","program":"pota","name":"Hatley Park National Historic Site","coordinates":[-123.473,48.4349]},{"code":"CA-5539","program":"pota","name":"Uplands Park Natural Area","coordinates":[-123.298,48.4391]},{"code":"CA-5540","program":"pota","name":"Beacon Hill Park","coordinates":[-123.365,48.4124]},{"code":"CA-5667","program":"pota","name":"Mount Tolmie Park","coordinates":[-123.326,48.4568]},{"code":"CA-6398","program":"pota","name":"Craigflower Manor House National Historic Site","coordinates":[-123.424,48.4517]},{"code":"CA-6399","program":"pota","name":"Craigflower Schoolhouse National Historic Site","coordinates":[-123.422,48.4526]},{"code":"VE7/CL-025","program":"sota","name":"Mount Douglas","coordinates":[-123.3467,48.4931]}]}