{"lat":48.25,"lon":15.25,"programs":["gma","pota","sota"],"count":14,"references":[{"code":"OE/NO-096","program":"gma","name":"Jauerling","coordinates":[15.33829975,48.33940125]},{"code":"OE/NO-280","program":"gma","name":"Klausberg","coordinates":[15.42,48.2777]},{"code":"OE/NO-319","program":"gma","name":"Friedrichfelsen","coordinates":[15.4375,48.3433]},{"code":"OE0/NO-1043","program":"gma","name":"Kohlerhöhe","coordinates":[15.48750019,48.47060013]},{"code":"OE0/NO-1089","program":"gma","name":"Mühlberg","coordinates":[15.44250011,48.3492012]},{"code":"OE0/NO-1095","program":"gma","name":"Seekopf","coordinates":[15.47220039,48.37530136]},{"code":"OE0/NO-1100","program":"gma","name":"Dunkelstein","coordinates":[15.48670006,48.25030136]},{"code":"OE0/NO-1125","program":"gma","name":"Sandl","coordinates":[15.48670006,48.42750168]},{"code":"OE0/NO-1127","program":"gma","name":"Kolmberg","coordinates":[15.48390007,48.4618988]},{"code":"AT-0026","program":"pota","name":"Jauerling-Wachau Nature Reserve","coordinates":[15.3298,48.3077]},{"code":"AT-0059","program":"pota","name":"Wachau Und Umgebung Nature Reserve","coordinates":[15.419,48.3617]},{"code":"OE/NO-096","program":"sota","name":"Jauerling","coordinates":[15.3383,48.3394]},{"code":"OE/NO-280","program":"sota","name":"Klausberg","coordinates":[15.42,48.2777]},{"code":"OE/NO-319","program":"sota","name":"Friedrichfelsen","coordinates":[15.4375,48.3433]}]}