{"lat":48.25,"lon":15.5,"programs":["gma","pota","sota"],"count":9,"references":[{"code":"OE/NO-324","program":"gma","name":"Fohraberg bei Maria Ellend","coordinates":[15.6603,48.3372]},{"code":"OE0/NO-1048","program":"gma","name":"Hiesberg","coordinates":[15.52330017,48.45000076]},{"code":"OE0/NO-1050","program":"gma","name":"Silberne Birn","coordinates":[15.52420044,48.29639816]},{"code":"OE0/NO-1105","program":"gma","name":"Ammering","coordinates":[15.53579998,48.3246994]},{"code":"OE0/NO-1112","program":"gma","name":"Waxenberg","coordinates":[15.60219955,48.35889816]},{"code":"OE0/NO-1120","program":"gma","name":"Schiffberg","coordinates":[15.68830013,48.37170029]},{"code":"OE0/NO-1139","program":"gma","name":"Hoher Kölbling","coordinates":[15.6619276,48.2836128]},{"code":"AT-0219","program":"pota","name":"Goettweigerberg und Umgebung Protected Area","coordinates":[15.6142,48.3675]},{"code":"OE/NO-324","program":"sota","name":"Fohraberg bei Maria Ellend","coordinates":[15.6603,48.3372]}]}