{"lat":48.25,"lon":-115.25,"programs":["sota"],"count":7,"references":[{"code":"W7M/LI-101","program":"sota","name":"6097","coordinates":[-115.2036,48.3157]},{"code":"W7M/LI-107","program":"sota","name":"Boundary Mountain","coordinates":[-115.1385,48.4336]},{"code":"W7M/LI-109","program":"sota","name":"Warland Peak","coordinates":[-115.1066,48.4844]},{"code":"W7M/LI-123","program":"sota","name":"Mount Sterling","coordinates":[-115.2407,48.2869]},{"code":"W7M/LI-127","program":"sota","name":"Weigel Mountain","coordinates":[-115.0424,48.4272]},{"code":"W7M/LI-142","program":"sota","name":"Sugarloaf Mountain","coordinates":[-115.1177,48.3613]},{"code":"W7M/LI-143","program":"sota","name":"Cripple Horse Mountain","coordinates":[-115.1754,48.4338]}]}