{"lat":48.25,"lon":9.5,"programs":["gma","sota","wwbota"],"count":13,"references":[{"code":"DA/BW-248","program":"gma","name":"Hochberg","coordinates":[9.56529999,48.2519989]},{"code":"DA/BW-538","program":"gma","name":"Hochbuch","coordinates":[9.72309971,48.4817009]},{"code":"DA/BW-539","program":"gma","name":"Hugsbuch","coordinates":[9.65579987,48.47689819]},{"code":"DA/BW-542","program":"gma","name":"Kohlberg","coordinates":[9.68640041,48.27859879]},{"code":"DA/BW-543","program":"gma","name":"Doppberg","coordinates":[9.65170002,48.26750183]},{"code":"DA/BW-806","program":"gma","name":"Schelklinger Berg","coordinates":[9.73029995,48.36199951]},{"code":"DA/BW-979","program":"gma","name":"Hursch","coordinates":[9.53036,48.47067]},{"code":"DA/BW-980","program":"gma","name":"Waldgreut","coordinates":[9.56712,48.47124]},{"code":"DA/BW-981","program":"gma","name":"Heroldstatt","coordinates":[9.61681,48.44138]},{"code":"DM/BW-856","program":"sota","name":"Kapellenberg","coordinates":[9.749993,48.372463]},{"code":"B/DL-0095","program":"wwbota","name":"ehem. Standortmunitionsniederlage INGSTETTEN","coordinates":[9.638826,48.411348]},{"code":"B/DL-0355","program":"wwbota","name":"Ehem. Französisches Munlager","coordinates":[9.629763,48.413052]},{"code":"B/DL-0378","program":"wwbota","name":"Zivilschutz-Mehrzweckanlage Tränkberg","coordinates":[9.725968,48.284428]}]}