{"lat":48.25,"lon":-3.75,"programs":["pota"],"count":18,"references":[{"code":"FR-3851","program":"pota","name":"Foret de Huelgoat Natura 2000","coordinates":[-3.73194,48.3642]},{"code":"FR-11476","program":"pota","name":"LANDES TOURBEUSES DE KERHIR Biological Reserve","coordinates":[-3.51109,48.4343]},{"code":"FR-11477","program":"pota","name":"GUERNALVEZ Biological Reserve","coordinates":[-3.52205,48.4464]},{"code":"FR-11478","program":"pota","name":"LANDES ET PRAIRIES DE KERNON, PEN AR HOAT-LANDIZEZ ET GUERLOSQUET Biological Reserve","coordinates":[-3.55527,48.4306]},{"code":"FR-11479","program":"pota","name":"AULNE AMONT Biological Reserve","coordinates":[-3.56506,48.44]},{"code":"FR-11480","program":"pota","name":"TOURBIERES DE CREC'H LEAN - KERLAN - PRAJENNOU Biological Reserve","coordinates":[-3.56954,48.4631]},{"code":"FR-11481","program":"pota","name":"TOURBIERES DES SOURCES DU RUDALVEGET - CORN AR HARZ / PEN AR FOREST - CREAC'H PLUEN SUD Biological Reserve","coordinates":[-3.59571,48.4704]},{"code":"FR-11482","program":"pota","name":"COMPLEXE DE LANDES ET TOURBIERES DE ROC'H GOUINO, MENEZ BLEVARA ET GUERNELOHET Biological Reserve","coordinates":[-3.62622,48.4821]},{"code":"FR-11483","program":"pota","name":"ETANG DE BEFFOU Biological Reserve","coordinates":[-3.54504,48.4949]},{"code":"FR-11486","program":"pota","name":"LANDES ET TOURBIERES DU VERGAM Biological Reserve","coordinates":[-3.67687,48.4594]},{"code":"FR-11487","program":"pota","name":"TOURBIERE DE LE QUILLIOU - SAINT GERMAIN Biological Reserve","coordinates":[-3.71904,48.4729]},{"code":"FR-11552","program":"pota","name":"BOIS DE LESTREZEC - LA ROCHE TANGUY Biological Reserve","coordinates":[-3.72762,48.4208]},{"code":"FR-11553","program":"pota","name":"FORET DU HUELGOAT Biological Reserve","coordinates":[-3.71591,48.3795]},{"code":"FR-11554","program":"pota","name":"CHAOS DU HUELGOAT Biological Reserve","coordinates":[-3.73743,48.3674]},{"code":"FR-11555","program":"pota","name":"FORET DE FREAU Biological Reserve","coordinates":[-3.60781,48.379]},{"code":"FR-11556","program":"pota","name":"HAUT AULNE - MOULIN RAGET Biological Reserve","coordinates":[-3.6182,48.3834]},{"code":"FR-11557","program":"pota","name":"LA FONDERIE Biological Reserve","coordinates":[-3.65366,48.3503]},{"code":"FR-11558","program":"pota","name":"CONFLUENCE AULNE - ELEZ Biological Reserve","coordinates":[-3.69484,48.2806]}]}