{"lat":48.25,"lon":-0.75,"programs":["pota"],"count":11,"references":[{"code":"FR-10819","program":"pota","name":"Vallee de l'Aron et etangs associes Biological Reserve","coordinates":[-0.50376,48.2909]},{"code":"FR-10827","program":"pota","name":"Hemi-graben de la Mayenne et bassins d'effondrement Biological Reserve","coordinates":[-0.54332,48.3442]},{"code":"FR-10855","program":"pota","name":"VALLEE DE LA COLMONT Biological Reserve","coordinates":[-0.70419,48.3711]},{"code":"FR-10858","program":"pota","name":"VALLEE DE LA COLMONT AU VIEUX CHATEAU Biological Reserve","coordinates":[-0.71219,48.3622]},{"code":"FR-10859","program":"pota","name":"LE COTEAU DE LA VALLEE Biological Reserve","coordinates":[-0.60234,48.3392]},{"code":"FR-10860","program":"pota","name":"TOURBIERE DE LA FARCIERE Biological Reserve","coordinates":[-0.57407,48.3234]},{"code":"FR-10861","program":"pota","name":"TOURBIERE DU BEL AIR Biological Reserve","coordinates":[-0.561,48.3188]},{"code":"FR-10862","program":"pota","name":"RUISSEAU DU FRESNE ET ABORDS Biological Reserve","coordinates":[-0.54445,48.3582]},{"code":"FR-10863","program":"pota","name":"RUISSEAU DU FRESNE AU CHATEAU Biological Reserve","coordinates":[-0.54755,48.3582]},{"code":"FR-10864","program":"pota","name":"TOURBIERE DU PETIT GLAINTIN Biological Reserve","coordinates":[-0.54332,48.3442]},{"code":"FR-10865","program":"pota","name":"BOCAGE DU BOIS ROUILLE Biological Reserve","coordinates":[-0.51589,48.3179]}]}