{"lat":48.25,"lon":-113.5,"programs":["sota"],"count":28,"references":[{"code":"W7M/FN-018","program":"sota","name":"Mount Rockwell","coordinates":[-113.4508,48.4432]},{"code":"W7M/FN-021","program":"sota","name":"Flinsch Peak","coordinates":[-113.4663,48.4983]},{"code":"W7M/FN-029","program":"sota","name":"Grizzly Mountain","coordinates":[-113.4024,48.4184]},{"code":"W7M/FN-037","program":"sota","name":"8888","coordinates":[-113.4436,48.378]},{"code":"W7M/FN-048","program":"sota","name":"Summit Mountain","coordinates":[-113.3703,48.3539]},{"code":"W7M/FN-060","program":"sota","name":"Little Dog Mountain","coordinates":[-113.3867,48.343]},{"code":"W7M/FN-062","program":"sota","name":"Vigil Peak","coordinates":[-113.4843,48.4158]},{"code":"W7M/FN-064","program":"sota","name":"Mount Despair","coordinates":[-113.4318,48.3989]},{"code":"W7M/FN-067","program":"sota","name":"Sheep Mountain","coordinates":[-113.4709,48.3416]},{"code":"W7M/FN-070","program":"sota","name":"Mount Helen","coordinates":[-113.4665,48.4746]},{"code":"W7M/FN-074","program":"sota","name":"8508","coordinates":[-113.3817,48.417]},{"code":"W7M/FN-075","program":"sota","name":"Lone Walker Mountain","coordinates":[-113.4791,48.4531]},{"code":"W7M/FN-077","program":"sota","name":"Brave Dog Mountain","coordinates":[-113.4609,48.3589]},{"code":"W7M/FN-082","program":"sota","name":"Bearhead Mountain","coordinates":[-113.3564,48.4239]},{"code":"W7M/FN-083","program":"sota","name":"8406","coordinates":[-113.4055,48.4013]},{"code":"W7M/FN-085","program":"sota","name":"Caper Peak","coordinates":[-113.4984,48.4339]},{"code":"W7M/FN-088","program":"sota","name":"Statuary Mountain","coordinates":[-113.4918,48.3916]},{"code":"W7M/FN-102","program":"sota","name":"Calf Robe Mountain","coordinates":[-113.3333,48.3872]},{"code":"W7M/FN-104","program":"sota","name":"Red Crow Mountain","coordinates":[-113.3486,48.4012]},{"code":"W7M/FN-110","program":"sota","name":"Elk Mountain","coordinates":[-113.4445,48.3066]},{"code":"W7M/FN-123","program":"sota","name":"Elkcalf Mountain","coordinates":[-113.2979,48.2843]},{"code":"W7M/FN-167","program":"sota","name":"6996","coordinates":[-113.4812,48.2833]},{"code":"W7M/FN-198","program":"sota","name":"Blacktail Hills","coordinates":[-113.3965,48.3025]},{"code":"W7M/FN-244","program":"sota","name":"7497","coordinates":[-113.3911,48.3932]},{"code":"W7M/GR-007","program":"sota","name":"Rising Wolf Mountain","coordinates":[-113.4159,48.4961]},{"code":"W7M/GR-037","program":"sota","name":"Mount Henry","coordinates":[-113.3436,48.4531]},{"code":"W7M/GR-052","program":"sota","name":"Mount Ellsworth","coordinates":[-113.3692,48.4364]},{"code":"W7M/GR-174","program":"sota","name":"Appistoki Peak","coordinates":[-113.3544,48.4675]}]}