{"lat":48.25,"lon":-3,"programs":["pota"],"count":11,"references":[{"code":"FR-2841","program":"pota","name":"FORET DE LORGE LANDES DE LANFAINS CIME DE KERCHOUAN FR5300037 Natura 2000","coordinates":[-2.83361,48.3497]},{"code":"FR-11451","program":"pota","name":"BUTTE SAINT-MICHEL A LA PORTE AUX MOINES Biological Reserve","coordinates":[-2.9328,48.2938]},{"code":"FR-11452","program":"pota","name":"ETANG DE BOSMELEAC Biological Reserve","coordinates":[-2.91782,48.3094]},{"code":"FR-11453","program":"pota","name":"CIME DE KERCHOUAN - BOIS DE GUERCY Biological Reserve","coordinates":[-2.98919,48.3649]},{"code":"FR-11454","program":"pota","name":"TOURBIERE DU BOUILLON GRIS Biological Reserve","coordinates":[-2.90009,48.3463]},{"code":"FR-11455","program":"pota","name":"LANDES DE LANFAINS Biological Reserve","coordinates":[-2.91365,48.3644]},{"code":"FR-11456","program":"pota","name":"FORET DE LORGES Biological Reserve","coordinates":[-2.83899,48.3565]},{"code":"FR-11457","program":"pota","name":"ETANG DU PAS Biological Reserve","coordinates":[-2.87706,48.3625]},{"code":"FR-11458","program":"pota","name":"FORET DE LA PERCHE Biological Reserve","coordinates":[-2.80043,48.3007]},{"code":"FR-11459","program":"pota","name":"TOURBIERE DU HAUT QUETEL - LA PERCHE Biological Reserve","coordinates":[-2.79331,48.2965]},{"code":"FR-11460","program":"pota","name":"ETANG ET LANDE DE LA FONTAINE AUX CHEVREUILS Biological Reserve","coordinates":[-2.79337,48.2853]}]}