{"lat":48.25,"lon":-117.25,"programs":["pota","sota"],"count":22,"references":[{"code":"US-12565","program":"pota","name":"Skookum Creek State Recreation Area","coordinates":[-117.227,48.2924]},{"code":"W7I/NP-127","program":"sota","name":"Stone Johnny","coordinates":[-117.0286,48.2638]},{"code":"W7I/NP-167","program":"sota","name":"3900","coordinates":[-117.0031,48.4872]},{"code":"W7W/PO-014","program":"sota","name":"South Baldy","coordinates":[-117.1379,48.4261]},{"code":"W7W/PO-025","program":"sota","name":"Cee Cee Ah Peak","coordinates":[-117.2137,48.4711]},{"code":"W7W/PO-032","program":"sota","name":"Ojibway Knoll","coordinates":[-117.1272,48.3885]},{"code":"W7W/PO-033","program":"sota","name":"5037 Ragchew Summit","coordinates":[-117.1753,48.4773]},{"code":"W7W/PO-036","program":"sota","name":"4962 Olivia Mtn","coordinates":[-117.1887,48.4259]},{"code":"W7W/PO-037","program":"sota","name":"Bear Paw Ridge","coordinates":[-117.1525,48.3562]},{"code":"W7W/PO-039","program":"sota","name":"Bead Lake Peak","coordinates":[-117.0651,48.2961]},{"code":"W7W/PO-045","program":"sota","name":"4620 Mt Resistance","coordinates":[-117.2333,48.4513]},{"code":"W7W/PO-046","program":"sota","name":"4420 Propagation Peak","coordinates":[-117.2209,48.4364]},{"code":"W7W/PO-047","program":"sota","name":"Kings Mountain","coordinates":[-117.1897,48.3849]},{"code":"W7W/PO-048","program":"sota","name":"Cooks Mountain","coordinates":[-117.1751,48.352]},{"code":"W7W/PO-050","program":"sota","name":"4171 Long Path Mtn","coordinates":[-117.1688,48.3324]},{"code":"W7W/PO-051","program":"sota","name":"Pelke Divide","coordinates":[-117.0431,48.4661]},{"code":"W7W/PO-055","program":"sota","name":"4078","coordinates":[-117.2211,48.4029]},{"code":"W7W/PO-057","program":"sota","name":"Moon Hill","coordinates":[-117.2386,48.3857]},{"code":"W7W/PO-058","program":"sota","name":"3860 Integrated Circuit Peak","coordinates":[-117.2228,48.4124]},{"code":"W7W/PO-066","program":"sota","name":"3500 Mt Meteor","coordinates":[-117.2048,48.3331]},{"code":"W7W/PO-076","program":"sota","name":"3052 Didahdit Mtn","coordinates":[-117.1477,48.2668]},{"code":"W7W/PO-082","program":"sota","name":"Goose Creek Point","coordinates":[-117.0596,48.4126]}]}