{"lat":48.25,"lon":-4.5,"programs":["pota"],"count":17,"references":[{"code":"FR-4911","program":"pota","name":"ANSE ET BOIS DE POULMIC Biological Reserve","coordinates":[-4.38574,48.2763]},{"code":"FR-1694","program":"pota","name":"d'Armorique Regional Park","coordinates":[-4.46528,48.2564]},{"code":"FR-2870","program":"pota","name":"RADE DE BREST ESTUAIRE DE L AULNE FR5300046 Natura 2000","coordinates":[-4.32333,48.3044]},{"code":"FR-2871","program":"pota","name":"RADE DE BREST  BAIE DE DAOULAS ANSE DE POULMIC FR5310071 Natura 2000","coordinates":[-4.35,48.3]},{"code":"FR-4681","program":"pota","name":"BAIE DE DAOULAS - ANSE DE POULMIC - ESTUAIRES DE LA RIVIERE DU FAOU ET DE L'AULNE Biological Reserve","coordinates":[-4.32393,48.3026]},{"code":"FR-6765","program":"pota","name":"BOIS ET ANSE DU LOC'H (FORET DOMANIALE DE LANDEVENNEC) Biological Reserve","coordinates":[-4.31292,48.2906]},{"code":"FR-8505","program":"pota","name":"ESTUAIRE DE L'ELORN Biological Reserve","coordinates":[-4.39604,48.3876]},{"code":"FR-8506","program":"pota","name":"Le Bois de sapins Conservation Area","coordinates":[-4.403,48.39]},{"code":"FR-8507","program":"pota","name":"Coupe du Quaternaire du Bois de sapins - Le Relecq-Kerhuon Biological Reserve","coordinates":[-4.41,48.39]},{"code":"FR-8510","program":"pota","name":"ETANG DE KERIVES Biological Reserve","coordinates":[-4.49126,48.4779]},{"code":"FR-8548","program":"pota","name":"ROC’H NIVELEN ET KEREZEN - BOIS ET ROCHERS DE KERERAULT ET SAINT-JEAN Biological Reserve","coordinates":[-4.37902,48.3875]},{"code":"FR-8549","program":"pota","name":"Quartzite ordovicien de l'Imperatrice - Plougastel-Daoulas Conservation Area","coordinates":[-4.38,48.39]},{"code":"FR-8550","program":"pota","name":"ETANG DE KERHUON Biological Reserve","coordinates":[-4.38148,48.4057]},{"code":"FR-8551","program":"pota","name":"ETANG DE ROUAL Biological Reserve","coordinates":[-4.27474,48.4191]},{"code":"FR-8552","program":"pota","name":"FORET DE LANDERNEAU Biological Reserve","coordinates":[-4.29889,48.4423]},{"code":"FR-8557","program":"pota","name":"Sites D'Intéret Géologique De La Presqu'ile De Crozon Biological Reserve","coordinates":[-4.49174,48.2821]},{"code":"FR-8565","program":"pota","name":"LANDES DE CLOUCHOUREN Biological Reserve","coordinates":[-4.4983,48.2705]}]}