{"lat":48.25,"lon":-115,"programs":["sota"],"count":12,"references":[{"code":"W7M/FN-188","program":"sota","name":"Mount Swaney","coordinates":[-114.7783,48.4089]},{"code":"W7M/FN-196","program":"sota","name":"Ingalls Mountain","coordinates":[-114.7581,48.3578]},{"code":"W7M/FN-204","program":"sota","name":"Sanders Mountain","coordinates":[-114.8367,48.2906]},{"code":"W7M/FN-211","program":"sota","name":"5881","coordinates":[-114.8083,48.3494]},{"code":"W7M/FN-222","program":"sota","name":"Grubb Mountain","coordinates":[-114.8275,48.2578]},{"code":"W7M/LI-062","program":"sota","name":"Elk Mountain","coordinates":[-114.9077,48.4595]},{"code":"W7M/LI-090","program":"sota","name":"Sheppard Mountain","coordinates":[-114.9102,48.358]},{"code":"W7M/LI-091","program":"sota","name":"Mount Conner","coordinates":[-114.8511,48.328]},{"code":"W7M/LI-098","program":"sota","name":"6134","coordinates":[-114.868,48.4227]},{"code":"W7M/LI-116","program":"sota","name":"5865","coordinates":[-114.8522,48.38]},{"code":"W7M/LI-138","program":"sota","name":"5560","coordinates":[-114.9758,48.4195]},{"code":"W7M/LI-209","program":"sota","name":"5100","coordinates":[-114.9141,48.275]}]}