{"lat":48.25,"lon":8.75,"programs":["gma","pota","sota","wwbota"],"count":10,"references":[{"code":"DA/BW-039","program":"gma","name":"Raichberg","coordinates":[8.99250031,48.30580139]},{"code":"DA/BW-043","program":"gma","name":"Hundsrücken","coordinates":[8.92940044,48.28030014]},{"code":"DA/BW-045","program":"gma","name":"Irrenberg","coordinates":[8.94390011,48.28110123]},{"code":"DA/BW-276","program":"gma","name":"Owinger Berg","coordinates":[8.85779953,48.3567009]},{"code":"DA/BW-277","program":"gma","name":"Hohwacht","coordinates":[8.9236002,48.38999939]},{"code":"DA/BW-978","program":"gma","name":"Heuberg","coordinates":[8.98912,48.28101]},{"code":"DE-0600","program":"pota","name":"Jakobsweg von Rottenburg am Neckar National Historic Trail","coordinates":[8.93379,48.477]},{"code":"DE-0948","program":"pota","name":"Main-Neckar-Rhein-Weg HW3 National Recreation Trail","coordinates":[8.94833,48.345]},{"code":"DM/BW-846","program":"sota","name":"Burg Hohenzollern","coordinates":[8.9675,48.3236]},{"code":"B/DL-0325","program":"wwbota","name":"Warnamt VIII (Zivilschutz)","coordinates":[8.956111,48.455556]}]}