{"lat":48.5,"lon":7.5,"programs":["pota","wwbota"],"count":43,"references":[{"code":"FR-6125","program":"pota","name":"Collines calcaires du Hohberg et du Kochersberg, a Willgotheim et Neugartheim Biological Reserve","coordinates":[7.5363,48.6749]},{"code":"FR-6126","program":"pota","name":"Carrieres de Wasselonne : Transition Muschelkalk superieur/Lettenkohle Conservation Area","coordinates":[7.52,48.66]},{"code":"FR-6138","program":"pota","name":"Vallee de la basse Zorn et de ses affluents Biological Reserve","coordinates":[7.59249,48.7437]},{"code":"FR-6140","program":"pota","name":"Vallee de la Zorn de Dettwiller a Geudertheim Biological Reserve","coordinates":[7.59455,48.7431]},{"code":"FR-6201","program":"pota","name":"Forets du Herrenwald et de Grittwald a Brumath, Vendenheim et Geudertheim Biological Reserve","coordinates":[7.7374,48.6904]},{"code":"FR-6202","program":"pota","name":"Prairies et zones humides du Judenacker a Eckwersheim Biological Reserve","coordinates":[7.70998,48.6901]},{"code":"FR-6280","program":"pota","name":"Etang Gerig a Ostwald Biological Reserve","coordinates":[7.72352,48.5534]},{"code":"FR-6281","program":"pota","name":"Milieux agricoles a Grand Hamster et a Crapaud vert, au sud de la Bruche Biological Reserve","coordinates":[7.58352,48.5202]},{"code":"FR-6282","program":"pota","name":"Zones humides de l'Ostwaldergraben a Ostwald Biological Reserve","coordinates":[7.70322,48.5562]},{"code":"FR-6283","program":"pota","name":"Cours et boisements riverains de la Bruche de Mutzig a sa confluence avec l'Ill a Strasbourg Biological Reserve","coordinates":[7.60559,48.5611]},{"code":"FR-6284","program":"pota","name":"Ried de la Bruche de Molsheim a Strasbourg Biological Reserve","coordinates":[7.58278,48.5532]},{"code":"FR-6285","program":"pota","name":"Briqueterie d'Achenheim Biological Reserve","coordinates":[7.63663,48.5823]},{"code":"FR-6286","program":"pota","name":"Boisements de la Bruche a Holtzheim Biological Reserve","coordinates":[7.62564,48.5522]},{"code":"FR-6287","program":"pota","name":"Ried de la Bruche de Dachstein-gare Biological Reserve","coordinates":[7.55298,48.5481]},{"code":"FR-6289","program":"pota","name":"Ried du Dachsteinerbach a Dachstein, Molsheim et Ergersheim Biological Reserve","coordinates":[7.52044,48.5586]},{"code":"FR-6290","program":"pota","name":"Bassins de la RD 422 et pre du Brunnel a Molsheim Biological Reserve","coordinates":[7.51624,48.5349]},{"code":"FR-6292","program":"pota","name":"Sabliere Lerchenthal a Griesheim-pres-Molsheim Biological Reserve","coordinates":[7.5126,48.5043]},{"code":"B/F-4660","program":"wwbota","name":"BRUMATH","coordinates":[7.710739,48.734764]},{"code":"B/F-4661","program":"wwbota","name":"DUCROT Est","coordinates":[7.706347,48.639315]},{"code":"B/F-4662","program":"wwbota","name":"DUCROT Ouest","coordinates":[7.703281,48.63903]},{"code":"B/F-4663","program":"wwbota","name":"FORT DUCROT Sud","coordinates":[7.703582,48.638281]},{"code":"B/F-4666","program":"wwbota","name":"OBSERVATOIRE Est des CERISIERS","coordinates":[7.704193,48.634871]},{"code":"B/F-4667","program":"wwbota","name":"I6","coordinates":[7.702626,48.634752]},{"code":"B/F-4668","program":"wwbota","name":"I6","coordinates":[7.703043,48.634677]},{"code":"B/F-4676","program":"wwbota","name":"FORT FOCH GLACIS","coordinates":[7.692382,48.628263]},{"code":"B/F-4682","program":"wwbota","name":"FORT FOCH","coordinates":[7.695183,48.626366]},{"code":"B/F-4684","program":"wwbota","name":"M26","coordinates":[7.688927,48.618775]},{"code":"B/F-4685","program":"wwbota","name":"M26","coordinates":[7.688735,48.618648]},{"code":"B/F-4687","program":"wwbota","name":"FORT FRERE","coordinates":[7.681381,48.616915]},{"code":"B/F-4692","program":"wwbota","name":"I11","coordinates":[7.676578,48.613168]},{"code":"B/F-4695","program":"wwbota","name":"A33","coordinates":[7.681686,48.611256]},{"code":"B/F-4697","program":"wwbota","name":"A33","coordinates":[7.681614,48.611081]},{"code":"B/F-4701","program":"wwbota","name":"I12","coordinates":[7.676955,48.608376]},{"code":"B/F-4702","program":"wwbota","name":"I12","coordinates":[7.676727,48.608274]},{"code":"B/F-4728","program":"wwbota","name":"FEIL 1","coordinates":[7.71988,48.557085]},{"code":"B/F-4729","program":"wwbota","name":"FEIL 2","coordinates":[7.719435,48.556705]},{"code":"B/F-4730","program":"wwbota","name":"FEIL 3","coordinates":[7.719064,48.556129]},{"code":"B/F-4731","program":"wwbota","name":"ETANG GERIG 4","coordinates":[7.729204,48.555258]},{"code":"B/F-4739","program":"wwbota","name":"AERODROME d'ENTZHEIM","coordinates":[7.625697,48.543654]},{"code":"B/F-4740","program":"wwbota","name":"ROUTE de NEUHOF Sud","coordinates":[7.744605,48.53692]},{"code":"B/F-4741","program":"wwbota","name":"ROUTE de NEUHOF Ouest 2","coordinates":[7.741966,48.536877]},{"code":"B/F-4742","program":"wwbota","name":"GANZAU Nord","coordinates":[7.7441,48.5309]},{"code":"B/F-4745","program":"wwbota","name":"ECLUSE de FORT UHRICH 1","coordinates":[7.727043,48.50982]}]}