{"lat":48.5,"lon":-4.5,"programs":["pota"],"count":15,"references":[{"code":"FR-2767","program":"pota","name":"TOURBIERE DE LANN GAZEL FR5300067 NATURA 2000 Natura 2000","coordinates":[-4.26889,48.5119]},{"code":"FR-3849","program":"pota","name":"Guisseny Natura 2000","coordinates":[-4.45389,48.635]},{"code":"FR-8471","program":"pota","name":"Fleche sableuse de Penn ar Ch'leuz Biological Reserve","coordinates":[-4.298,48.64]},{"code":"FR-8472","program":"pota","name":"ANSE DE GOULVEN Biological Reserve","coordinates":[-4.26418,48.654]},{"code":"FR-8473","program":"pota","name":"Fleche sableuse à cretes multiples holocène de Penn ar Ch’leuz - Goulven Conservation Area","coordinates":[-4.27,48.64]},{"code":"FR-8474","program":"pota","name":"DUNES DE KEREMMA Biological Reserve","coordinates":[-4.26422,48.6446]},{"code":"FR-8475","program":"pota","name":"BEG AN TOULLOU ET DUNES DE KERURUS ET DU LIVIDIC Biological Reserve","coordinates":[-4.3039,48.6659]},{"code":"FR-8477","program":"pota","name":"DUNE DE KERZENVAL ET MARAIS DE CHAPELLE POL Biological Reserve","coordinates":[-4.34877,48.6739]},{"code":"FR-8478","program":"pota","name":"DUNE DE MENEZ-HAM ET DEPRESSION DE THEVEN Biological Reserve","coordinates":[-4.36228,48.6652]},{"code":"FR-8479","program":"pota","name":"ANSE DE GUISSENY - ESTUAIRE DE QUILLIMADEC Biological Reserve","coordinates":[-4.41819,48.6413]},{"code":"FR-8480","program":"pota","name":"Marais Du Curnic 1 Conservation Park","coordinates":[-4.43874,48.6294]},{"code":"FR-8481","program":"pota","name":"Marais de curnic 2 Biological Reserve","coordinates":[-4.43982,48.6292]},{"code":"FR-8482","program":"pota","name":"MARAIS DU CURNIC ET DUNE DU VOUGO (ancien nom : PALUD DU CURNIC) Biological Reserve","coordinates":[-4.44238,48.6302]},{"code":"FR-8511","program":"pota","name":"Tourbiere De Lann Gazel Biological Reserve","coordinates":[-4.27069,48.5133]},{"code":"FR-8512","program":"pota","name":"LANN GAZEL Biological Reserve","coordinates":[-4.27144,48.5126]}]}