{"lat":48.5,"lon":-116.25,"programs":["gma","sota"],"count":13,"references":[{"code":"XW7M/LI-066","program":"gma","name":"Cross Mountain","coordinates":[-116.00530243,48.72389984]},{"code":"W7I/NP-037","program":"sota","name":"Clifty Mountain","coordinates":[-116.2202,48.6142]},{"code":"W7I/NP-046","program":"sota","name":"Iron Mountain","coordinates":[-116.2044,48.5655]},{"code":"W7I/NP-050","program":"sota","name":"Timber Mountain","coordinates":[-116.1045,48.5334]},{"code":"W7I/NP-055","program":"sota","name":"Boulder Mountain","coordinates":[-116.181,48.5264]},{"code":"W7I/NP-088","program":"sota","name":"5470","coordinates":[-116.2461,48.5586]},{"code":"W7I/NP-145","program":"sota","name":"Burro Ridge","coordinates":[-116.1097,48.6305]},{"code":"W7I/NP-194","program":"sota","name":"3260","coordinates":[-116.0793,48.7356]},{"code":"W7I/NP-199","program":"sota","name":"3089","coordinates":[-116.1295,48.7484]},{"code":"W7I/NP-215","program":"sota","name":"4032","coordinates":[-116.1815,48.6715]},{"code":"W7I/NP-216","program":"sota","name":"2982","coordinates":[-116.0763,48.6951]},{"code":"W7M/LI-198","program":"sota","name":"Haystack Mountain","coordinates":[-116.0367,48.6969]},{"code":"W7M/LI-201","program":"sota","name":"3410","coordinates":[-116.0208,48.5703]}]}