{"lat":48.5,"lon":6.5,"programs":["pota"],"count":13,"references":[{"code":"FR-3252","program":"pota","name":"Foret et etang de Parroy  vallee de la Vezouze et fort de Manonviller FR4100192 Natura 2000","coordinates":[6.61361,48.6192]},{"code":"FR-8294","program":"pota","name":"FORET DOMANIALE DE MONDON ET BOIS ATTENANT A MONCEL-LES-LUNEVILLE Biological Reserve","coordinates":[6.641,48.5466]},{"code":"FR-8296","program":"pota","name":"ETANG DE FALENZE ET FORET ATTENANTE A FRAIMBOIS Biological Reserve","coordinates":[6.53662,48.5072]},{"code":"FR-8300","program":"pota","name":"GITE A CHIROPTERES A MANONVILLER Biological Reserve","coordinates":[6.65542,48.5946]},{"code":"FR-8301","program":"pota","name":"VALLEE DE LA VEZOUZE DE MARAINVILLER A JOLIVET Biological Reserve","coordinates":[6.56203,48.6006]},{"code":"FR-8319","program":"pota","name":"Le Balloir Natural Features Reserve","coordinates":[6.65411,48.6346]},{"code":"FR-8320","program":"pota","name":"FORET DE PARROY Biological Reserve","coordinates":[6.62006,48.6426]},{"code":"FR-8321","program":"pota","name":"FORET DE PARROY 2 Biological Reserve","coordinates":[6.61744,48.6401]},{"code":"FR-8322","program":"pota","name":"ETANG DE PARROY Biological Reserve","coordinates":[6.58376,48.6875]},{"code":"FR-8323","program":"pota","name":"Roselière De L'Etang De Parroy Biological Reserve","coordinates":[6.58375,48.6926]},{"code":"FR-13655","program":"pota","name":"PRAIRIES DE LAGARDE Biological Reserve","coordinates":[6.732,48.692]},{"code":"FR-13656","program":"pota","name":"ETANG D'OMMERAY Biological Reserve","coordinates":[6.707,48.719]},{"code":"FR-13658","program":"pota","name":"ETANG DE BRU A DONNELAY Biological Reserve","coordinates":[6.703,48.748]}]}