{"lat":48.5,"lon":24.5,"programs":["gma","pota","sota"],"count":6,"references":[{"code":"US/GO-001","program":"gma","name":"ﾃ青ｦﾃ青ｵﾃ青ｿﾃ鯛ﾃ打ｽﾃ鯛ぎﾃ青ｰ","coordinates":[24.54247731,48.65218823]},{"code":"US/GO-002","program":"gma","name":"ﾃ絶愿青ｲﾃ青ｾﾃ青ｷﾃ青ｴﾃ青ｵﾃ鯛ﾃ打津青ｺﾃ青ｰ","coordinates":[24.56329125,48.65802822]},{"code":"UA-0061","program":"pota","name":"Klyvskyi National Wildlife Area","coordinates":[24.5959,48.5246]},{"code":"UT/CA-286","program":"sota","name":"ﾐ｡ﾑびﾐｸﾐｳﾐｾﾑﾐｰ (Stryhora)","coordinates":[24.5833,48.5639]},{"code":"UT/CA-347","program":"sota","name":"ﾐ飯σｻ (Dul)","coordinates":[24.7059,48.5237]},{"code":"UT/CA-351","program":"sota","name":"ﾐ寅ｾﾑﾐｾﾐｴﾐｸﾑ禍ｵ (Gorodishe)","coordinates":[24.5515,48.6447]}]}