{"lat":48.5,"lon":6,"programs":["gma","pota","sota"],"count":24,"references":[{"code":"FA/VO-889","program":"gma","name":"Bois d Anon","coordinates":[6.009069,48.506883]},{"code":"FA/VO-909","program":"gma","name":"Le Mont","coordinates":[6.038033,48.546777]},{"code":"FA/VO-910","program":"gma","name":"Bois de Cerf","coordinates":[6.073318,48.517365]},{"code":"FA/VO-914","program":"gma","name":"Bois de Bonne Fontaine","coordinates":[6.209197,48.545987]},{"code":"FA/VO-915","program":"gma","name":"Le Frauhaut","coordinates":[6.163366,48.571364]},{"code":"FR-3187","program":"pota","name":"Plateau de Malzeville FR4100157 Natura 2000","coordinates":[6.20361,48.7256]},{"code":"FR-8305","program":"pota","name":"Mares De Saulxures-Les-Nancy Et Tomblaine Biological Reserve","coordinates":[6.23413,48.6867]},{"code":"FR-8314","program":"pota","name":"ZONES HUMIDES ALLUVIALES DE BOSSERVILLE A ART-SUR-MEURTHE Biological Reserve","coordinates":[6.23054,48.667]},{"code":"FR-8315","program":"pota","name":"ILES DU FOULON ET DE L'ENCENSOIR A TOMBLAINE Biological Reserve","coordinates":[6.21078,48.6803]},{"code":"FR-8316","program":"pota","name":"LA RENAUDINE ET LA CROIX GAGNEE A NANCY Biological Reserve","coordinates":[6.15361,48.6995]},{"code":"FR-8317","program":"pota","name":"PLATEAU DE MALZEVILLE ET BUTTE SAINTE-GENEVIEVE A ESSEY-LES-NANCY Biological Reserve","coordinates":[6.20496,48.7258]},{"code":"FR-8318","program":"pota","name":"LE PAIN DE SUCRE A DOMMARTIN-SOUS-AMANCE Biological Reserve","coordinates":[6.2482,48.7264]},{"code":"FR-12110","program":"pota","name":"PLATEAU DE HAYE ET BOIS L'EVEQUE Biological Reserve","coordinates":[6.153,48.63]},{"code":"FR-12111","program":"pota","name":"RUISSEAU DU FOND DE RENONVAUX A CHAVIGNY Biological Reserve","coordinates":[6.134,48.628]},{"code":"FR-13660","program":"pota","name":"VALLON DE BELLEFONTAINE A CHAMPIGNEULLES Biological Reserve","coordinates":[6.137,48.718]},{"code":"FR-13684","program":"pota","name":"BOIS DES FOURASSES ET PLATEAU DE VILLERS A LAXOU Biological Reserve","coordinates":[6.123,48.681]},{"code":"FR-13685","program":"pota","name":"FONDS DE MONVAUX A MARON Biological Reserve","coordinates":[6.045,48.66]},{"code":"FR-13688","program":"pota","name":"VALLONS DES BOUCLES DE LA MOSELLE DE CHAUDENEY-SUR-MOSELLE A SEXEY-AUX-FORGES Biological Reserve","coordinates":[6.004,48.652]},{"code":"FR-13689","program":"pota","name":"PELOUSE DES PATIS A SEXEY-AUX-FORGES Biological Reserve","coordinates":[6.044,48.625]},{"code":"FR-13690","program":"pota","name":"GITE A CHIROPTERES A VITERNE Biological Reserve","coordinates":[6.047,48.617]},{"code":"FR-13691","program":"pota","name":"PLATEAU DE SAINTE-BARBE A PONT-SAINT-VINCENT Biological Reserve","coordinates":[6.094,48.6]},{"code":"FL/VO-053","program":"sota","name":"Bois des Vaches","coordinates":[6.1522,48.6303]},{"code":"FL/VO-077","program":"sota","name":"Plateau de Malzéville","coordinates":[6.2119,48.7264]},{"code":"FL/VO-150","program":"sota","name":"Fort Pélissier","coordinates":[6.0909,48.5977]}]}