{"lat":48.5,"lon":-118.5,"programs":["sota"],"count":20,"references":[{"code":"W7W/FR-001","program":"sota","name":"Copper Butte","coordinates":[-118.4655,48.7025]},{"code":"W7W/FR-002","program":"sota","name":"Snow Peak","coordinates":[-118.4829,48.5818]},{"code":"W7W/FR-003","program":"sota","name":"Scar Mountain","coordinates":[-118.4604,48.6815]},{"code":"W7W/FR-004","program":"sota","name":"Wapaloosie Mountain","coordinates":[-118.4642,48.6646]},{"code":"W7W/FR-005","program":"sota","name":"Sherman Peak","coordinates":[-118.479,48.5967]},{"code":"W7W/FR-007","program":"sota","name":"White Mountain","coordinates":[-118.4533,48.5113]},{"code":"W7W/FR-008","program":"sota","name":"Columbia Mountain","coordinates":[-118.4825,48.6207]},{"code":"W7W/FR-009","program":"sota","name":"Midnight Mountain","coordinates":[-118.4659,48.7261]},{"code":"W7W/FR-010","program":"sota","name":"King Mountain","coordinates":[-118.4023,48.6768]},{"code":"W7W/FR-015","program":"sota","name":"U S Mountain","coordinates":[-118.4184,48.7379]},{"code":"W7W/FR-021","program":"sota","name":"Graves Mountain","coordinates":[-118.3591,48.6373]},{"code":"W7W/FR-023","program":"sota","name":"Paradise Peak","coordinates":[-118.4186,48.6005]},{"code":"W7W/FR-027","program":"sota","name":"5716 Uppersideband Pk","coordinates":[-118.3995,48.6454]},{"code":"W7W/FR-039","program":"sota","name":"C C MOUNTAIN","coordinates":[-118.3136,48.6799]},{"code":"W7W/FR-040","program":"sota","name":"South Huckleberry Mountain","coordinates":[-118.304,48.5346]},{"code":"W7W/FR-046","program":"sota","name":"Jackknife Mountain","coordinates":[-118.2651,48.7236]},{"code":"W7W/FR-053","program":"sota","name":"4900 Sensitivity Summit","coordinates":[-118.4047,48.5298]},{"code":"W7W/FR-054","program":"sota","name":"Cedar Ridge","coordinates":[-118.3777,48.5295]},{"code":"W7W/FR-057","program":"sota","name":"Alligator Ridge","coordinates":[-118.3203,48.7266]},{"code":"W7W/FR-133","program":"sota","name":"Mack Mountain","coordinates":[-118.3665,48.677]}]}