{"lat":48.5,"lon":-117.5,"programs":["sota"],"count":10,"references":[{"code":"W7W/PO-005","program":"sota","name":"Molybdenite Mountain","coordinates":[-117.286,48.71]},{"code":"W7W/PO-021","program":"sota","name":"Timber Mountain","coordinates":[-117.4529,48.5271]},{"code":"W7W/PO-029","program":"sota","name":"Granite Peak","coordinates":[-117.4338,48.6139]},{"code":"W7W/PO-041","program":"sota","name":"4820 Rockbound Mtn","coordinates":[-117.447,48.5868]},{"code":"W7W/PO-052","program":"sota","name":"Hanlon Mountain","coordinates":[-117.2676,48.624]},{"code":"W7W/PO-053","program":"sota","name":"Dry Canyon Ridge","coordinates":[-117.3556,48.7257]},{"code":"W7W/PO-056","program":"sota","name":"4009","coordinates":[-117.4034,48.5903]},{"code":"W7W/PO-059","program":"sota","name":"3656 Mt Novice","coordinates":[-117.3671,48.5102]},{"code":"W7W/PO-063","program":"sota","name":"3525 Mt Kilohertz","coordinates":[-117.303,48.64]},{"code":"W7W/PO-064","program":"sota","name":"3521 Mixer Mtn","coordinates":[-117.3305,48.6256]}]}