{"lat":48.5,"lon":-119.75,"programs":["pota","sota"],"count":18,"references":[{"code":"US-12477","program":"pota","name":"Aeneas State Fishing Lake","coordinates":[-119.508,48.6771]},{"code":"US-12538","program":"pota","name":"Scotch Creek State Wildlife Area","coordinates":[-119.684,48.5173]},{"code":"US-12542","program":"pota","name":"Carter Mountain State Wildlife Area","coordinates":[-119.508,48.6151]},{"code":"US-12544","program":"pota","name":"Sinlahekin State Wildlife Area","coordinates":[-119.704,48.6152]},{"code":"W7W/OK-178","program":"sota","name":"Aeneas Mountain","coordinates":[-119.6224,48.7432]},{"code":"W7W/OK-181","program":"sota","name":"Funk Mountain","coordinates":[-119.7446,48.5998]},{"code":"W7W/OK-185","program":"sota","name":"Blue Goat Mountain","coordinates":[-119.7201,48.6686]},{"code":"W7W/OK-215","program":"sota","name":"4589 Groundrod Mtn","coordinates":[-119.6509,48.7114]},{"code":"W7W/OK-224","program":"sota","name":"4482 Lower Sideband Pk","coordinates":[-119.6645,48.6878]},{"code":"W7W/OK-250","program":"sota","name":"4096 Software Summit","coordinates":[-119.6159,48.7034]},{"code":"W7W/OK-267","program":"sota","name":"Schalow Mountain","coordinates":[-119.6856,48.5833]},{"code":"W7W/OK-276","program":"sota","name":"Dunn Mountain","coordinates":[-119.6466,48.5648]},{"code":"W7W/OK-286","program":"sota","name":"Pine Benchmark","coordinates":[-119.5969,48.6699]},{"code":"W7W/OK-295","program":"sota","name":"3161 Voltage Hill","coordinates":[-119.7357,48.5281]},{"code":"W7W/OK-298","program":"sota","name":"3140 Rubber Duckie Hill","coordinates":[-119.6501,48.5905]},{"code":"W7W/OK-300","program":"sota","name":"Chilson Mountain","coordinates":[-119.6042,48.5617]},{"code":"W7W/OK-307","program":"sota","name":"Carter Mountain","coordinates":[-119.5642,48.6269]},{"code":"W7W/OK-350","program":"sota","name":"2060","coordinates":[-119.511,48.6545]}]}