{"lat":48.5,"lon":8,"programs":["gma","pota","sota"],"count":15,"references":[{"code":"DA/BW-015","program":"gma","name":"Hundsrücken","coordinates":[8.21940041,48.61750031]},{"code":"DA/BW-016","program":"gma","name":"Schliffkopf","coordinates":[8.21609974,48.53580093]},{"code":"DA/BW-1042","program":"gma","name":"Rechtmurgkopf","coordinates":[8.215491,48.533414]},{"code":"DA/BW-223","program":"gma","name":"Geigerskopf","coordinates":[8.0564003,48.50559998]},{"code":"DA/BW-380","program":"gma","name":"Vorfeldkopf","coordinates":[8.24670029,48.66809845]},{"code":"DA/BW-381","program":"gma","name":"Kälbelskopf","coordinates":[8.21329975,48.6969986]},{"code":"DA/BW-726","program":"gma","name":"Schartenberg","coordinates":[8.184621,48.709658]},{"code":"DA/BW-727","program":"gma","name":"Mehliskopf","coordinates":[8.240213,48.649029]},{"code":"DA/BW-859","program":"gma","name":"Yberg","coordinates":[8.20074,48.73052]},{"code":"DA/BW-969","program":"gma","name":"Dreifürstenstein","coordinates":[8.20644,48.6017]},{"code":"DA/BW-970","program":"gma","name":"Kleine Grinde","coordinates":[8.20297,48.61358]},{"code":"DA/BW-971","program":"gma","name":"Katzenkopf","coordinates":[8.19768,48.59694]},{"code":"DE-0007","program":"pota","name":"Schwarzwald National Park","coordinates":[8.22191,48.5615]},{"code":"DM/BW-019","program":"sota","name":"Hornisgrinde","coordinates":[8.2014,48.6058]},{"code":"DM/BW-858","program":"sota","name":"Iberst","coordinates":[8.225836,48.726013]}]}