{"lat":48.5,"lon":23.5,"programs":["sota"],"count":13,"references":[{"code":"UT/CA-047","program":"sota","name":"Каменка (Kamenka)","coordinates":[23.6281,48.5575]},{"code":"UT/CA-048","program":"sota","name":"Канч (Kanch)","coordinates":[23.7491,48.5775]},{"code":"UT/CA-068","program":"sota","name":"Озерная (Ozernaya)","coordinates":[23.6632,48.6101]},{"code":"UT/CA-083","program":"sota","name":"Менчул (Menchul)","coordinates":[23.7304,48.7085]},{"code":"UT/CA-086","program":"sota","name":"Вышковский Горган (Wyshkowsky Gorgan)","coordinates":[23.6882,48.6467]},{"code":"UT/CA-093","program":"sota","name":"хр.Смерек (Range Smerek)","coordinates":[23.5265,48.6571]},{"code":"UT/CA-105","program":"sota","name":"Секул (Sekul)","coordinates":[23.7196,48.6142]},{"code":"UT/CA-117","program":"sota","name":"Малый Горган (Maly Gorgan)","coordinates":[23.7042,48.6353]},{"code":"UT/CA-125","program":"sota","name":"Высота 1330 (Height 1330)","coordinates":[23.6841,48.6267]},{"code":"UT/CA-130","program":"sota","name":"Менчил (Menchil)","coordinates":[23.6974,48.5474]},{"code":"UT/CA-137","program":"sota","name":"Плешивая (Pleshivaya)","coordinates":[23.5732,48.6255]},{"code":"UT/CA-138","program":"sota","name":"Черная Репа (Chernaya Repa)","coordinates":[23.5149,48.7336]},{"code":"UT/CA-152","program":"sota","name":"Грабова (Grabova)","coordinates":[23.5434,48.5892]}]}