{"lat":48.5,"lon":11,"programs":["gma","pota"],"count":9,"references":[{"code":"DA/AV-080","program":"gma","name":"Schindelberg","coordinates":[11.01846695,48.5279541]},{"code":"DA/AV-090","program":"gma","name":"Lorenziberg","coordinates":[11.08410549,48.63074493]},{"code":"DA/AV-091","program":"gma","name":"Eichberg","coordinates":[11.08469677,48.62422943]},{"code":"DA/AV-108","program":"gma","name":"Moosberg","coordinates":[11.20039463,48.61641312]},{"code":"DA/AV-112","program":"gma","name":"Reisberg","coordinates":[11.22341347,48.62326813]},{"code":"DA/AV-113","program":"gma","name":"Hohenberg","coordinates":[11.22493649,48.60803986]},{"code":"DA/AV-115","program":"gma","name":"Sichelberg","coordinates":[11.22644138,48.55822754]},{"code":"DA/AV-122","program":"gma","name":"Tannenberg","coordinates":[11.24058342,48.58633423]},{"code":"DE-0905","program":"pota","name":"Paar und Ecknach Natura 2000","coordinates":[11.1936,48.5399]}]}