{"lat":48.5,"lon":5.5,"programs":["gma","pota"],"count":13,"references":[{"code":"FA/NO-004","program":"gma","name":"Buisson d Amanty","coordinates":[5.59940004,48.50139999]},{"code":"FR-3184","program":"pota","name":"Pelouses  foret et fort de Pagny la Blanche Cote FR4100154 Natura 2000","coordinates":[5.7425,48.5344]},{"code":"FR-3243","program":"pota","name":"Forets de la vallee de la Meholle FR4100181 Natura 2000","coordinates":[5.59972,48.6222]},{"code":"FR-3386","program":"pota","name":"Vallee de la Meuse  secteur Sorcy Saint Martin FR4100236 Natura 2000","coordinates":[5.66639,48.7133]},{"code":"FR-13715","program":"pota","name":"MARAIS DE LAY-SAINT-REMY ET PAGNY-SUR-MEUSE Biological Reserve","coordinates":[5.731,48.69]},{"code":"FR-13716","program":"pota","name":"VALLONS DANS LES BOIS DE DOMMARTIN ET DU HASOY Biological Reserve","coordinates":[5.737,48.728]},{"code":"FR-13717","program":"pota","name":"VALLON FORESTIER DES BOIS DU CHATEAU A SORCY-SAINT-MARTIN Biological Reserve","coordinates":[5.703,48.735]},{"code":"FR-13718","program":"pota","name":"PELOUSE CALCAIRE DU MONT A TROUSSEY Biological Reserve","coordinates":[5.71,48.704]},{"code":"FR-13719","program":"pota","name":"VALLEE DE LA MEUSE Biological Reserve","coordinates":[5.71,48.696]},{"code":"FR-13720","program":"pota","name":"PALEO-VALLEE DE LA MOSELLE A PAGNY-SUR-MEUSE Biological Reserve","coordinates":[5.723,48.669]},{"code":"FR-13721","program":"pota","name":"CARRIERE DE VOID-VACON Biological Reserve","coordinates":[5.658,48.684]},{"code":"FR-13722","program":"pota","name":"FORETS DOMANIALES DE VAUCOULEURS, DE MONTIGNY, DU VAU, DES BATIS ET DE MAUPAS Biological Reserve","coordinates":[5.663,48.672]},{"code":"FR-13723","program":"pota","name":"BOISEMENTS EN FORET COMMUNALE ET DOMANIALE DE COMMERCY Biological Reserve","coordinates":[5.606,48.708]}]}