{"lat":48.5,"lon":19.25,"programs":["pota","sota"],"count":7,"references":[{"code":"SK-0022","program":"pota","name":"Poľana - Protected Landscape Area","coordinates":[19.485,48.648]},{"code":"OM/BB-007","program":"sota","name":"Poľana","coordinates":[19.4835,48.6368]},{"code":"OM/BB-026","program":"sota","name":"Veľký Korčín","coordinates":[19.2782,48.5087]},{"code":"OM/BB-039","program":"sota","name":"Bukovina","coordinates":[19.4166,48.6746]},{"code":"OM/BB-041","program":"sota","name":"Vepor","coordinates":[19.4582,48.7152]},{"code":"OM/BB-048","program":"sota","name":"Želobudzská skalka","coordinates":[19.4065,48.6398]},{"code":"OM/BB-066","program":"sota","name":"Rohy","coordinates":[19.3489,48.5526]}]}