{"lat":48.5,"lon":19,"programs":["pota","sota"],"count":9,"references":[{"code":"SK-0196","program":"pota","name":"Park Kaštieľ Hronsek - National Monument","coordinates":[19.1569,48.65]},{"code":"SK-0205","program":"pota","name":"Park SNP Banská Bystrica - National Monument","coordinates":[19.1508,48.7352]},{"code":"SK-0206","program":"pota","name":"Mestský park Banská Bystrica - National Monument","coordinates":[19.1378,48.7368]},{"code":"SK-0210","program":"pota","name":"Park Radvanský kaštieľ - National Monument","coordinates":[19.1346,48.722]},{"code":"SK-0216","program":"pota","name":"Park Bárczyovský kaštieľ - National Monument","coordinates":[19.1303,48.7219]},{"code":"SK-0218","program":"pota","name":"Park Kúpele Sliač - National Monument","coordinates":[19.1585,48.6091]},{"code":"OM/BB-032","program":"sota","name":"Stará kopa","coordinates":[19.1913,48.7254]},{"code":"OM/BB-057","program":"sota","name":"Drieň","coordinates":[19.2325,48.5076]},{"code":"OM/BB-065","program":"sota","name":"Vápenná","coordinates":[19.0772,48.5387]}]}