{"lat":48.5,"lon":8.75,"programs":["gma","pota"],"count":16,"references":[{"code":"DA/BW-1011","program":"gma","name":"Heimberg","coordinates":[8.80459,48.72051]},{"code":"DA/BW-1012","program":"gma","name":"Daumen","coordinates":[8.75292,48.68271]},{"code":"DA/BW-458","program":"gma","name":"Baumberg","coordinates":[8.90750027,48.70389938]},{"code":"DA/BW-459","program":"gma","name":"Hochberg","coordinates":[8.92169952,48.6753006]},{"code":"DA/BW-460","program":"gma","name":"Masenwald","coordinates":[8.8125,48.68439865]},{"code":"DA/BW-461","program":"gma","name":"Schneckenberg","coordinates":[8.97280025,48.66749954]},{"code":"DA/BW-462","program":"gma","name":"Roetelberg","coordinates":[8.93780041,48.61780167]},{"code":"DA/BW-464","program":"gma","name":"Schoenbuchspitz","coordinates":[8.97669983,48.56420135]},{"code":"DA/BW-465","program":"gma","name":"Alter Berg","coordinates":[8.97060013,48.53639984]},{"code":"DA/BW-739","program":"gma","name":"Stellberg","coordinates":[8.9094,48.60393]},{"code":"DA/BW-887","program":"gma","name":"Hohenentringen","coordinates":[8.99123,48.55255]},{"code":"DA/BW-888","program":"gma","name":"Härtlesberg","coordinates":[8.98231,48.54577]},{"code":"DA/BW-889","program":"gma","name":"Kapf","coordinates":[8.90382,48.59442]},{"code":"DA/BW-905","program":"gma","name":"Falkenkopf","coordinates":[8.99083,48.58951]},{"code":"DA/BW-912","program":"gma","name":"Schlossberg","coordinates":[8.873207,48.597529]},{"code":"DE-1222","program":"pota","name":"Gültlinger und Holzbronner Heiden Nature Reserve","coordinates":[8.77521,48.6543]}]}