{"lat":48.5,"lon":14.25,"programs":["gma","pota","sota"],"count":53,"references":[{"code":"OE/OO-080","program":"gma","name":"Sternstein","coordinates":[14.26720047,48.55970001]},{"code":"OE0/OO-1150","program":"gma","name":"Hirtstein","coordinates":[14.37609959,48.51530075]},{"code":"OE0/OO-1221","program":"gma","name":"Heidenstein","coordinates":[14.40999985,48.56000137]},{"code":"OK/JC-130","program":"gma","name":"Žibřidovský vrch <Zibridovsky vrch>","coordinates":[14.39000034,48.66159821]},{"code":"OL/JC-083","program":"gma","name":"Kamenná  <Kamenna>","coordinates":[14.29723454,48.57281494]},{"code":"OL/JC-086","program":"gma","name":"Hradiště› <Hradiste>","coordinates":[14.29583454,48.59166336]},{"code":"OL/JC-090","program":"gma","name":"Luč <Luc>","coordinates":[14.26317692,48.63277054]},{"code":"OL/JC-112","program":"gma","name":"Kraví­ hora <Kravi hora>","coordinates":[14.40874195,48.74768066]},{"code":"OL/JC-130","program":"gma","name":"Vyklestilka","coordinates":[14.27335739,48.6118927]},{"code":"OL/JC-134","program":"gma","name":"Brod","coordinates":[14.26452732,48.60708618]},{"code":"OL/JC-161","program":"gma","name":"Plešivec <Plesivec>","coordinates":[14.27522755,48.70107651]},{"code":"OL/JC-165","program":"gma","name":"Malší­nský kámen <Malsinsky vrch>","coordinates":[14.27908039,48.67866135]},{"code":"OL/JC-168","program":"gma","name":"Martí­nkovský vrch <Martinkovsky vrch>","coordinates":[14.2952795,48.60425568]},{"code":"OL/JC-173","program":"gma","name":"Hrubec","coordinates":[14.29839611,48.70819855]},{"code":"OL/JC-174","program":"gma","name":"Chudějovský vrch <Chudejovsky vrch>","coordinates":[14.40949154,48.72091293]},{"code":"OL/JC-197","program":"gma","name":"Velenecký vrch <Velenecky vrch>","coordinates":[14.33939552,48.6830368]},{"code":"OL/JC-207","program":"gma","name":"Babí­n <Babin>","coordinates":[14.38729668,48.64069366]},{"code":"OL/JC-212","program":"gma","name":"Větrný kopec <Vetrny kopec>","coordinates":[14.40826893,48.73242188]},{"code":"OL/JC-217","program":"gma","name":"Radvanovský vrch <Radvanovsky vrch>","coordinates":[14.32892895,48.55857468]},{"code":"OL/JC-218","program":"gma","name":"Červený vrch <Cerveny vrch>","coordinates":[14.25574589,48.67288208]},{"code":"OL/JC-229","program":"gma","name":"Tábor <Tabor>","coordinates":[14.43122959,48.60644531]},{"code":"OL/JC-231","program":"gma","name":"Kraví­ hora <Kravi hora>","coordinates":[14.32005024,48.63448715]},{"code":"OL/JC-237","program":"gma","name":"Strnadí kopec <Strnadi kopec>","coordinates":[14.34589481,48.66796112]},{"code":"OL/JC-240","program":"gma","name":"Žumberský kopec <Zumbersky kopec>","coordinates":[14.32441139,48.64941025]},{"code":"OL/JC-249","program":"gma","name":"Zábraňský vrch <Zabransky vrch>","coordinates":[14.33386421,48.69862366]},{"code":"OL/JC-253","program":"gma","name":"Křížová hora <Krizova hora>","coordinates":[14.37840271,48.71931076]},{"code":"OL/JC-257","program":"gma","name":"Jelí­nka <Jelinka>","coordinates":[14.3981411,48.701315]},{"code":"OL/JC-268","program":"gma","name":"Omlenický vrch <Omlenicky vrch>","coordinates":[14.43879128,48.72703171]},{"code":"OL/JC-272","program":"gma","name":"Herbertovský vrch <Herbertovsky vrch>","coordinates":[14.3459549,48.60448456]},{"code":"OL/JC-286","program":"gma","name":"Šibeniční­ vrch <Sibenicni vrch>","coordinates":[14.28684521,48.66372299]},{"code":"OL/JC-293","program":"gma","name":"Ostrý <Ostry>","coordinates":[14.26003933,48.66168213]},{"code":"OL/JC-298","program":"gma","name":"Nad Suchdolem","coordinates":[14.43760014,48.68254852]},{"code":"OL/JC-309","program":"gma","name":"Polední­ vrch <Poledni vrch>","coordinates":[14.37631321,48.57147217]},{"code":"OL/JC-313","program":"gma","name":"Černý les <Cerny les>","coordinates":[14.37023926,48.61512756]},{"code":"OL/JC-328","program":"gma","name":"Kameniště <Kameniste>","coordinates":[14.48041916,48.67764282]},{"code":"OL/JC-330","program":"gma","name":"Křížový kopec <Krizovy kopec>","coordinates":[14.27000046,48.7317009]},{"code":"OL/JC-332","program":"gma","name":"Skalka","coordinates":[14.34318447,48.65074539]},{"code":"OL/JC-382","program":"gma","name":"Šibenice <Sibenice>","coordinates":[14.35503006,48.64606094]},{"code":"OL/JC-468","program":"gma","name":"Holý vrch <Holy vrch>","coordinates":[14.46645641,48.65174103]},{"code":"OL/JC-469","program":"gma","name":"Nad Hřištěm <Nad Hristem>","coordinates":[14.32005024,48.61230087]},{"code":"OL/JC-526","program":"gma","name":"Za Bláhovým <Za Blahovym>","coordinates":[14.32372952,48.74095154]},{"code":"OL/JC-880","program":"gma","name":"Turnberg","coordinates":[14.286813,48.6727644]},{"code":"OL/JC-881","program":"gma","name":"Třešňovický kopec <Tresnovicky kopec>","coordinates":[14.3776,48.69342]},{"code":"OL/JC-883","program":"gma","name":"Šus <Sus>","coordinates":[14.4331925,48.6007351]},{"code":"OL/JC-884","program":"gma","name":"Kalvárie <Kalvarie>","coordinates":[14.4070001,48.6135219]},{"code":"OL/JC-885","program":"gma","name":"Hlásný kopec <Hlasny kopec>","coordinates":[14.3348752,48.6424918]},{"code":"OL/JC-918","program":"gma","name":"Jezevčí­ vrch <Jezevci vrch>","coordinates":[14.28999996,48.58200073]},{"code":"OL/JC-926","program":"gma","name":"Na Rozhledu","coordinates":[14.38700008,48.66899872]},{"code":"OL/JC-930","program":"gma","name":"Tři smrky <Tri smrky>","coordinates":[14.44499969,48.61199951]},{"code":"OL/JC-945","program":"gma","name":"Střed <Stred>","coordinates":[14.49300003,48.68399811]},{"code":"CZ-0122","program":"pota","name":"Čertova stěna-Luč National Nature Reserve","coordinates":[14.2758,48.6293]},{"code":"OE/OO-080","program":"sota","name":"Sternstein","coordinates":[14.2672,48.5597]},{"code":"OK/JC-130","program":"sota","name":"Žibřidovský vrch","coordinates":[14.39,48.6616]}]}