{"lat":48.5,"lon":-121.25,"programs":["sota"],"count":23,"references":[{"code":"W7W/SK-006","program":"sota","name":"Eldorado Peak","coordinates":[-121.1344,48.5374]},{"code":"W7W/SK-007","program":"sota","name":"Forbidden Peak","coordinates":[-121.0585,48.5116]},{"code":"W7W/SK-010","program":"sota","name":"Primus Peak","coordinates":[-121.0917,48.582]},{"code":"W7W/SK-011","program":"sota","name":"Klawatti Peak","coordinates":[-121.1046,48.5544]},{"code":"W7W/SK-012","program":"sota","name":"Dorado Needle","coordinates":[-121.1386,48.5497]},{"code":"W7W/SK-016","program":"sota","name":"Snowfield Peak","coordinates":[-121.1387,48.6353]},{"code":"W7W/SK-023","program":"sota","name":"Tricouni Peak","coordinates":[-121.0782,48.582]},{"code":"W7W/SK-039","program":"sota","name":"Perdition Peak","coordinates":[-121.1583,48.5637]},{"code":"W7W/SK-040","program":"sota","name":"Distal Phalanx","coordinates":[-121.1144,48.6361]},{"code":"W7W/SK-045","program":"sota","name":"The Triad","coordinates":[-121.1629,48.5196]},{"code":"W7W/SK-056","program":"sota","name":"Display Mtn","coordinates":[-121.1593,48.6124]},{"code":"W7W/SK-057","program":"sota","name":"North Hidden Lake Peaks","coordinates":[-121.1974,48.5005]},{"code":"W7W/SK-066","program":"sota","name":"Newhalem Peaks","coordinates":[-121.1883,48.5961]},{"code":"W7W/SK-075","program":"sota","name":"The Bat","coordinates":[-121.2202,48.5662]},{"code":"W7W/SK-085","program":"sota","name":"ExSpire","coordinates":[-121.2077,48.5331]},{"code":"W7W/SK-092","program":"sota","name":"5700 Per Spire","coordinates":[-121.1952,48.5307]},{"code":"W7W/SK-179","program":"sota","name":"Horsemans Pack","coordinates":[-121.1538,48.6366]},{"code":"W7W/WH-030","program":"sota","name":"Colonial Peak","coordinates":[-121.1217,48.6615]},{"code":"W7W/WH-045","program":"sota","name":"Neve Peak","coordinates":[-121.1348,48.6574]},{"code":"W7W/WH-046","program":"sota","name":"Paul Bunyans Stump","coordinates":[-121.1499,48.6659]},{"code":"W7W/WH-051","program":"sota","name":"Ruby Mountain","coordinates":[-121.0428,48.6942]},{"code":"W7W/WH-082","program":"sota","name":"Davis Peak","coordinates":[-121.2026,48.7294]},{"code":"W7W/WH-208","program":"sota","name":"Thunder Knob","coordinates":[-121.1068,48.7043]}]}