{"lat":48.5,"lon":-3.75,"programs":["pota"],"count":22,"references":[{"code":"FR-2766","program":"pota","name":"RIVIERE LE DOURON FR5300004 Natura 2000","coordinates":[-3.64472,48.5806]},{"code":"FR-4350","program":"pota","name":"etang du moulin neuf Natura 2000","coordinates":[-3.56417,48.5617]},{"code":"FR-5982","program":"pota","name":"COTE DE BEG LEGUER ET VALLON DE GOAS LAGORN Biological Reserve","coordinates":[-3.54837,48.7464]},{"code":"FR-8444","program":"pota","name":"Pors mabo - beg leguer Biological Reserve","coordinates":[-3.5432,48.7449]},{"code":"FR-8445","program":"pota","name":"ESTUAIRE DU LEGUER Biological Reserve","coordinates":[-3.50699,48.7343]},{"code":"FR-8447","program":"pota","name":"FALAISES DE TREDREZ - BEG AR FORN Biological Reserve","coordinates":[-3.58145,48.7039]},{"code":"FR-8448","program":"pota","name":"LE GRAND ROCHER Biological Reserve","coordinates":[-3.58626,48.6669]},{"code":"FR-8449","program":"pota","name":"Estuaire du douron Conservation Park","coordinates":[-3.65098,48.6628]},{"code":"FR-8450","program":"pota","name":"BASSE VALLEE DU DOURON Biological Reserve","coordinates":[-3.64647,48.6058]},{"code":"FR-8451","program":"pota","name":"TOURBIERE DE COAT LESCOAT - KERAVEL Biological Reserve","coordinates":[-3.66893,48.5955]},{"code":"FR-8452","program":"pota","name":"TOURBIERE DE KERNEBET Biological Reserve","coordinates":[-3.67171,48.5818]},{"code":"FR-8453","program":"pota","name":"COTE DE MARC'H SAMMET Biological Reserve","coordinates":[-3.6893,48.6897]},{"code":"FR-8454","program":"pota","name":"Moulin de la Rive Conservation Area","coordinates":[-3.684,48.688]},{"code":"FR-8455","program":"pota","name":"Socle icartien du Moulin de la Rive - Locquirec Conservation Area","coordinates":[-3.69,48.69]},{"code":"FR-8457","program":"pota","name":"Beg an fry Conservation Area","coordinates":[-3.71959,48.7009]},{"code":"FR-8458","program":"pota","name":"Lits dioritiques diapiriques carboniferes de Poul Rodou - Guimaec Conservation Area","coordinates":[-3.72,48.71]},{"code":"FR-8459","program":"pota","name":"COTE ROCHEUSE DE SAINT-JEAN-DU-DOIGT - BEG AN FRY Biological Reserve","coordinates":[-3.73362,48.7037]},{"code":"FR-8523","program":"pota","name":"Landes, Prairies Et Etangs De Plounerin Biological Reserve","coordinates":[-3.55134,48.5715]},{"code":"FR-8524","program":"pota","name":"LANDE DE SAINT JUNAY Biological Reserve","coordinates":[-3.53626,48.5773]},{"code":"FR-8525","program":"pota","name":"ETANG DU MOULIN NEUF Biological Reserve","coordinates":[-3.56515,48.5636]},{"code":"FR-11484","program":"pota","name":"LE GUIC EN AMONT DE L'ETANG DE GUERLESQUIN Biological Reserve","coordinates":[-3.58134,48.5077]},{"code":"FR-11485","program":"pota","name":"LE DOURON AMONT Biological Reserve","coordinates":[-3.65623,48.5151]}]}