{"lat":48.5,"lon":5.75,"programs":["gma","pota","sota"],"count":31,"references":[{"code":"FA/VO-901","program":"gma","name":"Bois Jure","coordinates":[5.801324,48.50021]},{"code":"FA/VO-908","program":"gma","name":"La Bosse","coordinates":[5.984528,48.52478]},{"code":"FR-3140","program":"pota","name":"Marais de Pagny sur Meuse FR4110061 Natura 2000","coordinates":[5.75806,48.6939]},{"code":"FR-3227","program":"pota","name":"Pelouses d Allamps et zones humides avoisinantes FR4100162 Natura 2000","coordinates":[5.83083,48.5408]},{"code":"FR-3228","program":"pota","name":"Pelouses du Toulois FR4100163 Natura 2000","coordinates":[5.81861,48.6453]},{"code":"FR-3240","program":"pota","name":"Vallee de la Moselle du fond de Monvaux au vallon de la Deuille  ancienne poudriere de Bois sous Roche FR4100178 Natura 2000","coordinates":[5.98,48.6492]},{"code":"FR-3274","program":"pota","name":"Marais de Pagny sur Meuse FR4100216 Natura 2000","coordinates":[5.75806,48.6939]},{"code":"FR-13686","program":"pota","name":"GITE A CHIROPTERES A GONDREVILLE Biological Reserve","coordinates":[5.998,48.669]},{"code":"FR-13687","program":"pota","name":"PELOUSES DE LA COTE ET DES CHIMPELLES A VILLEY-LE-SEC Biological Reserve","coordinates":[5.989,48.657]},{"code":"FR-13692","program":"pota","name":"PELOUSE DE LA COTE VOIREMONT A AINGERAY Biological Reserve","coordinates":[5.992,48.716]},{"code":"FR-13696","program":"pota","name":"VALLEE DU TERROIN DE TRONDES A VILLEY-SAINT-ETIENNE Biological Reserve","coordinates":[5.996,48.746]},{"code":"FR-13697","program":"pota","name":"CARRIERE SOUS LE BREUIL A VILLEY-SAINT-ETIENNE Biological Reserve","coordinates":[5.966,48.748]},{"code":"FR-13701","program":"pota","name":"COTE LABIE A TRONDES Biological Reserve","coordinates":[5.766,48.737]},{"code":"FR-13702","program":"pota","name":"GITES A CHIROPTERES D'ECROUVES A LAGNEY Biological Reserve","coordinates":[5.816,48.722]},{"code":"FR-13703","program":"pota","name":"COTES DU TOULOIS Biological Reserve","coordinates":[5.807,48.718]},{"code":"FR-13704","program":"pota","name":"VALLON FORESTIER DES NONNES A ECROUVES Biological Reserve","coordinates":[5.817,48.697]},{"code":"FR-13705","program":"pota","name":"PLATEAU D'ECROUVES Biological Reserve","coordinates":[5.832,48.69]},{"code":"FR-13706","program":"pota","name":"PELOUSES DE LA COTE BARINE A PAGNEY-DERRIERE-BARINE Biological Reserve","coordinates":[5.845,48.685]},{"code":"FR-13707","program":"pota","name":"GITES A CHIROPTERES A TOUL Biological Reserve","coordinates":[5.849,48.684]},{"code":"FR-13708","program":"pota","name":"PRAIRIES REMARQUABLES DU TOULOIS A BRULEY, LUCEY ET TOUL Biological Reserve","coordinates":[5.852,48.694]},{"code":"FR-13709","program":"pota","name":"PETIT ETANG VERS LES LONGUES RAIES A FRANCHEVILLE Biological Reserve","coordinates":[5.918,48.726]},{"code":"FR-13710","program":"pota","name":"FORET DE VILLEY-SAINT-ETIENNE Biological Reserve","coordinates":[5.944,48.719]},{"code":"FR-13711","program":"pota","name":"HERONNIERE DU BOIS DE LA ROPPE A VILLEY-SAINT-ETIENNE Biological Reserve","coordinates":[5.96,48.706]},{"code":"FR-13712","program":"pota","name":"PRAIRIES ET BOCAGE DE VILLEY-SAINT-ETIENNE Biological Reserve","coordinates":[5.953,48.731]},{"code":"FR-13713","program":"pota","name":"PRAIRIES DE LA MOSELLE ET FORT DE GONDREVILLE Biological Reserve","coordinates":[5.964,48.705]},{"code":"FR-13714","program":"pota","name":"L'INGRESSIN DE FOUG A TOUL Biological Reserve","coordinates":[5.888,48.671]},{"code":"FL/VO-058","program":"sota","name":"Mont Saint Michel","coordinates":[5.8826,48.69]},{"code":"FL/VO-059","program":"sota","name":"Ancien Fort de Lucey","coordinates":[5.8287,48.7252]},{"code":"FL/VO-145","program":"sota","name":"Forêt de Meine","coordinates":[5.8092,48.5683]},{"code":"FL/VO-149","program":"sota","name":"Bonnet","coordinates":[5.8319,48.5437]},{"code":"FL/VO-162","program":"sota","name":"Côte Barine","coordinates":[5.8611,48.6884]}]}