{"lat":48.5,"lon":-121.5,"programs":["pota","sota"],"count":26,"references":[{"code":"US-0693","program":"pota","name":"Ross Lake National Recreation Area","coordinates":[-121.308,48.5977]},{"code":"W7W/SK-058","program":"sota","name":"Big Devil Peak","coordinates":[-121.2935,48.6046]},{"code":"W7W/SK-062","program":"sota","name":"Little Devil Peak","coordinates":[-121.2685,48.5765]},{"code":"W7W/SK-065","program":"sota","name":"The Trapezoid","coordinates":[-121.2749,48.6175]},{"code":"W7W/SK-080","program":"sota","name":"Logger Butte","coordinates":[-121.4828,48.6316]},{"code":"W7W/SK-088","program":"sota","name":"North Diobsud Buttes","coordinates":[-121.4767,48.6189]},{"code":"W7W/SK-093","program":"sota","name":"Lookout Mountain","coordinates":[-121.3293,48.5521]},{"code":"W7W/SK-095","program":"sota","name":"North Helen Buttes","coordinates":[-121.4954,48.5706]},{"code":"W7W/SK-143","program":"sota","name":"Tsiatko Peak","coordinates":[-121.2979,48.5178]},{"code":"W7W/SK-159","program":"sota","name":"The Cork","coordinates":[-121.4718,48.5311]},{"code":"W7W/WH-058","program":"sota","name":"Mount Despair","coordinates":[-121.3767,48.7372]},{"code":"W7W/WH-062","program":"sota","name":"Mount Triumph","coordinates":[-121.3561,48.7067]},{"code":"W7W/WH-075","program":"sota","name":"Hagan Mountain","coordinates":[-121.4911,48.724]},{"code":"W7W/WH-092","program":"sota","name":"Old Damnation Peak","coordinates":[-121.3519,48.6978]},{"code":"W7W/WH-103","program":"sota","name":"Lonesome Peak","coordinates":[-121.4666,48.7342]},{"code":"W7W/WH-109","program":"sota","name":"R Roost","coordinates":[-121.2529,48.7289]},{"code":"W7W/WH-117","program":"sota","name":"Mystery Ridge","coordinates":[-121.4259,48.7442]},{"code":"W7W/WH-125","program":"sota","name":"Mamook Mountain","coordinates":[-121.3728,48.7111]},{"code":"W7W/WH-128","program":"sota","name":"Native Knoll","coordinates":[-121.4583,48.7254]},{"code":"W7W/WH-130","program":"sota","name":"Electric Butte","coordinates":[-121.4832,48.6473]},{"code":"W7W/WH-131","program":"sota","name":"Interloper Peak","coordinates":[-121.4569,48.7067]},{"code":"W7W/WH-145","program":"sota","name":"X Mountain","coordinates":[-121.3308,48.6925]},{"code":"W7W/WH-152","program":"sota","name":"Oakes Peak","coordinates":[-121.3919,48.6528]},{"code":"W7W/WH-154","program":"sota","name":"Damnation Peak","coordinates":[-121.3853,48.6708]},{"code":"W7W/WH-160","program":"sota","name":"Salvation Peak","coordinates":[-121.4006,48.6761]},{"code":"W7W/WH-176","program":"sota","name":"4820 Hot Wire","coordinates":[-121.4736,48.6614]}]}