{"lat":48.5,"lon":13.5,"programs":["gma","pota","sota"],"count":19,"references":[{"code":"DA/BM-015","program":"gma","name":"Maxhoehe","coordinates":[13.55609989,48.58530045]},{"code":"DA/BM-046","program":"gma","name":"Saußberg","coordinates":[13.60610008,48.70439911]},{"code":"DA/BM-047","program":"gma","name":"Steinberg","coordinates":[13.58749962,48.68220139]},{"code":"DA/BM-227","program":"gma","name":"Vorholzberg","coordinates":[13.72276,48.5615]},{"code":"DA/BM-345","program":"gma","name":"Großer Rathberg","coordinates":[13.74419975,48.65639877]},{"code":"DA/BM-346","program":"gma","name":"Neufanger Berg","coordinates":[13.65310001,48.74919891]},{"code":"DA/BM-347","program":"gma","name":"Sicklinger Berg","coordinates":[13.57940006,48.73529816]},{"code":"DA/BM-348","program":"gma","name":"Ruhmannsberg","coordinates":[13.68560028,48.64749908]},{"code":"DA/BM-349","program":"gma","name":"Thurnreuther Berg","coordinates":[13.72669983,48.60609818]},{"code":"DA/BM-470","program":"gma","name":"Rußingberg","coordinates":[13.61513,48.68843]},{"code":"DA/BM-471","program":"gma","name":"Rannaberg","coordinates":[13.72503,48.66989]},{"code":"OE/OO-102","program":"gma","name":"Haugstein","coordinates":[13.67029953,48.50830078]},{"code":"OE0/OO-1160","program":"gma","name":"Penzenstein","coordinates":[13.74279976,48.50559998]},{"code":"DE-1095","program":"pota","name":"Donauleiten von Passau bis Jochenstein Flora and Fauna Reserve","coordinates":[13.5753,48.5649]},{"code":"DE-1098","program":"pota","name":"Erlau Flora and Fauna Reserve","coordinates":[13.5534,48.6596]},{"code":"DM/BM-064","program":"sota","name":"Staffelberg","coordinates":[13.6508,48.6511]},{"code":"DM/BM-288","program":"sota","name":"Frauenwald","coordinates":[13.6581,48.685]},{"code":"DM/BM-290","program":"sota","name":"Höhenberg","coordinates":[13.7222,48.5428]},{"code":"OE/OO-102","program":"sota","name":"Haugstein","coordinates":[13.6703,48.5083]}]}