{"lat":48.5,"lon":-4.25,"programs":["iota","pota"],"count":8,"references":[{"code":"EU-105","program":"iota","name":"BRETAGNE","coordinates":[-4.24000001,48.625]},{"code":"FR-2859","program":"pota","name":"ANSE DE GOULVEN DUNES DE KEREMMA FR5300016 Natura 2000","coordinates":[-4.24806,48.6517]},{"code":"FR-2860","program":"pota","name":"BAIE DE GOULVEN FR5312003 Natura 2000","coordinates":[-4.24806,48.6517]},{"code":"FR-8467","program":"pota","name":"ESTUAIRE DE L'HORN ET DUNES DE THEVEN Biological Reserve","coordinates":[-4.06071,48.6879]},{"code":"FR-8468","program":"pota","name":"ILE DE SIECK Biological Reserve","coordinates":[-4.0691,48.7059]},{"code":"FR-8469","program":"pota","name":"Estuaire du guillec Conservation Park","coordinates":[-4.06165,48.6781]},{"code":"FR-8470","program":"pota","name":"VALLEE DU GUILLEC - LANDES ST JACQUES Biological Reserve","coordinates":[-4.05258,48.6659]},{"code":"FR-8513","program":"pota","name":"LANDE ET TOURBIERE DE QUELERON VRAZ - COAT LESTREMEUR BIHAN Biological Reserve","coordinates":[-4.19979,48.5277]}]}