{"lat":48.5,"lon":11.5,"programs":["gma","pota","wwbota"],"count":20,"references":[{"code":"DA/AV-160","program":"gma","name":"Kronberg","coordinates":[11.51621151,48.5942955]},{"code":"DA/AV-164","program":"gma","name":"Fuchsberg","coordinates":[11.52796364,48.52582169]},{"code":"DA/AV-165","program":"gma","name":"Steinlberg","coordinates":[11.5290699,48.61089706]},{"code":"DA/AV-167","program":"gma","name":"Kastlberg","coordinates":[11.53174686,48.62939072]},{"code":"DA/AV-168","program":"gma","name":"Geissberg","coordinates":[11.53362751,48.57975388]},{"code":"DA/AV-169","program":"gma","name":"Annesberg","coordinates":[11.53901386,48.53895187]},{"code":"DA/AV-173","program":"gma","name":"Seeberg","coordinates":[11.57194424,48.58440018]},{"code":"DA/AV-175","program":"gma","name":"Lustberg","coordinates":[11.58343887,48.56295013]},{"code":"DA/AV-180","program":"gma","name":"Pfannenberg","coordinates":[11.63197803,48.56725311]},{"code":"DA/AV-183","program":"gma","name":"Haselberg","coordinates":[11.68122768,48.51357651]},{"code":"DA/AV-184","program":"gma","name":"Hohenberg","coordinates":[11.68814182,48.50100708]},{"code":"DA/AV-185","program":"gma","name":"Heimberg","coordinates":[11.69238853,48.55933762]},{"code":"DA/AV-186","program":"gma","name":"Hochberg","coordinates":[11.70748329,48.50218201]},{"code":"DA/AV-187","program":"gma","name":"Pfaffenberg","coordinates":[11.71385002,48.5612793]},{"code":"DA/AV-377","program":"gma","name":"Kotiger Berg","coordinates":[11.74207,48.71708]},{"code":"DE-0182","program":"pota","name":"Bürgerpark Recreation Site","coordinates":[11.5127,48.5324]},{"code":"DE-0321","program":"pota","name":"Donauauen zwischen Ingolstadt und Weltenburg Flora and Fauna Reserve","coordinates":[11.5054,48.7361]},{"code":"DE-1137","program":"pota","name":"Feilenmoos mit Nöttinger Viehweide Flora and Fauna Reserve","coordinates":[11.5419,48.6968]},{"code":"DE-1138","program":"pota","name":"Forstmoos Flora and Fauna Reserve","coordinates":[11.6985,48.715]},{"code":"B/DL-0334","program":"wwbota","name":"GSVBw 66","coordinates":[11.505831,48.537768]}]}