{"lat":48.75,"lon":0.75,"programs":["pota"],"count":37,"references":[{"code":"FR-4047","program":"pota","name":"Les etangs et mares des forets de Breteuil et Conches Natura 2000","coordinates":[0.82944,48.8197]},{"code":"FR-9072","program":"pota","name":"LA VALLEE DU LEME Biological Reserve","coordinates":[0.85403,48.8828]},{"code":"FR-9073","program":"pota","name":"LA FORET DE BRETEUIL ET LA FORET DE CONCHES Biological Reserve","coordinates":[0.83448,48.8922]},{"code":"FR-9074","program":"pota","name":"L'ETANG DE LA PIERRE BLANCHE Biological Reserve","coordinates":[0.83223,48.8197]},{"code":"FR-9075","program":"pota","name":"LE TALUS ET LE CHEMIN DE LA BRIQUETTERIE Biological Reserve","coordinates":[0.79223,48.8264]},{"code":"FR-9076","program":"pota","name":"LA MARE AU NORD DU ROND DE PIERRE ARIEL Biological Reserve","coordinates":[0.77238,48.8324]},{"code":"FR-9078","program":"pota","name":"LA MARE DE LA LIGNE DE LA BERGERE Biological Reserve","coordinates":[0.78018,48.8542]},{"code":"FR-9079","program":"pota","name":"LA MARE A L'OUEST DU ROND DE NEMOURS Biological Reserve","coordinates":[0.80339,48.8552]},{"code":"FR-9080","program":"pota","name":"LA MARE DU ROND DE NEMOURS Biological Reserve","coordinates":[0.82122,48.8534]},{"code":"FR-9081","program":"pota","name":"LA MARE DU CHEMIN VICINAL DE COUPE-GORGE Biological Reserve","coordinates":[0.82471,48.8585]},{"code":"FR-9082","program":"pota","name":"LE VALLON DES MARES GERMELLES Biological Reserve","coordinates":[0.77573,48.8576]},{"code":"FR-9083","program":"pota","name":"LE VALLON DES MARES GERMELLES Biological Reserve","coordinates":[0.77573,48.8576]},{"code":"FR-9084","program":"pota","name":"LA LANDE BOISEE À LA HAIE-DE-LYRE Biological Reserve","coordinates":[0.77318,48.8956]},{"code":"FR-9085","program":"pota","name":"LA FIEFFE GERARD Biological Reserve","coordinates":[0.77893,48.9266]},{"code":"FR-9088","program":"pota","name":"LA VALLEE DE LA RISLE DU BOIS DU GOUFFRE AUX PRAIRIES DU ROUGE MOULIN Biological Reserve","coordinates":[0.75282,48.9591]},{"code":"FR-9089","program":"pota","name":"LA MARE DE LA LIGNE DU COURANT Biological Reserve","coordinates":[0.86296,48.9329]},{"code":"FR-9090","program":"pota","name":"LE CARREFOUR D830 ET D174 Biological Reserve","coordinates":[0.80136,48.9283]},{"code":"FR-9091","program":"pota","name":"LA MARE DES DOUVES DE LIERRU Biological Reserve","coordinates":[0.86817,48.9372]},{"code":"FR-9092","program":"pota","name":"LA MARE DE LA NOETTE Biological Reserve","coordinates":[0.838,48.9529]},{"code":"FR-9093","program":"pota","name":"LA MARE DE LA NOATTE DE LIERRU Biological Reserve","coordinates":[0.84814,48.9532]},{"code":"FR-9094","program":"pota","name":"LA MARE DES VALLEES Biological Reserve","coordinates":[0.89149,48.9678]},{"code":"FR-9095","program":"pota","name":"LA MAISON LESAIRE Biological Reserve","coordinates":[0.89481,48.9706]},{"code":"FR-9096","program":"pota","name":"LES BORDS DE LA RN 830 Biological Reserve","coordinates":[0.92021,48.9558]},{"code":"FR-9097","program":"pota","name":"LA MARE DU CHEMIN DU MARTEAU Biological Reserve","coordinates":[0.91151,48.9462]},{"code":"FR-9098","program":"pota","name":"LA MARE DU FAY Biological Reserve","coordinates":[0.91526,48.9325]},{"code":"FR-9099","program":"pota","name":"LA MARE DES CHENES Biological Reserve","coordinates":[0.9216,48.9317]},{"code":"FR-9100","program":"pota","name":"LA MARE DE LA LIGNE DU CHESNE Biological Reserve","coordinates":[0.90986,48.8749]},{"code":"FR-9101","program":"pota","name":"LES MARES DU ROND DES 10 MARES Biological Reserve","coordinates":[0.87535,48.8764]},{"code":"FR-9102","program":"pota","name":"L'ETANG DE BRETEUIL Biological Reserve","coordinates":[0.90651,48.8327]},{"code":"FR-9103","program":"pota","name":"LA LANDE HUMIDE BOISEE DU LESMEVAL Biological Reserve","coordinates":[0.78389,48.7992]},{"code":"FR-9104","program":"pota","name":"L'ETANG ET LE BOIS HUMIDE DES HAUTES CRIERES Biological Reserve","coordinates":[0.77823,48.7913]},{"code":"FR-9105","program":"pota","name":"LA LISIERE ENTRE BEAUFOUR ET LES HAUTES LANDES Biological Reserve","coordinates":[0.79339,48.7986]},{"code":"FR-9106","program":"pota","name":"LE MOULIN DE CHETIVET Biological Reserve","coordinates":[0.83916,48.7875]},{"code":"FR-9107","program":"pota","name":"LES PRES BEAUDOIN Biological Reserve","coordinates":[0.90694,48.8009]},{"code":"FR-9108","program":"pota","name":"LA HAUTE VALLEE DE L'ITON, LA FORET DE BOURTH Biological Reserve","coordinates":[0.90297,48.7995]},{"code":"FR-9109","program":"pota","name":"LA PIERRE DE LA GOUE Biological Reserve","coordinates":[0.96596,48.8106]},{"code":"FR-9110","program":"pota","name":"LES PRAIRIES DE L'ITON A GOUVILLE Biological Reserve","coordinates":[0.995,48.8443]}]}