{"lat":48.75,"lon":22,"programs":["pota","sota"],"count":6,"references":[{"code":"SK-0026","program":"pota","name":"Vihorlat - Protected Landscape Area","coordinates":[22.195,48.87]},{"code":"SK-0093","program":"pota","name":"Historický park Snina - National Monument","coordinates":[22.1467,48.985]},{"code":"SK-0222","program":"pota","name":"Park Kaštieľ Kamenica nad Cirochou - National Monument","coordinates":[22.0017,48.9349]},{"code":"OM/PO-025","program":"sota","name":"Vihorlat","coordinates":[22.1133,48.8914]},{"code":"OM/PO-030","program":"sota","name":"Nežabec","coordinates":[22.2293,48.9279]},{"code":"OM/PO-041","program":"sota","name":"Kyjov","coordinates":[22.0148,48.8557]}]}