{"lat":48.75,"lon":0.25,"programs":["pota","sota"],"count":5,"references":[{"code":"FR-4056","program":"pota","name":"Haute Vallee de la Touques et affluents Natura 2000","coordinates":[0.29694,48.9386]},{"code":"FR-8879","program":"pota","name":"Riviere La Touques Et Ses Affluents Biological Reserve","coordinates":[0.29828,48.82]},{"code":"FR-8881","program":"pota","name":"Riviere La Guiel, Ses Affluents Et Zones Humides Associees Biological Reserve","coordinates":[0.39234,48.8419]},{"code":"FR-9604","program":"pota","name":"Escarpement des Rochers des Parcs Conservation Area","coordinates":[0.37,48.88]},{"code":"FL/NO-072","program":"sota","name":"Bois de Trémont","coordinates":[0.3915,48.7589]}]}