{"lat":48.75,"lon":23.75,"programs":["pota","sota"],"count":11,"references":[{"code":"UA-0066","program":"pota","name":"Bovkoty National Nature Reserve","coordinates":[23.7681,48.9824]},{"code":"UT/CA-092","program":"sota","name":"Великий-Пустишак (Veliky-Pustishak)","coordinates":[23.8191,48.7689]},{"code":"UT/CA-129","program":"sota","name":"хр. Сехлис (Range Sehlis)","coordinates":[23.9629,48.7638]},{"code":"UT/CA-153","program":"sota","name":"Пянула-Верхняя (Pyanula-Verhnyaya)","coordinates":[23.7814,48.8393]},{"code":"UT/CA-166","program":"sota","name":"Негрын (Negryn)","coordinates":[23.9062,48.8217]},{"code":"UT/CA-178","program":"sota","name":"Лысая (Lysaya)","coordinates":[23.8515,48.8672]},{"code":"UT/CA-179","program":"sota","name":"Магура (Magura)","coordinates":[23.9165,48.7868]},{"code":"UT/CA-196","program":"sota","name":"Церковище (Tserkovishe)","coordinates":[23.8054,48.9049]},{"code":"UT/CA-321","program":"sota","name":"Высота 785 (Height 785)","coordinates":[23.9947,48.877]},{"code":"UT/CA-323","program":"sota","name":"Забуй (Zabuy)","coordinates":[23.9546,48.911]},{"code":"UT/CA-331","program":"sota","name":"Оси-Гарб (Osi-Garb)","coordinates":[23.8827,48.9538]}]}