{"lat":48.75,"lon":8.25,"programs":["gma","pota","sota"],"count":13,"references":[{"code":"DA/BW-061","program":"gma","name":"Kleiner Staufenberg","coordinates":[8.28610039,48.7560997]},{"code":"DA/BW-282","program":"gma","name":"Teufelsmühle","coordinates":[8.40919971,48.75419998]},{"code":"DA/BW-283","program":"gma","name":"Schweizerkopf","coordinates":[8.45530033,48.75999832]},{"code":"DA/BW-378","program":"gma","name":"Grenzertkopf","coordinates":[8.41469955,48.76079941]},{"code":"DA/BW-613","program":"gma","name":"Wattkopf","coordinates":[8.42749977,48.94079971]},{"code":"DA/BW-871","program":"gma","name":"Turmberg","coordinates":[8.48566,48.99692]},{"code":"DE-0418","program":"pota","name":"Epplesee Recreation Site","coordinates":[8.32466,48.9654]},{"code":"DE-0749","program":"pota","name":"Hardtwald zwischen Karlsruhe und Muggensturm National Forest","coordinates":[8.33378,48.9406]},{"code":"DE-0764","program":"pota","name":"Günther-Klotz-Anlage Recreation Park","coordinates":[8.37365,48.9985]},{"code":"DM/BW-103","program":"sota","name":"Merkur","coordinates":[8.2806,48.7644]},{"code":"DM/BW-385","program":"sota","name":"Mauzenberg","coordinates":[8.4083,48.8086]},{"code":"DM/BW-859","program":"sota","name":"Battert","coordinates":[8.252209,48.777817]},{"code":"DM/BW-860","program":"sota","name":"Eichelberg","coordinates":[8.333329,48.841946]}]}