{"lat":48.75,"lon":21,"programs":["pota","sota"],"count":8,"references":[{"code":"SK-0252","program":"pota","name":"Alpinka - Park","coordinates":[21.1804,48.7605]},{"code":"SK-0227","program":"pota","name":"Lesík delostrelcov - National Monument","coordinates":[21.2496,48.9933]},{"code":"SK-0231","program":"pota","name":"Park Kaštieľ Ľubovec - National Monument","coordinates":[21.1864,48.9026]},{"code":"OM/KE-015","program":"sota","name":"Folkmarská skala","coordinates":[21.0112,48.8291]},{"code":"OM/KE-031","program":"sota","name":"Pokryvy","coordinates":[21.1326,48.8314]},{"code":"OM/KE-034","program":"sota","name":"Suchý vrch","coordinates":[21.0839,48.8877]},{"code":"OM/PO-029","program":"sota","name":"Roháčka","coordinates":[21.0127,48.924]},{"code":"OM/PO-047","program":"sota","name":"Tlstá","coordinates":[21.1875,48.8792]}]}