{"lat":48.75,"lon":13.25,"programs":["gma","pota","sota"],"count":30,"references":[{"code":"DA/BM-014","program":"gma","name":"Diebstein","coordinates":[13.33580017,48.76079941]},{"code":"DA/BM-040","program":"gma","name":"Gesengetstein","coordinates":[13.2578001,48.93249893]},{"code":"DA/BM-043","program":"gma","name":"Hessenstein","coordinates":[13.30420017,48.91469955]},{"code":"DA/BM-044","program":"gma","name":"Hoher Sachsen","coordinates":[13.37170029,48.86169815]},{"code":"DA/BM-045","program":"gma","name":"Kaltenberg","coordinates":[13.47939968,48.79940033]},{"code":"DA/BM-210","program":"gma","name":"Waldhäuserriegel","coordinates":[13.4845986,48.92468]},{"code":"DA/BM-222","program":"gma","name":"Kadernberg","coordinates":[13.327,48.845]},{"code":"DA/BM-306","program":"gma","name":"Frauenberg","coordinates":[13.38059998,48.84469986]},{"code":"DA/BM-333","program":"gma","name":"Hollerriegel","coordinates":[13.27670002,48.97389984]},{"code":"DA/BM-337","program":"gma","name":"Bienstand","coordinates":[13.39360046,48.89419937]},{"code":"DA/BM-338","program":"gma","name":"Koksberg","coordinates":[13.33469963,48.85499954]},{"code":"DA/BM-339","program":"gma","name":"Plattenhausenriegel","coordinates":[13.44939995,48.96419907]},{"code":"DA/BM-340","program":"gma","name":"Steinberg","coordinates":[13.46080017,48.8506012]},{"code":"DA/BM-341","program":"gma","name":"Sulzberg","coordinates":[13.49279976,48.80170059]},{"code":"DA/BM-350","program":"gma","name":"Aschenstein","coordinates":[13.25720024,48.81750107]},{"code":"DA/BM-416","program":"gma","name":"Oberkreuzberg","coordinates":[13.34535,48.8952]},{"code":"DA/BM-417","program":"gma","name":"Steinbühl","coordinates":[13.43552,48.8419]},{"code":"DA/BM-419","program":"gma","name":"Burgberg-Saldenburg","coordinates":[13.35409,48.7759]},{"code":"DA/BM-421","program":"gma","name":"Ochsenstiegl","coordinates":[13.3079,48.75535]},{"code":"DA/BM-480","program":"gma","name":"Wagensonnriegel","coordinates":[13.2827,48.9492]},{"code":"DA/BM-483","program":"gma","name":"Hoehlenstein","coordinates":[13.49132,48.89816]},{"code":"DA/BM-539","program":"gma","name":"Windhoch","coordinates":[13.29464,48.81751]},{"code":"DA/BM-540","program":"gma","name":"Jaegerhoehe","coordinates":[13.37591,48.93057]},{"code":"OL/PL-002","program":"gma","name":"Studená hora <Studena hora>","coordinates":[13.4633753,48.9794611]},{"code":"OL/PL-957","program":"gma","name":"Blatný vrch <Blatny vrch>","coordinates":[13.44999981,48.96699905]},{"code":"OL/PL-963","program":"gma","name":"Medvědí­ hora <Medvedi hora>","coordinates":[13.42700005,48.99399948]},{"code":"DE-0012","program":"pota","name":"Bayerischer Wald National Park","coordinates":[13.3949,48.9596]},{"code":"DE-1107","program":"pota","name":"Ilz-Talsystem Flora and Fauna Reserve","coordinates":[13.469,48.7751]},{"code":"DM/BM-271","program":"sota","name":"Eschenberg","coordinates":[13.2792,48.9347]},{"code":"DM/BM-274","program":"sota","name":"Großer Rachel","coordinates":[13.3892,48.9783]}]}