{"lat":48.75,"lon":9.75,"programs":["gma","sota"],"count":8,"references":[{"code":"DA/BW-1026","program":"gma","name":"Glasenberg","coordinates":[9.95373,48.78592]},{"code":"DA/BW-244","program":"gma","name":"Hoefenberg","coordinates":[9.93669987,48.93719864]},{"code":"DA/BW-525","program":"gma","name":"Bärenberg","coordinates":[9.97719955,48.76390076]},{"code":"DA/BW-526","program":"gma","name":"Rosenstein","coordinates":[9.96609974,48.79579926]},{"code":"DA/BW-752","program":"gma","name":"Rechberg","coordinates":[9.78999996,48.75669861]},{"code":"DA/BW-780","program":"gma","name":"Altenberg","coordinates":[9.90190029,48.96250153]},{"code":"DA/BW-986","program":"gma","name":"Hornberg","coordinates":[9.85058,48.75228]},{"code":"DM/BW-848","program":"sota","name":"Bernhardus","coordinates":[9.88714,48.750248]}]}