{"lat":48.75,"lon":-118.75,"programs":["sota"],"count":8,"references":[{"code":"W7W/FR-029","program":"sota","name":"White Mountain","coordinates":[-118.6749,48.9814]},{"code":"W7W/FR-042","program":"sota","name":"5260 Sideswipper Mtn","coordinates":[-118.6785,48.9554]},{"code":"W7W/FR-047","program":"sota","name":"Lake Butte","coordinates":[-118.734,48.8146]},{"code":"W7W/FR-071","program":"sota","name":"4464 Modulator Mtn","coordinates":[-118.7046,48.8073]},{"code":"W7W/FR-075","program":"sota","name":"4353 Meteor Scatter Pk","coordinates":[-118.5228,48.8139]},{"code":"W7W/FR-087","program":"sota","name":"4123 Amateur Radio Pk","coordinates":[-118.6577,48.8396]},{"code":"W7W/FR-112","program":"sota","name":"3794 CW Ops Pk","coordinates":[-118.5934,48.767]},{"code":"W7W/FR-126","program":"sota","name":"3205 Circuit Hill","coordinates":[-118.6309,48.8743]}]}