{"lat":48.75,"lon":14.5,"programs":["gma","pota","sota","wwbota"],"count":16,"references":[{"code":"OK/JC-043","program":"gma","name":"Kohout","coordinates":[14.58300018,48.76900101]},{"code":"OL/JC-158","program":"gma","name":"Vysoký kámen (Slepice) <Vysoky kamen>","coordinates":[14.60826397,48.75645065]},{"code":"OL/JC-275","program":"gma","name":"Besednická hora (Velký kámen) <Besednicka hora> ","coordinates":[14.57853603,48.78398132]},{"code":"OL/JC-290","program":"gma","name":"Jeseň <Jesen>","coordinates":[14.56599045,48.77349854]},{"code":"OL/JC-349","program":"gma","name":"Kondračská hora <Kondracska hora>","coordinates":[14.63737202,48.78022385]},{"code":"OL/JC-392","program":"gma","name":"Kří­b <Krib>","coordinates":[14.69210911,48.75087357]},{"code":"OL/JC-448","program":"gma","name":"Vlčkův vrch <Vlckuv vrch>","coordinates":[14.69069958,48.75896835]},{"code":"OL/JC-476","program":"gma","name":"Slabošovka <Slabosovka>","coordinates":[14.53642845,48.79159164]},{"code":"OL/JC-677","program":"gma","name":"Dlouhý vrch <Dlouhy vrch>","coordinates":[14.54180431,48.97843933]},{"code":"OL/JC-709","program":"gma","name":"Chlumek","coordinates":[14.54474068,48.9321022]},{"code":"OL/JC-762","program":"gma","name":"Borovanský vrch <Borovansky vrch>","coordinates":[14.64622021,48.88045883]},{"code":"OL/JC-961","program":"gma","name":"Todeňská hora <Todenska hora>","coordinates":[14.56000042,48.84500122]},{"code":"CZ-0152","program":"pota","name":"Brouskův mlýn National Nature Reserve","coordinates":[14.686,48.879]},{"code":"OK/JC-043","program":"sota","name":"Kohout","coordinates":[14.5827,48.7686]},{"code":"B/OK-0375","program":"wwbota","name":"182/33/A-140Z Ujezd Ostrolov (Ostrolovsky Uj.)","coordinates":[14.58361,48.87638]},{"code":"B/OK-4974","program":"wwbota","name":"X.a/15/C Ceske Budejovice - vychod","coordinates":[14.64806,48.89053]}]}