{"lat":48.75,"lon":17.5,"programs":["gma","sota"],"count":15,"references":[{"code":"OL/JM-003","program":"gma","name":"Čupec (Čapec) <Cupec Capec>","coordinates":[17.6208,48.8469]},{"code":"OL/JM-161","program":"gma","name":"Nová hora <Nova hora>","coordinates":[17.5720005,48.82400131]},{"code":"OL/JM-300","program":"gma","name":"Kašpariskův vrch <Kaspariskuv vrch>","coordinates":[17.63284,48.85494]},{"code":"OL/JM-308","program":"gma","name":"Háj <Haj> ","coordinates":[17.5507,48.89079]},{"code":"OL/JM-309","program":"gma","name":"Hradisko","coordinates":[17.56087,48.85485]},{"code":"OL/JM-310","program":"gma","name":"Paličky <Palicky>","coordinates":[17.5446,48.83856]},{"code":"OL/JM-311","program":"gma","name":"Klokoční­k <Klokocnik>","coordinates":[17.57204,48.84822]},{"code":"OL/JM-312","program":"gma","name":"Kubíkův vrch <Kubikuv vrch>","coordinates":[17.6024,48.84154]},{"code":"OL/ZL-037","program":"gma","name":"Jelenec","coordinates":[17.70289,48.86027]},{"code":"OL/ZL-043","program":"gma","name":"Rozhledna U křížku <Rozhledna U krizku>","coordinates":[17.71842,48.9297]},{"code":"OL/ZL-044","program":"gma","name":"Nová hora <Nova hora>","coordinates":[17.7336043,48.8931091]},{"code":"OL/ZL-049","program":"gma","name":"Velká Javořina <Velka Javorina>","coordinates":[17.6760006,48.85900116]},{"code":"OL/ZL-059","program":"gma","name":"Lesná <Lesna>","coordinates":[17.64900017,48.89799881]},{"code":"OL/ZL-061","program":"gma","name":"Studený <Studeny>","coordinates":[17.72999954,48.94100189]},{"code":"OM/TN-010","program":"sota","name":"Velká Javorina","coordinates":[17.6762,48.8579]}]}