{"lat":48.75,"lon":2.75,"programs":["pota"],"count":17,"references":[{"code":"FR-1154","program":"pota","name":"Grand Voyeux Provincial Park","coordinates":[2.97717,48.9979]},{"code":"FR-7934","program":"pota","name":"FORET DE CRECY Biological Reserve","coordinates":[2.86544,48.7846]},{"code":"FR-7935","program":"pota","name":"Foret de Malvoisine Biological Reserve","coordinates":[2.99507,48.7659]},{"code":"FR-12676","program":"pota","name":"PLANS D'EAU DE PRECY-SUR-MARNE Biological Reserve","coordinates":[2.766,48.925]},{"code":"FR-12677","program":"pota","name":"PLANS D'EAU DE TRILBARDOU Biological Reserve","coordinates":[2.79,48.944]},{"code":"FR-12678","program":"pota","name":"MARAIS DU REFUGE Biological Reserve","coordinates":[2.787,48.917]},{"code":"FR-12679","program":"pota","name":"PRES HUMIDES DE COUPVRAY Biological Reserve","coordinates":[2.781,48.897]},{"code":"FR-12680","program":"pota","name":"LES PRES Biological Reserve","coordinates":[2.798,48.897]},{"code":"FR-12681","program":"pota","name":"PLAN D'EAU D'ISLES-LES-VILLENOY Biological Reserve","coordinates":[2.839,48.904]},{"code":"FR-12682","program":"pota","name":"BOISEMENT ET PTURES DE QUINCY-VOISINS Biological Reserve","coordinates":[2.861,48.906]},{"code":"FR-12683","program":"pota","name":"BOISEMENT DE MONTGUILLON ET BOIS DE LA GARENNE Biological Reserve","coordinates":[2.826,48.868]},{"code":"FR-13470","program":"pota","name":"Foret de Monceaux aux ponts d'Agieu Biological Reserve","coordinates":[2.965,48.989]},{"code":"FR-13471","program":"pota","name":"COTEAU DU BOIS CHAUDRON A ARMENTIERES-EN-BRIE Biological Reserve","coordinates":[2.999,48.976]},{"code":"FR-13475","program":"pota","name":"ETANG DE LA SABOTTE Biological Reserve","coordinates":[2.926,48.989]},{"code":"FR-13476","program":"pota","name":"CARRIERE DES LONGS PRES A POINCY Biological Reserve","coordinates":[2.939,48.961]},{"code":"FR-13477","program":"pota","name":"BOUCLE DE MEAUX-BEAUVAL Biological Reserve","coordinates":[2.905,48.939]},{"code":"FR-7937","program":"pota","name":"FORET DOMANIALE DE MONTCEAUX Biological Reserve","coordinates":[2.98217,48.9683]}]}