{"lat":48.75,"lon":21.75,"programs":["pota","sota"],"count":9,"references":[{"code":"SK-0250","program":"pota","name":"Park mieru Michalovce - National Monument","coordinates":[21.9213,48.7546]},{"code":"SK-0251","program":"pota","name":"Park Kúria Rakovec nad Ondavou - National Monument","coordinates":[21.7837,48.7781]},{"code":"SK-0094","program":"pota","name":"Park Mieru Humenné - National Monument","coordinates":[21.9096,48.9391]},{"code":"SK-0242","program":"pota","name":"Park Malonayayovcov - National Monument","coordinates":[21.7518,48.8529]},{"code":"OM/PO-080","program":"sota","name":"Krivoštianka","coordinates":[21.8683,48.8927]},{"code":"OM/PO-088","program":"sota","name":"Červená skala","coordinates":[21.9245,48.9064]},{"code":"OM/PO-089","program":"sota","name":"Humenská","coordinates":[21.948,48.9113]},{"code":"OM/PO-090","program":"sota","name":"Hrb","coordinates":[21.78,48.9775]},{"code":"OM/PO-091","program":"sota","name":"Klokočiny","coordinates":[21.8283,48.8984]}]}