{"lat":48.75,"lon":16.75,"programs":["gma","wwbota"],"count":53,"references":[{"code":"OL/JM-043","program":"gma","name":"Nedánov <Nedanov>","coordinates":[16.8215483,48.9810865]},{"code":"OL/JM-073","program":"gma","name":"Pří­tlucká hora <Pritlucka hora>","coordinates":[16.7723517,48.8640372]},{"code":"OL/JM-181","program":"gma","name":"Přední­ kout <Predni kout>","coordinates":[16.78000069,48.97100067]},{"code":"OL/JM-192","program":"gma","name":"Kobylí­ vrch <Kobyli vrch>","coordinates":[16.90800095,48.9280014]},{"code":"OL/JM-196","program":"gma","name":"Zimarky","coordinates":[16.88899994,48.87599945]},{"code":"OL/JM-223","program":"gma","name":"Ochozy","coordinates":[16.86544,48.95317]},{"code":"OL/JM-224","program":"gma","name":"Horní­ ochozy <Horni ochozy>","coordinates":[16.85192,48.93795]},{"code":"OL/JM-225","program":"gma","name":"Kuntinov","coordinates":[16.84255,48.95054]},{"code":"OL/JM-228","program":"gma","name":"Kobylská skála <Kobylska skala>","coordinates":[16.92274,48.94205]},{"code":"OL/JM-255","program":"gma","name":"Ochůzky <Ochuzky>","coordinates":[16.83816,48.99408]},{"code":"OL/JM-256","program":"gma","name":"Lí­chy <Lichy>","coordinates":[16.78946,48.99764]},{"code":"OL/JM-257","program":"gma","name":"Staré hory <Stare hory>","coordinates":[16.7942841,48.9567818]},{"code":"OL/JM-276","program":"gma","name":"Větrní­k <Vetrnik>","coordinates":[16.85805,48.99176]},{"code":"OL/JM-277","program":"gma","name":"Na Větráku <Na Vetraku>","coordinates":[16.96488,48.88094]},{"code":"OL/JM-422","program":"gma","name":"Holý vrch <Holy vrch>","coordinates":[16.7658464,48.9724042]},{"code":"OL/JM-423","program":"gma","name":"Maják <Majak>","coordinates":[16.7650111,48.9770769]},{"code":"OL/JM-424","program":"gma","name":"Kamenný vrch <Kamenny vrch>","coordinates":[16.7510111,48.9632689]},{"code":"B/OK-3430","program":"wwbota","name":"6/47/C2 Mikulov","coordinates":[16.75038,48.78955]},{"code":"B/OK-3431","program":"wwbota","name":"6/48/A-120 Mikulov","coordinates":[16.75681,48.7878]},{"code":"B/OK-3432","program":"wwbota","name":"6/49/A-140 Mikulov","coordinates":[16.76056,48.78318]},{"code":"B/OK-3434","program":"wwbota","name":"6/50/D2 Mikulov","coordinates":[16.76198,48.78516]},{"code":"B/OK-3435","program":"wwbota","name":"6/51/A-120S Mikulov","coordinates":[16.76504,48.78869]},{"code":"B/OK-3436","program":"wwbota","name":"6/52/A-160S Mikulov","coordinates":[16.77299,48.78711]},{"code":"B/OK-3437","program":"wwbota","name":"6/53/A-120S Mikulov","coordinates":[16.77602,48.7846]},{"code":"B/OK-3438","program":"wwbota","name":"6/54/A-180 Mikulov","coordinates":[16.7787,48.78309]},{"code":"B/OK-3439","program":"wwbota","name":"6/59/B1-80 Mikulov","coordinates":[16.79608,48.78917]},{"code":"B/OK-3441","program":"wwbota","name":"6/60/B1-90 Mikulov","coordinates":[16.8005,48.78797]},{"code":"B/OK-3442","program":"wwbota","name":"6/61/A-140 Mikulov","coordinates":[16.79581,48.78338]},{"code":"B/OK-3443","program":"wwbota","name":"6/64/A-140 Mikulov","coordinates":[16.75963,48.76322]},{"code":"B/OK-3444","program":"wwbota","name":"6/65/A-140 Mikulov","coordinates":[16.77282,48.75557]},{"code":"B/OK-3567","program":"wwbota","name":"8/1a/A-140 Breclav","coordinates":[16.84527,48.76367]},{"code":"B/OK-3571","program":"wwbota","name":"8/13a/C1 Breclav","coordinates":[16.80403,48.7768]},{"code":"B/OK-3572","program":"wwbota","name":"8/14a/B2-80 Breclav","coordinates":[16.81583,48.78601]},{"code":"B/OK-3573","program":"wwbota","name":"8/15/A-140Z Breclav","coordinates":[16.85972,48.75233]},{"code":"B/OK-3576","program":"wwbota","name":"8/24/E Breclav","coordinates":[16.84048,48.75442]},{"code":"B/OK-4659","program":"wwbota","name":"5/136/1 Breclav","coordinates":[16.75781,48.75802]},{"code":"B/OK-4660","program":"wwbota","name":"5/137/1 Breclav","coordinates":[16.76677,48.75902]},{"code":"B/OK-4661","program":"wwbota","name":"5/138/1 Breclav","coordinates":[16.75115,48.78206]},{"code":"B/OK-4662","program":"wwbota","name":"5/139/1 Breclav","coordinates":[16.77918,48.75128]},{"code":"B/OK-4667","program":"wwbota","name":"5/145/1 Breclav","coordinates":[16.76684,48.78292]},{"code":"B/OK-4668","program":"wwbota","name":"5/146/1 Breclav","coordinates":[16.77676,48.76526]},{"code":"B/OK-4669","program":"wwbota","name":"5/147/1 Breclav","coordinates":[16.7898,48.78377]},{"code":"B/OK-4670","program":"wwbota","name":"5/148/1 Breclav","coordinates":[16.80313,48.78356]},{"code":"B/OK-4671","program":"wwbota","name":"5/149/1 Breclav","coordinates":[16.81862,48.7781]},{"code":"B/OK-4672","program":"wwbota","name":"5/150/1 Breclav","coordinates":[16.82126,48.77757]},{"code":"B/OK-4673","program":"wwbota","name":"5/151/1 Breclav","coordinates":[16.84177,48.78347]},{"code":"B/OK-4674","program":"wwbota","name":"5/152/2 Breclav","coordinates":[16.83555,48.77399]},{"code":"B/OK-4675","program":"wwbota","name":"5/153/1 Breclav","coordinates":[16.84005,48.76759]},{"code":"B/OK-4676","program":"wwbota","name":"5/154/1 Breclav","coordinates":[16.84808,48.76129]},{"code":"B/OK-4677","program":"wwbota","name":"5/155/1 Breclav","coordinates":[16.85783,48.76391]},{"code":"B/OK-4678","program":"wwbota","name":"5/156/1 Breclav","coordinates":[16.85953,48.75728]},{"code":"B/OK-4679","program":"wwbota","name":"5/157/1 Breclav","coordinates":[16.87104,48.758]},{"code":"B/OK-4680","program":"wwbota","name":"5/158/1 Breclav","coordinates":[16.86514,48.75045]}]}