{"lat":48.75,"lon":-3.75,"programs":["pota","wwbota"],"count":23,"references":[{"code":"FR-8423","program":"pota","name":"Bringuiller - kerlavos Biological Reserve","coordinates":[-3.53453,48.8218]},{"code":"FR-8424","program":"pota","name":"COTE OUEST DE L'ILE GRANDE Biological Reserve","coordinates":[-3.58417,48.802]},{"code":"FR-8425","program":"pota","name":"Archipel de l'ile grande Conservation Park","coordinates":[-3.58837,48.7985]},{"code":"FR-8426","program":"pota","name":"Coteaux de penvern-kervegan Conservation Park","coordinates":[-3.53792,48.7978]},{"code":"FR-8427","program":"pota","name":"Milin ar lann Conservation Park","coordinates":[-3.55599,48.7823]},{"code":"FR-8428","program":"pota","name":"LANDE DE MILIN AR LANN Biological Reserve","coordinates":[-3.55634,48.7823]},{"code":"FR-8429","program":"pota","name":"MARAIS ET DUNE DU QUELLEN Biological Reserve","coordinates":[-3.57473,48.7792]},{"code":"FR-8440","program":"pota","name":"Lann ar waremm Conservation Park","coordinates":[-3.52489,48.7648]},{"code":"FR-8441","program":"pota","name":"Pointe de bihit Conservation Park","coordinates":[-3.57862,48.7595]},{"code":"FR-8442","program":"pota","name":"POINTE DE BIHIT ET ROC'H-A-VIGNON Biological Reserve","coordinates":[-3.58133,48.7587]},{"code":"FR-8443","program":"pota","name":"MASSE BOISE DE PLEUMEUR BODOU Biological Reserve","coordinates":[-3.52397,48.7646]},{"code":"FR-8527","program":"pota","name":"ILE AGANTON Biological Reserve","coordinates":[-3.59604,48.7984]},{"code":"FR-8528","program":"pota","name":"ILE GOULMEDEC Biological Reserve","coordinates":[-3.56165,48.827]},{"code":"FR-8529","program":"pota","name":"COTE DE COZ PORS A LA GREVE BLANCHE Biological Reserve","coordinates":[-3.51995,48.8297]},{"code":"FR-8532","program":"pota","name":"ILE MILLAU - ILE GRANDE Biological Reserve","coordinates":[-3.60306,48.7885]},{"code":"FR-8533","program":"pota","name":"ILE LOSQUET Biological Reserve","coordinates":[-3.60991,48.796]},{"code":"FR-8534","program":"pota","name":"Ile molene Biological Reserve","coordinates":[-3.60875,48.781]},{"code":"FR-8535","program":"pota","name":"Ile milliau Conservation Area","coordinates":[-3.59719,48.7689]},{"code":"FR-8536","program":"pota","name":"ILE MILLIAU 2 Biological Reserve","coordinates":[-3.59634,48.7689]},{"code":"FR-8541","program":"pota","name":"LE CERF ( ILOT ) Biological Reserve","coordinates":[-3.5087,48.8757]},{"code":"B/F-6925","program":"wwbota","name":"Landrellec","coordinates":[-3.53891,48.82309]},{"code":"B/F-7282","program":"wwbota","name":"Ile Grande 1","coordinates":[-3.579257,48.804411]},{"code":"B/F-7283","program":"wwbota","name":"Ile Grande 2","coordinates":[-3.581011,48.805019]}]}