{"lat":48.75,"lon":18,"programs":["gma","pota","sota"],"count":7,"references":[{"code":"OM0/TN-002","program":"gma","name":"Kozi vrch","coordinates":[18.0552042,48.8850196]},{"code":"SK-0101","program":"pota","name":"Park Kúpele Trenčianske Teplice - National Monument","coordinates":[18.1748,48.9084]},{"code":"SK-0102","program":"pota","name":"Park Jána Baltazára Magina - National Monument","coordinates":[18.1668,48.9623]},{"code":"SK-0142","program":"pota","name":"Park Kaštieľ Klobušice - National Monument","coordinates":[18.2211,48.9896]},{"code":"OM/TN-004","program":"sota","name":"Inovec","coordinates":[18.0412,48.7748]},{"code":"OM/TN-037","program":"sota","name":"Ostrý vrch","coordinates":[18.1251,48.8479]},{"code":"OM/TN-042","program":"sota","name":"Svitava","coordinates":[18.1418,48.8668]}]}