{"lat":48.75,"lon":6.5,"programs":["pota","wwbota"],"count":27,"references":[{"code":"FR-13608","program":"pota","name":"PRES SALES ENTRE MARSAL ET MOYENVIC Biological Reserve","coordinates":[6.581,48.783]},{"code":"FR-13613","program":"pota","name":"VOITE ETANG ET ETANG DES SOEURS GRISES A LINDRE-BASSE Biological Reserve","coordinates":[6.722,48.79]},{"code":"FR-13614","program":"pota","name":"PAYS DES ETANGS Biological Reserve","coordinates":[6.716,48.793]},{"code":"FR-3383","program":"pota","name":"Vallee de la Seille  secteur amont et petite Seille FR4100232 Natura 2000","coordinates":[6.58361,48.7825]},{"code":"FR-8335","program":"pota","name":"MARAIS SALE DE LA GRANGE FOUQUET ET PRES SALES DE SALONNES Biological Reserve","coordinates":[6.50342,48.7878]},{"code":"FR-8336","program":"pota","name":"MARAIS DE CHATEAU-SALINS Biological Reserve","coordinates":[6.50547,48.8119]},{"code":"FR-8337","program":"pota","name":"PRAIRIES SALEES DE LA VALLEE DE LA PETITE SEILLE ENTRE CHATEAU-SALINS ET PUTTIGNY Biological Reserve","coordinates":[6.53079,48.8375]},{"code":"FR-8338","program":"pota","name":"GITE A CHIROPTERES A GERBECOURT Biological Reserve","coordinates":[6.50857,48.8608]},{"code":"FR-8339","program":"pota","name":"MARAIS LE PATURAL DU MILIEU A CHATEAU-BREHAIN Biological Reserve","coordinates":[6.51318,48.9077]},{"code":"FR-8381","program":"pota","name":"ETANGS DE HOLACOURT, DE BOULIGNY, DE FRAU WEISE, DE PIC-VIC A HOLACOURT ET MANY Biological Reserve","coordinates":[6.51492,48.9891]},{"code":"FR-8384","program":"pota","name":"ETANG DE MUTCHE ET ZONES HUMIDES DE MORHANGE Biological Reserve","coordinates":[6.64569,48.9497]},{"code":"FR-8385","program":"pota","name":"ETANG DE VALLERANGE Biological Reserve","coordinates":[6.69831,48.9447]},{"code":"FR-8386","program":"pota","name":"ETANG DU MOULIN NEUF A MORHANGE Biological Reserve","coordinates":[6.65687,48.9097]},{"code":"FR-8387","program":"pota","name":"GITE A CHIROPTERES DE BENESTROFF Biological Reserve","coordinates":[6.74322,48.9062]},{"code":"FR-8388","program":"pota","name":"LES GLISSIERES ANCIENNES CARRIERES DE GYPSE A GUEBLING Biological Reserve","coordinates":[6.73783,48.881]},{"code":"FR-13606","program":"pota","name":"SOURCES ET PRAIRIES SALEES DE LA VALLEE DE LA SEILLE DE VIC-SUR-SEILLE A MOYENVIC Biological Reserve","coordinates":[6.55,48.787]},{"code":"FR-13610","program":"pota","name":"PRAIRIES ET MARAIS SALES DE LEZEY Biological Reserve","coordinates":[6.591,48.767]},{"code":"FR-13611","program":"pota","name":"PRES SALES DE VAL-DE-BRIDE Biological Reserve","coordinates":[6.716,48.825]},{"code":"FR-13612","program":"pota","name":"PLAINE DE MARSAL DE DIEUZE A MARSAL Biological Reserve","coordinates":[6.732,48.818]},{"code":"FR-13659","program":"pota","name":"PRAIRIES SALEES DE LEY ET DE JUVELIZE ET MARAIS DE LEZEY Biological Reserve","coordinates":[6.635,48.752]},{"code":"B/F-2722","program":"wwbota","name":"CEZF-7 - GROSTENQUIN Sud","coordinates":[6.748082,48.977893]},{"code":"B/F-2787","program":"wwbota","name":"M107B - MEISENBRUCK","coordinates":[6.729332,48.994474]},{"code":"B/F-2788","program":"wwbota","name":"M108B - DURBUEHL","coordinates":[6.732925,48.990494]},{"code":"B/F-2789","program":"wwbota","name":"M109B - HOCHMAECHER","coordinates":[6.730072,48.985439]},{"code":"B/F-2792","program":"wwbota","name":"M110B - GALGENBERG","coordinates":[6.741388,48.983622]},{"code":"B/F-2793","program":"wwbota","name":"M112B - TANZGARTEN","coordinates":[6.746664,48.977107]},{"code":"B/F-2794","program":"wwbota","name":"M113B - LINSTROFF","coordinates":[6.743745,48.972952]}]}