{"lat":48.75,"lon":-121,"programs":["sota"],"count":29,"references":[{"code":"W7W/OK-064","program":"sota","name":"Mount Winthrop","coordinates":[-120.7675,48.9728]},{"code":"W7W/WH-004","program":"sota","name":"Jack Mountain","coordinates":[-120.9564,48.7728]},{"code":"W7W/WH-012","program":"sota","name":"Castle Peak","coordinates":[-120.862,48.982]},{"code":"W7W/WH-020","program":"sota","name":"South Hozomeen Mountain","coordinates":[-120.9976,48.9729]},{"code":"W7W/WH-022","program":"sota","name":"Three Fools Peak","coordinates":[-120.7633,48.9006]},{"code":"W7W/WH-027","program":"sota","name":"Full Moon Rising","coordinates":[-120.8978,48.9939]},{"code":"W7W/WH-028","program":"sota","name":"Shull Mountain","coordinates":[-120.7745,48.8572]},{"code":"W7W/WH-029","program":"sota","name":"Three Aunts","coordinates":[-120.8668,48.9619]},{"code":"W7W/WH-032","program":"sota","name":"Freezeout Mountain","coordinates":[-120.8825,48.9687]},{"code":"W7W/WH-035","program":"sota","name":"Powder Mountain","coordinates":[-120.768,48.8773]},{"code":"W7W/WH-038","program":"sota","name":"Blizzard Peak","coordinates":[-120.7553,48.9406]},{"code":"W7W/WH-039","program":"sota","name":"Joker Mountain","coordinates":[-120.879,48.9461]},{"code":"W7W/WH-043","program":"sota","name":"The Keep","coordinates":[-120.8553,48.9981]},{"code":"W7W/WH-044","program":"sota","name":"Daemon Peak","coordinates":[-120.8398,48.8345]},{"code":"W7W/WH-056","program":"sota","name":"Jackita Ridge","coordinates":[-120.8519,48.7734]},{"code":"W7W/WH-057","program":"sota","name":"Bear Skull Mountain","coordinates":[-120.9317,48.8343]},{"code":"W7W/WH-061","program":"sota","name":"San Juan Hill","coordinates":[-120.838,48.8036]},{"code":"W7W/WH-064","program":"sota","name":"Spratt Mountain","coordinates":[-120.9486,48.8589]},{"code":"W7W/WH-083","program":"sota","name":"Royal Mountain","coordinates":[-120.8008,48.9592]},{"code":"W7W/WH-090","program":"sota","name":"Outback Mountain","coordinates":[-120.9393,48.982]},{"code":"W7W/WH-095","program":"sota","name":"Buck Heaven","coordinates":[-120.917,48.9837]},{"code":"W7W/WH-099","program":"sota","name":"Skagit Peak","coordinates":[-120.9501,48.9164]},{"code":"W7W/WH-100","program":"sota","name":"Welbow Butte","coordinates":[-120.8774,48.9284]},{"code":"W7W/WH-124","program":"sota","name":"Angel Wing","coordinates":[-120.9903,48.8006]},{"code":"W7W/WH-127","program":"sota","name":"Barnett Butte","coordinates":[-120.97,48.8356]},{"code":"W7W/WH-133","program":"sota","name":"6362 Vee Beam Pk","coordinates":[-120.8748,48.8395]},{"code":"W7W/WH-134","program":"sota","name":"Ti-gaks Peak","coordinates":[-120.9575,48.9275]},{"code":"W7W/WH-140","program":"sota","name":"Foolish Mountain","coordinates":[-120.865,48.8744]},{"code":"W7W/WH-205","program":"sota","name":"6234 Eccentric Mountain","coordinates":[-120.8071,48.8299]}]}