{"lat":48.75,"lon":7.75,"programs":["gma","pota","sota","wwbota"],"count":321,"references":[{"code":"FA/VO-016","program":"gma","name":"Hochwald","coordinates":[7.83941,48.98822]},{"code":"FA/VO-475","program":"gma","name":"Wasensteineck","coordinates":[7.792484,48.972465]},{"code":"FR-3157","program":"pota","name":"Foret de Haguenau FR4211790 Natura 2000","coordinates":[7.89417,48.8558]},{"code":"FR-3403","program":"pota","name":"Massif forestier de Haguenau FR4201798 Natura 2000","coordinates":[7.84222,48.8172]},{"code":"FR-6149","program":"pota","name":"Massif forestier de Haguenau et ensembles de landes et prairies en lisiere Biological Reserve","coordinates":[7.84714,48.8492]},{"code":"FR-6153","program":"pota","name":"Haguenau Nature Reserve","coordinates":[7.8,48.8]},{"code":"FR-6155","program":"pota","name":"Boisement du Hohwart en foret indivise de Haguenau Biological Reserve","coordinates":[7.75476,48.8438]},{"code":"FR-6156","program":"pota","name":"Prairies humides de la Sauer et coteau du Haugel a Gunstett et Biblisheim Biological Reserve","coordinates":[7.78902,48.9084]},{"code":"FR-6157","program":"pota","name":"Lande forestiere du camp d'Oberhoffen Biological Reserve","coordinates":[7.86276,48.8082]},{"code":"FR-6158","program":"pota","name":"Zones humides du Brunnwald et cours de la Sauer et de l'Halbmuehlbach en foret de Haguenau Biological Reserve","coordinates":[7.9113,48.8763]},{"code":"FR-6159","program":"pota","name":"Ried du Seltzbach à Stundwiller Biological Reserve","coordinates":[7.98729,48.9151]},{"code":"FR-6162","program":"pota","name":"Ried Nord Biological Reserve","coordinates":[7.90856,48.7681]},{"code":"FR-6167","program":"pota","name":"Le Landgraben Et Ses Proches Alentours Biological Reserve","coordinates":[7.98146,48.8234]},{"code":"FR-6168","program":"pota","name":"Ried du Landgraben a Soufflenheim Biological Reserve","coordinates":[7.97439,48.8243]},{"code":"FR-6169","program":"pota","name":"Etang du Kurzgelaend en foret de Haguenau Biological Reserve","coordinates":[7.93751,48.8274]},{"code":"FR-6170","program":"pota","name":"Ried du Riedbaechel a Oberhoffen-sur-Moder Biological Reserve","coordinates":[7.90659,48.7707]},{"code":"FR-6263","program":"pota","name":"Ancien lit majeur du Rhin de Strasbourg a Lauterbourg Biological Reserve","coordinates":[7.99933,48.7819]},{"code":"FR-6270","program":"pota","name":"Forets rhenanes de Offendorf a Neuhaeusel, et cours inferieur de la Moder Biological Reserve","coordinates":[7.99902,48.7678]},{"code":"FR-6582","program":"pota","name":"Ruisseau du Bremmelbaechel a Cleebourg Biological Reserve","coordinates":[7.88411,48.9947]},{"code":"FR-6583","program":"pota","name":"Vallees de la Sauer et de ses affluents Biological Reserve","coordinates":[7.75564,48.9949]},{"code":"FR-6586","program":"pota","name":"Ruisseau du Ritsenbaechel a Lobsann Biological Reserve","coordinates":[7.85097,48.9714]},{"code":"FR-6587","program":"pota","name":"Reduit militaire du Hohwald a Cleebourg Biological Reserve","coordinates":[7.85022,48.9911]},{"code":"FR-6588","program":"pota","name":"Le Champ petrolifere et son musee a Merkwiller-Pechelbronn Conservation Area","coordinates":[7.86,48.98]},{"code":"FL/VO-130","program":"sota","name":"Fôret Domaniale de Pfaffenbronn","coordinates":[7.8054,48.9807]},{"code":"B/F-3827","program":"wwbota","name":"ANDELSBERG 3","coordinates":[7.750693,48.9695]},{"code":"B/F-3833","program":"wwbota","name":"C2 - SCHMELZBACH 2","coordinates":[7.812918,48.999121]},{"code":"B/F-3834","program":"wwbota","name":"C3 - SCHMELZBACH 1","coordinates":[7.808245,48.99676]},{"code":"B/F-3835","program":"wwbota","name":"C4 - EICHHOLTZ 2","coordinates":[7.786097,48.993675]},{"code":"B/F-3836","program":"wwbota","name":"C5 - HELIENBRUCK 1","coordinates":[7.781359,48.991642]},{"code":"B/F-3837","program":"wwbota","name":"C6 - KUEHLAEGER 2","coordinates":[7.775187,48.992052]},{"code":"B/F-3838","program":"wwbota","name":"C7 - VERRERIE 2","coordinates":[7.751434,48.994801]},{"code":"B/F-3848","program":"wwbota","name":"FM - ZIEGELMATT 2","coordinates":[7.808274,48.996181]},{"code":"B/F-3849","program":"wwbota","name":"FM - ZIEGELMATT Nord","coordinates":[7.81041,48.995937]},{"code":"B/F-3850","program":"wwbota","name":"FM5 - SCHMELZBACH 4","coordinates":[7.81504,48.999446]},{"code":"B/F-3851","program":"wwbota","name":"FM7 - SCHMELZBACH 13","coordinates":[7.810013,48.998095]},{"code":"B/F-3852","program":"wwbota","name":"FM8 - ZIEGELMATT","coordinates":[7.810271,48.993235]},{"code":"B/F-3853","program":"wwbota","name":"FM9 - HIRTENMATT 1","coordinates":[7.804454,48.99551]},{"code":"B/F-3854","program":"wwbota","name":"FM10 - HIRTENMATT 2","coordinates":[7.803912,48.995477]},{"code":"B/F-3855","program":"wwbota","name":"FM11 - HELIENBRUCK 2","coordinates":[7.781967,48.991594]},{"code":"B/F-3856","program":"wwbota","name":"FM12 - VERLORENERBACH 4","coordinates":[7.786281,48.983744]},{"code":"B/F-3857","program":"wwbota","name":"FM14 - VERLORENERBACH 2","coordinates":[7.778845,48.988329]},{"code":"B/F-3858","program":"wwbota","name":"FM15 - VERLORENERBACH 1","coordinates":[7.775726,48.988613]},{"code":"B/F-3859","program":"wwbota","name":"FM16 - KUEHLAEGER","coordinates":[7.775526,48.993635]},{"code":"B/F-3860","program":"wwbota","name":"FM17 - VOEGELSMATT 8","coordinates":[7.772842,48.993156]},{"code":"B/F-3861","program":"wwbota","name":"FM18 - ROUTE de la VERRERIE 3","coordinates":[7.774872,48.991027]},{"code":"B/F-3862","program":"wwbota","name":"FM20 - VOEGELSMATT 7","coordinates":[7.768016,48.99267]},{"code":"B/F-3863","program":"wwbota","name":"FM21 - VOEGELSMATT 11","coordinates":[7.764137,48.993193]},{"code":"B/F-3864","program":"wwbota","name":"FM22 - VOEGELSMATT 9","coordinates":[7.764504,48.990518]},{"code":"B/F-3865","program":"wwbota","name":"FM24 - VOEGELSMATT 6","coordinates":[7.765117,48.995268]},{"code":"B/F-3866","program":"wwbota","name":"FM25 - VOEGELSMATT 5","coordinates":[7.760595,48.994645]},{"code":"B/F-3867","program":"wwbota","name":"FM26 - VOEGELSMATT 4","coordinates":[7.759897,48.996254]},{"code":"B/F-3889","program":"wwbota","name":"FM50 - MATTSTALL Nord 1","coordinates":[7.757603,48.989705]},{"code":"B/F-3890","program":"wwbota","name":"FM50b - MATTSTALL Nord 2","coordinates":[7.755986,48.99073]},{"code":"B/F-3891","program":"wwbota","name":"FM51 - MATTSTALL Est","coordinates":[7.763263,48.988332]},{"code":"B/F-3892","program":"wwbota","name":"FM52 - VERLORENERBACH 3","coordinates":[7.779028,48.984713]},{"code":"B/F-3893","program":"wwbota","name":"FM53 - VOEGELSMATT 3","coordinates":[7.7571,48.997581]},{"code":"B/F-3894","program":"wwbota","name":"FM54 - SCHWARTZTHAL","coordinates":[7.792729,48.981087]},{"code":"B/F-3895","program":"wwbota","name":"FM56 - ZIEGELMATT Nord 2","coordinates":[7.812383,48.99666]},{"code":"B/F-3898","program":"wwbota","name":"FM65 - EICHHOLTZ 3","coordinates":[7.787367,48.993793]},{"code":"B/F-3899","program":"wwbota","name":"FM68 - VERRERIE 1","coordinates":[7.750511,48.995801]},{"code":"B/F-3909","program":"wwbota","name":"FOUR a CHAUX - FAC","coordinates":[7.796416,48.994967]},{"code":"B/F-3912","program":"wwbota","name":"GOERSDORF","coordinates":[7.768326,48.964778]},{"code":"B/F-3921","program":"wwbota","name":"HIRTENMATT 3","coordinates":[7.804524,48.995405]},{"code":"B/F-3923","program":"wwbota","name":"KUHBRUCK Est","coordinates":[7.763215,48.965466]},{"code":"B/F-3924","program":"wwbota","name":"KUHBRUCK Ouest","coordinates":[7.759773,48.966436]},{"code":"B/F-3927","program":"wwbota","name":"LEMBACH","coordinates":[7.7748,48.997286]},{"code":"B/F-3928","program":"wwbota","name":"LEMBACH","coordinates":[7.77023,48.99611]},{"code":"B/F-3931","program":"wwbota","name":"LIEBFRAUENTHAL","coordinates":[7.759758,48.958325]},{"code":"B/F-3932","program":"wwbota","name":"LIES 1","coordinates":[7.753327,48.967159]},{"code":"B/F-3933","program":"wwbota","name":"LIES 2","coordinates":[7.754325,48.96574]},{"code":"B/F-3934","program":"wwbota","name":"LIES 3","coordinates":[7.753809,48.964324]},{"code":"B/F-3935","program":"wwbota","name":"M - SCHMELZBACH 12","coordinates":[7.81306,48.997177]},{"code":"B/F-3936","program":"wwbota","name":"M - ZIEGELMATT Ouest","coordinates":[7.80334,48.991155]},{"code":"B/F-3937","program":"wwbota","name":"M3 - HELIENBRUCK 3","coordinates":[7.785271,48.991471]},{"code":"B/F-3938","program":"wwbota","name":"M4 - EICHHOLTZ 1","coordinates":[7.784227,48.993616]},{"code":"B/F-3939","program":"wwbota","name":"M7 - VOEGELSMATT 2","coordinates":[7.757354,48.996387]},{"code":"B/F-3952","program":"wwbota","name":"M31 - ROUTE de la VERRERIE 1","coordinates":[7.778515,48.991679]},{"code":"B/F-3957","program":"wwbota","name":"MARKBACH","coordinates":[7.761278,48.997864]},{"code":"B/F-3967","program":"wwbota","name":"SCHMELZBACH Ouest","coordinates":[7.806965,48.996631]},{"code":"B/F-3977","program":"wwbota","name":"VERLORENERBACH","coordinates":[7.77835,48.989747]},{"code":"B/F-3979","program":"wwbota","name":"VERRERIE","coordinates":[7.752084,48.996844]},{"code":"B/F-3980","program":"wwbota","name":"VOEGELSMATT 1","coordinates":[7.757116,48.995518]},{"code":"B/F-3990","program":"wwbota","name":"B20-A HINTERWALD Ouest","coordinates":[7.848421,48.998224]},{"code":"B/F-3991","program":"wwbota","name":"BIBLISHEIM 2","coordinates":[7.800909,48.902385]},{"code":"B/F-3992","program":"wwbota","name":"BIRLENBACH Sud 1","coordinates":[7.882332,48.97344]},{"code":"B/F-3993","program":"wwbota","name":"BIRLENBACH Sud 2","coordinates":[7.882723,48.973407]},{"code":"B/F-3995","program":"wwbota","name":"BREITENACKER Nord","coordinates":[7.905298,48.979169]},{"code":"B/F-3996","program":"wwbota","name":"BREITENACKER Sud","coordinates":[7.905976,48.978809]},{"code":"B/F-3997","program":"wwbota","name":"BREMMELBACH Nord - C6","coordinates":[7.892868,48.984221]},{"code":"B/F-3998","program":"wwbota","name":"BREMMELBACH Sud - C7","coordinates":[7.890304,48.982365]},{"code":"B/F-4003","program":"wwbota","name":"COL du WIEP 1","coordinates":[7.807568,48.976233]},{"code":"B/F-4004","program":"wwbota","name":"COL du WIEP 2","coordinates":[7.802349,48.974818]},{"code":"B/F-4005","program":"wwbota","name":"COL du WIEP  3","coordinates":[7.801898,48.973328]},{"code":"B/F-4006","program":"wwbota","name":"DRACHENBRONN","coordinates":[7.87359,48.989327]},{"code":"B/F-4007","program":"wwbota","name":"DRACHENBRONN 2","coordinates":[7.87595,48.984994]},{"code":"B/F-4008","program":"wwbota","name":"DRACHENBRONN Nord Ouest","coordinates":[7.882417,48.993047]},{"code":"B/F-4009","program":"wwbota","name":"DRACHENBRONN Sud","coordinates":[7.882125,48.992663]},{"code":"B/F-4010","program":"wwbota","name":"DRACHENBRONN Sud Est","coordinates":[7.882248,48.992669]},{"code":"B/F-4011","program":"wwbota","name":"FM6 - ZIEGELMATT","coordinates":[7.813849,48.991639]},{"code":"B/F-4012","program":"wwbota","name":"FM134 - SCHMELZBACH 10","coordinates":[7.815942,48.998532]},{"code":"B/F-4015","program":"wwbota","name":"GROS CHENE Est","coordinates":[7.771463,48.960594]},{"code":"B/F-4016","program":"wwbota","name":"GROS CHENE Ouest","coordinates":[7.768197,48.959833]},{"code":"B/F-4017","program":"wwbota","name":"GRUENDEL 1","coordinates":[7.761406,48.875719]},{"code":"B/F-4018","program":"wwbota","name":"GRUENDEL 2","coordinates":[7.761563,48.875414]},{"code":"B/F-4019","program":"wwbota","name":"GRUENDEL 3","coordinates":[7.763194,48.874546]},{"code":"B/F-4020","program":"wwbota","name":"GRUENDEL 4","coordinates":[7.763996,48.87452]},{"code":"B/F-4022","program":"wwbota","name":"HOCHWALD","coordinates":[7.858979,48.995913]},{"code":"B/F-4029","program":"wwbota","name":"HOCHWALD C7","coordinates":[7.865491,48.99973]},{"code":"B/F-4030","program":"wwbota","name":"HOCHWALD C8","coordinates":[7.867557,48.998455]},{"code":"B/F-4031","program":"wwbota","name":"HOCHWALD C9","coordinates":[7.869229,48.997377]},{"code":"B/F-4032","program":"wwbota","name":"HOCHWALD Ouest 3","coordinates":[7.842765,48.995359]},{"code":"B/F-4033","program":"wwbota","name":"HOCHWALD Ouest 4","coordinates":[7.845789,48.997179]},{"code":"B/F-4034","program":"wwbota","name":"HOCHWALD Ouest 6","coordinates":[7.846976,48.998109]},{"code":"B/F-4035","program":"wwbota","name":"HOCHWALD Ouest 6","coordinates":[7.841535,48.997864]},{"code":"B/F-4036","program":"wwbota","name":"HOCHWALD Ouest 7","coordinates":[7.847081,48.998295]},{"code":"B/F-4037","program":"wwbota","name":"HOCHWALD Ouest 7","coordinates":[7.843015,48.997807]},{"code":"B/F-4038","program":"wwbota","name":"INGOLSHEIM Est","coordinates":[7.931921,48.965461]},{"code":"B/F-4039","program":"wwbota","name":"INGOLSHEIM Ouest","coordinates":[7.930198,48.966395]},{"code":"B/F-4040","program":"wwbota","name":"KEFFENACH","coordinates":[7.892703,48.966835]},{"code":"B/F-4041","program":"wwbota","name":"KINZELBACH Est","coordinates":[7.888419,48.985038]},{"code":"B/F-4042","program":"wwbota","name":"KINZELBACH Ouest 1","coordinates":[7.883818,48.984142]},{"code":"B/F-4043","program":"wwbota","name":"KINZELBACH Ouest 2","coordinates":[7.883785,48.98396]},{"code":"B/F-4044","program":"wwbota","name":"M - SCHMELZBACH 11","coordinates":[7.813494,48.997779]},{"code":"B/F-4047","program":"wwbota","name":"OBERHOFFEN Est","coordinates":[7.875962,48.782536]},{"code":"B/F-4048","program":"wwbota","name":"OBERWALD 1","coordinates":[7.875124,48.992795]},{"code":"B/F-4049","program":"wwbota","name":"PFAFFENBRONN 1","coordinates":[7.824163,48.994453]},{"code":"B/F-4050","program":"wwbota","name":"PFAFFENBRONN 2","coordinates":[7.821166,48.990727]},{"code":"B/F-4051","program":"wwbota","name":"PFAFFENBRONN 3","coordinates":[7.827308,48.992128]},{"code":"B/F-4052","program":"wwbota","name":"PFAFFENBRONN 4","coordinates":[7.828004,48.992061]},{"code":"B/F-4053","program":"wwbota","name":"PFAFFENBRONN 5","coordinates":[7.827727,48.988344]},{"code":"B/F-4054","program":"wwbota","name":"PFAFFENBRONN 7","coordinates":[7.830584,48.994587]},{"code":"B/F-4055","program":"wwbota","name":"PFAFFENBRONN 8","coordinates":[7.831858,48.995729]},{"code":"B/F-4056","program":"wwbota","name":"PFAFFENBRONN 9","coordinates":[7.835225,48.996856]},{"code":"B/F-4057","program":"wwbota","name":"PFAFFENBRONN 11","coordinates":[7.838284,48.998314]},{"code":"B/F-4058","program":"wwbota","name":"PFAFFENBRONN 12","coordinates":[7.83102,48.996713]},{"code":"B/F-4059","program":"wwbota","name":"PFAFFENSCHLICK Nord","coordinates":[7.845641,48.992427]},{"code":"B/F-4060","program":"wwbota","name":"PFAFFENSCHLICK Sud","coordinates":[7.844766,48.991225]},{"code":"B/F-4061","program":"wwbota","name":"REDUIT du HOCHWALD","coordinates":[7.849045,48.991908]},{"code":"B/F-4062","program":"wwbota","name":"RIEDSELTZ Centre","coordinates":[7.954442,48.995274]},{"code":"B/F-4063","program":"wwbota","name":"RIEDSELTZ Nord","coordinates":[7.95546,48.998205]},{"code":"B/F-4064","program":"wwbota","name":"RIEDSELTZ OBERDORF","coordinates":[7.959679,48.995944]},{"code":"B/F-4065","program":"wwbota","name":"RIEDSELTZ Sud","coordinates":[7.955641,48.988593]},{"code":"B/F-4066","program":"wwbota","name":"RIEDSELTZ Sud-Ouest","coordinates":[7.949553,48.988623]},{"code":"B/F-4067","program":"wwbota","name":"RIEDSELTZ VOIE FERREE","coordinates":[7.963287,48.991295]},{"code":"B/F-4075","program":"wwbota","name":"RUTSCHENBERG","coordinates":[7.869321,48.94549]},{"code":"B/F-4078","program":"wwbota","name":"SCHMELZBACH 5","coordinates":[7.818042,48.998943]},{"code":"B/F-4079","program":"wwbota","name":"SCHMELZBACH 6","coordinates":[7.821804,48.998841]},{"code":"B/F-4080","program":"wwbota","name":"SCHMELZBACH 7","coordinates":[7.822869,48.998211]},{"code":"B/F-4081","program":"wwbota","name":"SCHMELZBACH 8","coordinates":[7.82424,48.997623]},{"code":"B/F-4082","program":"wwbota","name":"SCHMELZBACH 9","coordinates":[7.824309,48.99688]},{"code":"B/F-4083","program":"wwbota","name":"SCHMELZBACH Est","coordinates":[7.819904,48.998916]},{"code":"B/F-4084","program":"wwbota","name":"SCHOENENBOURG","coordinates":[7.923388,48.973158]},{"code":"B/F-4085","program":"wwbota","name":"SCHOENENBOURG","coordinates":[7.922673,48.952479]},{"code":"B/F-4086","program":"wwbota","name":"SOMMET du HOCHWALD 1","coordinates":[7.854354,48.998741]},{"code":"B/F-4087","program":"wwbota","name":"SOMMET du HOCHWALD 2","coordinates":[7.856932,48.999293]},{"code":"B/F-4088","program":"wwbota","name":"SOMMET du HOCHWALD 3","coordinates":[7.857389,48.998234]},{"code":"B/F-4089","program":"wwbota","name":"SOULTZERKOPF 1","coordinates":[7.82526,48.979123]},{"code":"B/F-4090","program":"wwbota","name":"SOULTZERKOPF 2","coordinates":[7.82208,48.980217]},{"code":"B/F-4091","program":"wwbota","name":"SOULTZERKOPF 3","coordinates":[7.82208,48.979263]},{"code":"B/F-4092","program":"wwbota","name":"SOULTZ Nord","coordinates":[7.873732,48.943342]},{"code":"B/F-4093","program":"wwbota","name":"STATION de SURBOURG 1","coordinates":[7.840124,48.901842]},{"code":"B/F-4094","program":"wwbota","name":"STATION de SURBOURG 2","coordinates":[7.840551,48.901366]},{"code":"B/F-4098","program":"wwbota","name":"VERDOT","coordinates":[7.858014,48.995551]},{"code":"B/F-4104","program":"wwbota","name":"ZIEGELPLAN","coordinates":[7.861875,48.948967]},{"code":"B/F-4105","program":"wwbota","name":"ASCHBACH Est - O2","coordinates":[7.974334,48.92945]},{"code":"B/F-4106","program":"wwbota","name":"ASCHBACH Ouest","coordinates":[7.972752,48.929206]},{"code":"B/F-4107","program":"wwbota","name":"BALZEN ACKER","coordinates":[7.966679,48.93501]},{"code":"B/F-4108","program":"wwbota","name":"BEIMERACKER","coordinates":[7.948317,48.949416]},{"code":"B/F-4109","program":"wwbota","name":"BETTELSTOCK","coordinates":[7.945491,48.950678]},{"code":"B/F-4110","program":"wwbota","name":"BOIS de HOFFEN 1","coordinates":[7.96335,48.938491]},{"code":"B/F-4111","program":"wwbota","name":"BOIS de HOFFEN 2","coordinates":[7.960688,48.935466]},{"code":"B/F-4112","program":"wwbota","name":"BOIS de HOFFEN 3","coordinates":[7.956855,48.938809]},{"code":"B/F-4113","program":"wwbota","name":"BOIS de HOFFEN 4","coordinates":[7.953985,48.93862]},{"code":"B/F-4114","program":"wwbota","name":"BOIS de HOFFEN Est - O3","coordinates":[7.963128,48.940662]},{"code":"B/F-4115","program":"wwbota","name":"BOIS de HOFFEN Ouest","coordinates":[7.960016,48.940482]},{"code":"B/F-4116","program":"wwbota","name":"BRETT Nord","coordinates":[7.951227,48.973518]},{"code":"B/F-4117","program":"wwbota","name":"BRETT Sud","coordinates":[7.951227,48.970068]},{"code":"B/F-4118","program":"wwbota","name":"BUCHHOLZBERG (I / 79° RIF)","coordinates":[7.937106,48.938501]},{"code":"B/F-4119","program":"wwbota","name":"BUCHHOLZERBERG Est","coordinates":[7.945386,48.941771]},{"code":"B/F-4120","program":"wwbota","name":"CAMP 1","coordinates":[7.957235,48.929372]},{"code":"B/F-4121","program":"wwbota","name":"CAMP 2","coordinates":[7.957585,48.928262]},{"code":"B/F-4122","program":"wwbota","name":"CAMP 3","coordinates":[7.957541,48.928092]},{"code":"B/F-4123","program":"wwbota","name":"CAMP 4","coordinates":[7.96205,48.926545]},{"code":"B/F-4124","program":"wwbota","name":"CAMP 5","coordinates":[7.961769,48.926371]},{"code":"B/F-4125","program":"wwbota","name":"CHATEAU d'EAU","coordinates":[7.97366,48.925006]},{"code":"B/F-4126","program":"wwbota","name":"EBENUNG","coordinates":[7.938871,48.959278]},{"code":"B/F-4127","program":"wwbota","name":"EICHELBERG Centre","coordinates":[7.966781,48.932408]},{"code":"B/F-4128","program":"wwbota","name":"EICHELBERG Nord","coordinates":[7.966574,48.933098]},{"code":"B/F-4129","program":"wwbota","name":"EICHELBERG Sud - RAVIN MICONNET","coordinates":[7.967278,48.931917]},{"code":"B/F-4130","program":"wwbota","name":"EICHMATT","coordinates":[7.922282,48.917324]},{"code":"B/F-4131","program":"wwbota","name":"FUSSPFADT","coordinates":[7.937191,48.901563]},{"code":"B/F-4132","program":"wwbota","name":"GROSSMATTEN","coordinates":[7.955517,48.918408]},{"code":"B/F-4133","program":"wwbota","name":"HANG HAAG","coordinates":[7.988517,48.908489]},{"code":"B/F-4134","program":"wwbota","name":"HECKENMUEHLE Centre","coordinates":[7.955194,48.940891]},{"code":"B/F-4135","program":"wwbota","name":"HECKENMUEHLE Est","coordinates":[7.956264,48.940617]},{"code":"B/F-4136","program":"wwbota","name":"HECKENMUEHLE Ouest","coordinates":[7.953576,48.941447]},{"code":"B/F-4137","program":"wwbota","name":"HERMERSWILLER Est","coordinates":[7.916054,48.937828]},{"code":"B/F-4138","program":"wwbota","name":"HERMERSWILLER Ouest","coordinates":[7.908148,48.937535]},{"code":"B/F-4139","program":"wwbota","name":"HOFFEN","coordinates":[7.951462,48.932293]},{"code":"B/F-4140","program":"wwbota","name":"HOFFEN","coordinates":[7.96431,48.937315]},{"code":"B/F-4141","program":"wwbota","name":"HOFFEN Nord-Ouest","coordinates":[7.937901,48.934616]},{"code":"B/F-4142","program":"wwbota","name":"HUNSPACH - O4","coordinates":[7.94022,48.959184]},{"code":"B/F-4143","program":"wwbota","name":"HUNSPACH 1","coordinates":[7.939733,48.957135]},{"code":"B/F-4144","program":"wwbota","name":"HUNSPACH 2","coordinates":[7.940289,48.956534]},{"code":"B/F-4145","program":"wwbota","name":"HUNSPACH MOULIN Est","coordinates":[7.951358,48.953944]},{"code":"B/F-4146","program":"wwbota","name":"HUNSPACH MOULIN Ouest","coordinates":[7.949654,48.954199]},{"code":"B/F-4147","program":"wwbota","name":"HUNSPACH STATION","coordinates":[7.943493,48.956045]},{"code":"B/F-4148","program":"wwbota","name":"HUNSPACH STATION 1","coordinates":[7.945402,48.956051]},{"code":"B/F-4149","program":"wwbota","name":"HUNSPACH STATION 2","coordinates":[7.946469,48.955091]},{"code":"B/F-4150","program":"wwbota","name":"HUNSPACH VILLAGE","coordinates":[7.937769,48.960522]},{"code":"B/F-4151","program":"wwbota","name":"KERNEIS","coordinates":[7.975219,48.92766]},{"code":"B/F-4152","program":"wwbota","name":"KIRCHGRUBE Nord","coordinates":[7.95094,48.952303]},{"code":"B/F-4153","program":"wwbota","name":"KIRCHGRUBE Sud","coordinates":[7.950444,48.951271]},{"code":"B/F-4154","program":"wwbota","name":"KOHLFELD","coordinates":[7.945224,48.94737]},{"code":"B/F-4155","program":"wwbota","name":"KUHLENDORF 4","coordinates":[7.925241,48.919884]},{"code":"B/F-4156","program":"wwbota","name":"LAURMATT","coordinates":[7.926227,48.913732]},{"code":"B/F-4161","program":"wwbota","name":"MOULIN de SCHWABWILLER 1","coordinates":[7.871843,48.892518]},{"code":"B/F-4162","program":"wwbota","name":"MOULIN de SCHWABWILLER 2","coordinates":[7.873773,48.891838]},{"code":"B/F-4163","program":"wwbota","name":"NEUFELD","coordinates":[7.959152,48.929982]},{"code":"B/F-4164","program":"wwbota","name":"OBERFELD","coordinates":[7.928369,48.957941]},{"code":"B/F-4165","program":"wwbota","name":"OBERROEDERN","coordinates":[7.977343,48.922609]},{"code":"B/F-4166","program":"wwbota","name":"OBERROEDERN Nord","coordinates":[7.977097,48.926769]},{"code":"B/F-4167","program":"wwbota","name":"OBERROEDERN Sud - RIEFFEL","coordinates":[7.981678,48.920382]},{"code":"B/F-4168","program":"wwbota","name":"OBERSEEBACH EST","coordinates":[7.991381,48.97606]},{"code":"B/F-4169","program":"wwbota","name":"OBERSEEBACH NORD","coordinates":[7.987031,48.979786]},{"code":"B/F-4170","program":"wwbota","name":"PLAN","coordinates":[7.897463,48.932159]},{"code":"B/F-4171","program":"wwbota","name":"REIMERSWILLER","coordinates":[7.888258,48.915851]},{"code":"B/F-4172","program":"wwbota","name":"RETENUE du HAUSAUERBACH","coordinates":[7.951507,48.942285]},{"code":"B/F-4173","program":"wwbota","name":"RUE du RUISSEAU","coordinates":[7.975839,48.904053]},{"code":"B/F-4174","program":"wwbota","name":"SELTZ - SELTZBACH","coordinates":[7.988645,48.911351]},{"code":"B/F-4175","program":"wwbota","name":"STEINMUEHLE 2","coordinates":[7.90023,48.89043]},{"code":"B/F-4176","program":"wwbota","name":"STEINMUEHLE 4","coordinates":[7.896462,48.891154]},{"code":"B/F-4177","program":"wwbota","name":"TRAMBACH","coordinates":[7.98831,48.907113]},{"code":"B/F-4178","program":"wwbota","name":"TRAMBACH 2","coordinates":[7.988337,48.905475]},{"code":"B/F-4182","program":"wwbota","name":"WASSERFURSCH","coordinates":[7.930542,48.903971]},{"code":"B/F-4183","program":"wwbota","name":"ZWERCHACKER","coordinates":[7.94554,48.965449]},{"code":"B/F-4184","program":"wwbota","name":"ALLEE du DEIESLACH 1","coordinates":[7.956513,48.853032]},{"code":"B/F-4185","program":"wwbota","name":"ALLEE du DEIESLACH 2","coordinates":[7.956617,48.853222]},{"code":"B/F-4186","program":"wwbota","name":"BOIS de RITTERSHOFFEN 1","coordinates":[7.995336,48.881504]},{"code":"B/F-4187","program":"wwbota","name":"BOIS de RITTERSHOFFEN 2","coordinates":[7.995428,48.881055]},{"code":"B/F-4198","program":"wwbota","name":"CARREFOUR PARADE 1","coordinates":[7.900801,48.873873]},{"code":"B/F-4199","program":"wwbota","name":"CARREFOUR PARADE 2","coordinates":[7.900847,48.873748]},{"code":"B/F-4200","program":"wwbota","name":"CARREFOUR PARADE 3","coordinates":[7.900116,48.873712]},{"code":"B/F-4201","program":"wwbota","name":"CARREFOUR PARADE 4","coordinates":[7.900446,48.873941]},{"code":"B/F-4202","program":"wwbota","name":"CARREFOUR PERREAUD 1","coordinates":[7.862486,48.844597]},{"code":"B/F-4203","program":"wwbota","name":"CARREFOUR PERREAUD 2","coordinates":[7.862772,48.844239]},{"code":"B/F-4204","program":"wwbota","name":"CHENAIE 1","coordinates":[7.935612,48.867612]},{"code":"B/F-4205","program":"wwbota","name":"CIMETIERE de SOUFFLENHEIM 2","coordinates":[7.972876,48.836026]},{"code":"B/F-4206","program":"wwbota","name":"CIMETIERE de SOUFFLENHEIM 3","coordinates":[7.968928,48.836832]},{"code":"B/F-4207","program":"wwbota","name":"DONAU","coordinates":[7.999089,48.84895]},{"code":"B/F-4210","program":"wwbota","name":"ERZLACH - (1/69° RAMF)","coordinates":[7.951505,48.836525]},{"code":"B/F-4211","program":"wwbota","name":"ESCH","coordinates":[7.990371,48.892953]},{"code":"B/F-4212","program":"wwbota","name":"ESCHENGRABEN 1","coordinates":[7.940699,48.88452]},{"code":"B/F-4213","program":"wwbota","name":"ESCHENGRABEN 2","coordinates":[7.940956,48.884392]},{"code":"B/F-4214","program":"wwbota","name":"ESCHENGRABEN 3","coordinates":[7.941142,48.884738]},{"code":"B/F-4217","program":"wwbota","name":"HACKMESSER","coordinates":[7.985519,48.897743]},{"code":"B/F-4218","program":"wwbota","name":"HATTEN (I / 23° RIF)","coordinates":[7.967781,48.899322]},{"code":"B/F-4219","program":"wwbota","name":"HATTENER STANGER Est 1","coordinates":[7.890831,48.839508]},{"code":"B/F-4220","program":"wwbota","name":"HATTENER STANGER Est 2","coordinates":[7.890733,48.838996]},{"code":"B/F-4221","program":"wwbota","name":"HATTENER STANGER Nord 1","coordinates":[7.878797,48.846287]},{"code":"B/F-4222","program":"wwbota","name":"HATTENER STANGER Nord 2","coordinates":[7.879034,48.84608]},{"code":"B/F-4223","program":"wwbota","name":"HATTEN Nord","coordinates":[7.989737,48.903813]},{"code":"B/F-4224","program":"wwbota","name":"HATTEN Sud","coordinates":[7.990573,48.902833]},{"code":"B/F-4227","program":"wwbota","name":"HEIDENBUCKEL","coordinates":[7.998356,48.837522]},{"code":"B/F-4229","program":"wwbota","name":"HUNDSAU","coordinates":[7.952554,48.822405]},{"code":"B/F-4231","program":"wwbota","name":"KLOSTERGRABEN 1","coordinates":[7.987346,48.850673]},{"code":"B/F-4232","program":"wwbota","name":"KLOSTERGRABEN 2","coordinates":[7.987602,48.85017]},{"code":"B/F-4233","program":"wwbota","name":"KLOSTERGRABEN 5","coordinates":[7.987212,48.849026]},{"code":"B/F-4234","program":"wwbota","name":"KOENIGSBRUCK","coordinates":[7.989455,48.862405]},{"code":"B/F-4240","program":"wwbota","name":"MAISON FORESTIERE de l'EBERBACH 1","coordinates":[7.913447,48.836638]},{"code":"B/F-4241","program":"wwbota","name":"MAISON FORESTIERE de RITTERSHOFFEN 1","coordinates":[7.95431,48.88945]},{"code":"B/F-4242","program":"wwbota","name":"MAISON FORESTIERE de RITTERSHOFFEN 2","coordinates":[7.956522,48.89155]},{"code":"B/F-4246","program":"wwbota","name":"MITTELWEG 1","coordinates":[7.992642,48.856801]},{"code":"B/F-4247","program":"wwbota","name":"MITTELWEG 2","coordinates":[7.99331,48.856728]},{"code":"B/F-4248","program":"wwbota","name":"NIEDERBETSCHDORF 3","coordinates":[7.92089,48.89234]},{"code":"B/F-4249","program":"wwbota","name":"NIEDERBETSCHDORF 4","coordinates":[7.92148,48.89275]},{"code":"B/F-4251","program":"wwbota","name":"NIEDERWALD 2","coordinates":[7.991918,48.823385]},{"code":"B/F-4252","program":"wwbota","name":"RENDEZ VOUS de CHASSE 1","coordinates":[7.932807,48.855434]},{"code":"B/F-4253","program":"wwbota","name":"RENDEZ VOUS de CHASSE 2","coordinates":[7.933015,48.854998]},{"code":"B/F-4255","program":"wwbota","name":"ROUTE  FORESTIERE de RITTERSHOFFEN","coordinates":[7.946301,48.885617]},{"code":"B/F-4256","program":"wwbota","name":"SANDMUEHLE Nord","coordinates":[7.918359,48.884388]},{"code":"B/F-4257","program":"wwbota","name":"SANDMUEHLE Sud","coordinates":[7.927599,48.877049]},{"code":"B/F-4258","program":"wwbota","name":"SAUER","coordinates":[7.980059,48.868392]},{"code":"B/F-4259","program":"wwbota","name":"SAUER 1","coordinates":[7.979708,48.867951]},{"code":"B/F-4260","program":"wwbota","name":"SCHONUNG 1","coordinates":[7.966333,48.873819]},{"code":"B/F-4261","program":"wwbota","name":"SCHONUNG 2","coordinates":[7.966361,48.873679]},{"code":"B/F-4276","program":"wwbota","name":"SOUFFLENHEIM (II / 23° RIF)","coordinates":[7.979406,48.837575]},{"code":"B/F-4277","program":"wwbota","name":"UNTER SCHUSTERPFAD","coordinates":[7.98624,48.899097]},{"code":"B/F-4285","program":"wwbota","name":"AM SOUFFLENHEIMER Nord","coordinates":[7.964459,48.789813]},{"code":"B/F-4286","program":"wwbota","name":"AM SOUFFLENHEIMER Sud","coordinates":[7.964119,48.788681]},{"code":"B/F-4294","program":"wwbota","name":"BERNHOHLKOEPFEL 1","coordinates":[7.966924,48.778666]},{"code":"B/F-4296","program":"wwbota","name":"CARREFOUR 121","coordinates":[7.954672,48.798006]},{"code":"B/F-4297","program":"wwbota","name":"DALHUNDEN Sud","coordinates":[7.989383,48.771836]},{"code":"B/F-4298","program":"wwbota","name":"DALHUNDEN Sud-Est","coordinates":[7.992908,48.772622]},{"code":"B/F-4299","program":"wwbota","name":"EICHELFELD 1","coordinates":[7.965792,48.778454]},{"code":"B/F-4300","program":"wwbota","name":"EICHELFELD 2","coordinates":[7.975629,48.78643]},{"code":"B/F-4301","program":"wwbota","name":"FINNHAAG 1","coordinates":[7.965337,48.797141]},{"code":"B/F-4302","program":"wwbota","name":"FINNHAAG 2","coordinates":[7.96576,48.795228]},{"code":"B/F-4303","program":"wwbota","name":"FORLENWALD 1","coordinates":[7.879493,48.796171]},{"code":"B/F-4304","program":"wwbota","name":"FORLENWALD 2","coordinates":[7.88195,48.795849]},{"code":"B/F-4308","program":"wwbota","name":"HEUFELD","coordinates":[7.96395,48.777303]},{"code":"B/F-4309","program":"wwbota","name":"HOLZMISS","coordinates":[7.890548,48.792559]},{"code":"B/F-4312","program":"wwbota","name":"MUEHLBACH 1","coordinates":[7.983897,48.76749]},{"code":"B/F-4313","program":"wwbota","name":"MUEHLBACH 2","coordinates":[7.986363,48.769212]},{"code":"B/F-4315","program":"wwbota","name":"OBERWALD Sud","coordinates":[7.994946,48.807921]},{"code":"B/F-4321","program":"wwbota","name":"RAMELSHAUSEN 1","coordinates":[7.960197,48.785016]},{"code":"B/F-4322","program":"wwbota","name":"RAMELSHAUSEN 2","coordinates":[7.956492,48.783917]},{"code":"B/F-4323","program":"wwbota","name":"RAMELSHAUSEN 3","coordinates":[7.956435,48.783551]},{"code":"B/F-4324","program":"wwbota","name":"RAMELSHAUSEN 4","coordinates":[7.952569,48.78211]},{"code":"B/F-4325","program":"wwbota","name":"RAMELSHAUSEN 5","coordinates":[7.951714,48.782222]},{"code":"B/F-4326","program":"wwbota","name":"RAMELSHAUSEN 6","coordinates":[7.951669,48.7818]},{"code":"B/F-4328","program":"wwbota","name":"RINKEL'S KUPP","coordinates":[7.998085,48.810821]},{"code":"B/F-4334","program":"wwbota","name":"ROUTE de DALHUNDEN","coordinates":[7.988458,48.781595]},{"code":"B/F-4335","program":"wwbota","name":"SCHIRRHEINERWEG Est","coordinates":[7.943856,48.813093]},{"code":"B/F-4336","program":"wwbota","name":"SCHIRRHEINERWEG Ouest","coordinates":[7.939285,48.811204]},{"code":"B/F-4337","program":"wwbota","name":"SCHIRRHOFFEN 1","coordinates":[7.931424,48.807144]},{"code":"B/F-4338","program":"wwbota","name":"STEINFELD","coordinates":[7.990586,48.778428]},{"code":"B/F-6490","program":"wwbota","name":"VV-FOUR a CHAUX - FAC","coordinates":[7.795654,48.993797]},{"code":"B/F-6493","program":"wwbota","name":"VV-SCHOENENBOURG","coordinates":[7.91331,48.965248]},{"code":"B/F-6494","program":"wwbota","name":"VV-Blocs du fort  Schoenenbourg","coordinates":[7.922669,48.971527]},{"code":"B/F-6495","program":"wwbota","name":"VV-REIMERSWILLER","coordinates":[7.888148,48.915029]}]}