{"lat":48.75,"lon":8,"programs":["pota","sota","wwbota"],"count":103,"references":[{"code":"FR-3163","program":"pota","name":"Vallee du Rhin de Lauterbourg a Strasbourg FR4211811 Natura 2000","coordinates":[8.01222,48.765]},{"code":"FR-3972","program":"pota","name":"Delta de la Sauer National Nature Reserve","coordinates":[8.13408,48.9081]},{"code":"FR-6160","program":"pota","name":"Vallee du Seltzbach et massif du Niederwald Biological Reserve","coordinates":[8.02768,48.9117]},{"code":"FR-6161","program":"pota","name":"Bois de l'Hopital a Kesseldorf Biological Reserve","coordinates":[8.06068,48.8883]},{"code":"FR-6163","program":"pota","name":"Cours du Kesselbach et zones humides de la sabliere de Quartz a Hatten Biological Reserve","coordinates":[8.03827,48.8806]},{"code":"FR-6164","program":"pota","name":"Zone humide du Rosstey s Seltz Biological Reserve","coordinates":[8.08286,48.8858]},{"code":"FR-6165","program":"pota","name":"Aulnaie De Fortsfeld Biological Reserve","coordinates":[8.04013,48.8728]},{"code":"FR-6166","program":"pota","name":"Aulnaie de Forstfeld 2 Biological Reserve","coordinates":[8.03725,48.8693]},{"code":"FR-6261","program":"pota","name":"Lauterbourg Biological Reserve","coordinates":[8.22014,48.9689]},{"code":"FR-6264","program":"pota","name":"Foret rhenane de Lauterbourg et cours de la Vieille Lauter Biological Reserve","coordinates":[8.21997,48.9691]},{"code":"FR-6266","program":"pota","name":"Forets et zones humides du Rueckenwald a Mothern et Lauterbourg Biological Reserve","coordinates":[8.16827,48.9519]},{"code":"FR-6267","program":"pota","name":"Delta de la Sauer a Munchhausen et Seltz Biological Reserve","coordinates":[8.13353,48.907]},{"code":"FR-6268","program":"pota","name":"Forets rhenanes de Beinheim et Seltz Biological Reserve","coordinates":[8.11288,48.87]},{"code":"FR-6269","program":"pota","name":"Heronniere De Beinheim - Ile Aux Héron Biological Reserve","coordinates":[8.11585,48.8665]},{"code":"FR-6271","program":"pota","name":"Roseliere De Roeschwoog-Roppenheim Biological Reserve","coordinates":[8.05443,48.8309]},{"code":"FR-6272","program":"pota","name":"Cours Inferieur De La Moder Biological Reserve","coordinates":[8.02571,48.791]},{"code":"FR-6589","program":"pota","name":"Carriere de Loess a Betschdorf Conservation Area","coordinates":[8.029,48.92]},{"code":"DE-1216","program":"pota","name":"Auenwälder und Feuchtwiesen westlich von Ötigheim Nature Reserve","coordinates":[8.22449,48.8818]},{"code":"DM/BW-861","program":"sota","name":"Fremersberg","coordinates":[8.202273,48.7526]},{"code":"B/DL-0063","program":"wwbota","name":"Westwallbunker Rastatt","coordinates":[8.194094,48.842322]},{"code":"B/F-4157","program":"wwbota","name":"MF8 - SCHLEITHAL Ouest (GRM)","coordinates":[8.029427,48.995333]},{"code":"B/F-4158","program":"wwbota","name":"MF9 - SCHLEITHAL Est (GRM)","coordinates":[8.047587,48.989934]},{"code":"B/F-4159","program":"wwbota","name":"MF10 - SALMBACH (GRM)","coordinates":[8.079152,48.979388]},{"code":"B/F-4160","program":"wwbota","name":"MF11 - NIEDERLAUTERBACH (GRM)","coordinates":[8.097113,48.973257]},{"code":"B/F-4179","program":"wwbota","name":"TRIMBACH Centre","coordinates":[8.020435,48.937315]},{"code":"B/F-4180","program":"wwbota","name":"TRIMBACH Est","coordinates":[8.024409,48.936979]},{"code":"B/F-4181","program":"wwbota","name":"TRIMBACH Ouest","coordinates":[8.018765,48.936655]},{"code":"B/F-4188","program":"wwbota","name":"BOIS de RITTERSHOFFEN 3","coordinates":[8.001892,48.874237]},{"code":"B/F-4189","program":"wwbota","name":"BOIS de RITTERSHOFFEN 4","coordinates":[8.002053,48.873958]},{"code":"B/F-4190","program":"wwbota","name":"BOIS de RITTERSHOFFEN 5","coordinates":[8.003107,48.868878]},{"code":"B/F-4191","program":"wwbota","name":"BOIS de RITTERSHOFFEN 6","coordinates":[8.004011,48.868282]},{"code":"B/F-4192","program":"wwbota","name":"BOIS de RITTERSHOFFEN a","coordinates":[8.002897,48.872599]},{"code":"B/F-4193","program":"wwbota","name":"BOIS de RITTERSHOFFEN b","coordinates":[8.003658,48.872334]},{"code":"B/F-4194","program":"wwbota","name":"BOIS de RITTERSHOFFEN c","coordinates":[8.004469,48.871857]},{"code":"B/F-4195","program":"wwbota","name":"BOIS de RITTERSHOFFEN d","coordinates":[8.004597,48.871686]},{"code":"B/F-4196","program":"wwbota","name":"BOIS de RITTERSHOFFEN e","coordinates":[8.002613,48.876088]},{"code":"B/F-4197","program":"wwbota","name":"BOIS de RITTERSHOFFEN f","coordinates":[8.002402,48.876133]},{"code":"B/F-4208","program":"wwbota","name":"DONAU Nord 1","coordinates":[8.00203,48.85025]},{"code":"B/F-4209","program":"wwbota","name":"DONAU Nord 2","coordinates":[8.001706,48.850338]},{"code":"B/F-4215","program":"wwbota","name":"GERITTMUEHLE 1","coordinates":[8.025296,48.905237]},{"code":"B/F-4216","program":"wwbota","name":"GERITTMUEHLE 2","coordinates":[8.024134,48.904743]},{"code":"B/F-4225","program":"wwbota","name":"HEIDENBERG 1","coordinates":[8.003704,48.843641]},{"code":"B/F-4226","program":"wwbota","name":"HEIDENBERG 2","coordinates":[8.003831,48.84349]},{"code":"B/F-4228","program":"wwbota","name":"HEIDENBUCKEL","coordinates":[8.00863,48.8356]},{"code":"B/F-4230","program":"wwbota","name":"KAUFFENHEIM","coordinates":[8.011869,48.856942]},{"code":"B/F-4235","program":"wwbota","name":"KOENIGSBRUCK Nord","coordinates":[8.012423,48.862994]},{"code":"B/F-4236","program":"wwbota","name":"KOENIGSBRUCK Sud","coordinates":[8.012952,48.861632]},{"code":"B/F-4237","program":"wwbota","name":"KUBELMUEHLE 1 (Avant poste)","coordinates":[8.033654,48.912782]},{"code":"B/F-4238","program":"wwbota","name":"KUBELMUEHLE 2 (Avant Poste)","coordinates":[8.034242,48.911973]},{"code":"B/F-4239","program":"wwbota","name":"LIELAECHEL","coordinates":[8.00751,48.824313]},{"code":"B/F-4243","program":"wwbota","name":"MF12 - SCHEIBENHARDT Ouest (GRM)","coordinates":[8.130019,48.980193]},{"code":"B/F-4244","program":"wwbota","name":"MF12bis - SCHEIBENHARDT Nord (GRM)","coordinates":[8.136224,48.979466]},{"code":"B/F-4245","program":"wwbota","name":"MF13 - LAUTERBOURG (GRM)","coordinates":[8.181827,48.976414]},{"code":"B/F-4250","program":"wwbota","name":"NIEDERROEDERN (Avant Poste)","coordinates":[8.048245,48.903094]},{"code":"B/F-4254","program":"wwbota","name":"ROUNTZENHEIM Nord","coordinates":[8.00984,48.827138]},{"code":"B/F-4262","program":"wwbota","name":"SELTZ 1 (Grand-Moulin)","coordinates":[8.092908,48.89938]},{"code":"B/F-4263","program":"wwbota","name":"SELTZ 2 (Schweingarten)","coordinates":[8.098824,48.899303]},{"code":"B/F-4264","program":"wwbota","name":"SELTZ 3 (Le Couvent)","coordinates":[8.100685,48.898618]},{"code":"B/F-4265","program":"wwbota","name":"SELTZ 4 (Sainte-Adélaïde)","coordinates":[8.105791,48.896202]},{"code":"B/F-4266","program":"wwbota","name":"SELTZ 5 (Avant Poste)","coordinates":[8.107491,48.895764]},{"code":"B/F-4267","program":"wwbota","name":"SELTZ 6 (Leon-Louis)","coordinates":[8.109197,48.895302]},{"code":"B/F-4268","program":"wwbota","name":"SELTZ 7 (Unterrheingasse)","coordinates":[8.109705,48.894272]},{"code":"B/F-4269","program":"wwbota","name":"SELTZ 8 (Pont de la Sauer)","coordinates":[8.109882,48.892182]},{"code":"B/F-4270","program":"wwbota","name":"SELTZBACH 1","coordinates":[8.003984,48.906602]},{"code":"B/F-4271","program":"wwbota","name":"SELTZBACH 2","coordinates":[8.008067,48.90636]},{"code":"B/F-4272","program":"wwbota","name":"SELTZBACH 3","coordinates":[8.016066,48.906105]},{"code":"B/F-4273","program":"wwbota","name":"SELTZBACH 5","coordinates":[8.037203,48.902859]},{"code":"B/F-4274","program":"wwbota","name":"SELTZBACH 6","coordinates":[8.07977,48.90367]},{"code":"B/F-4275","program":"wwbota","name":"SELTZBACH 7","coordinates":[8.086878,48.900075]},{"code":"B/F-4278","program":"wwbota","name":"VOIE-FERREE de ROPPENHEIM","coordinates":[8.048147,48.845652]},{"code":"B/F-4279","program":"wwbota","name":"2/2 - BEINHEIM Nord","coordinates":[8.106076,48.843088]},{"code":"B/F-4280","program":"wwbota","name":"2bis/2 - BEINHEIM Sud","coordinates":[8.105998,48.842855]},{"code":"B/F-4281","program":"wwbota","name":"3/2 - FORT LOUIS VILLAGE","coordinates":[8.046984,48.79682]},{"code":"B/F-4282","program":"wwbota","name":"9/3 - AUENHEIM Sud","coordinates":[8.020246,48.812963]},{"code":"B/F-4283","program":"wwbota","name":"10/3 - STATTMATTEN","coordinates":[8.007353,48.793653]},{"code":"B/F-4284","program":"wwbota","name":"31BC","coordinates":[8.129531,48.882431]},{"code":"B/F-4287","program":"wwbota","name":"AUENHEIM 1","coordinates":[8.017097,48.814985]},{"code":"B/F-4288","program":"wwbota","name":"AUENHEIM 2","coordinates":[8.016337,48.814853]},{"code":"B/F-4289","program":"wwbota","name":"AUENHEIM 4","coordinates":[8.010778,48.819649]},{"code":"B/F-4290","program":"wwbota","name":"AUENHEIM 5","coordinates":[8.014199,48.819295]},{"code":"B/F-4291","program":"wwbota","name":"AUENHEIM Nord","coordinates":[8.016861,48.817418]},{"code":"B/F-4292","program":"wwbota","name":"AUENHEIM PONT","coordinates":[8.010111,48.810529]},{"code":"B/F-4293","program":"wwbota","name":"BAHLIEN 2","coordinates":[8.01397,48.822392]},{"code":"B/F-4295","program":"wwbota","name":"BIERGRUND 2","coordinates":[8.022366,48.811389]},{"code":"B/F-4305","program":"wwbota","name":"FORT LOUIS Est","coordinates":[8.056839,48.790137]},{"code":"B/F-4306","program":"wwbota","name":"FORT LOUIS Ouest","coordinates":[8.04906,48.791765]},{"code":"B/F-4307","program":"wwbota","name":"GISSENHEIMER BANN","coordinates":[8.023941,48.808277]},{"code":"B/F-4310","program":"wwbota","name":"LIELAECHEL 2","coordinates":[8.0085,48.821869]},{"code":"B/F-4311","program":"wwbota","name":"MITTELGRUND","coordinates":[8.01008,48.800472]},{"code":"B/F-4314","program":"wwbota","name":"NEUHAEUSEL","coordinates":[8.101713,48.819959]},{"code":"B/F-4316","program":"wwbota","name":"OBERWOERTH","coordinates":[8.011791,48.780311]},{"code":"B/F-4317","program":"wwbota","name":"PONT-RAIL ROPPENHEIM Nord","coordinates":[8.109536,48.843853]},{"code":"B/F-4318","program":"wwbota","name":"PONT-RAIL ROPPENHEIM Sud","coordinates":[8.108522,48.841807]},{"code":"B/F-4319","program":"wwbota","name":"PONT de SELTZ","coordinates":[8.134314,48.889157]},{"code":"B/F-4320","program":"wwbota","name":"PORT de FORT-LOUIS","coordinates":[8.026449,48.788225]},{"code":"B/F-4327","program":"wwbota","name":"RHEINSTUECK","coordinates":[8.010856,48.800306]},{"code":"B/F-4329","program":"wwbota","name":"ROHRGIESSENLOCH 1","coordinates":[8.041026,48.794672]},{"code":"B/F-4330","program":"wwbota","name":"ROHRGIESSENLOCH 2","coordinates":[8.043018,48.794489]},{"code":"B/F-4331","program":"wwbota","name":"ROPPENHEIM PONT-RAIL 1","coordinates":[8.10971,48.848612]},{"code":"B/F-4332","program":"wwbota","name":"ROPPENHEIM PONT-RAIL 2","coordinates":[8.109653,48.848503]},{"code":"B/F-4333","program":"wwbota","name":"ROUNTZENHEIM Sud","coordinates":[8.009546,48.826712]},{"code":"B/F-4339","program":"wwbota","name":"SURYSCHER","coordinates":[8.017166,48.777138]},{"code":"B/F-4340","program":"wwbota","name":"SURYS GUT","coordinates":[8.006881,48.760847]}]}