{"lat":48.75,"lon":6.75,"programs":["pota","wwbota"],"count":60,"references":[{"code":"FR-3141","program":"pota","name":"Marais de Francaltroff Erstroff de Lening et d’Albe FR4110062 Natura 2000","coordinates":[6.78517,48.9712]},{"code":"FR-3144","program":"pota","name":"Complexe de l'etang de Lindre  foret de Romersberg et zones voisines Natura 2000","coordinates":[6.80361,48.7908]},{"code":"FR-3376","program":"pota","name":"Complexe de l etang de Lindre  foret de Romersberg et zones voisines FR4100219 Natura 2000","coordinates":[6.80361,48.7908]},{"code":"FR-3377","program":"pota","name":"Etang et foret de Mittersheim  cornee de Ketzing FR4100220 Natura 2000","coordinates":[6.92806,48.8336]},{"code":"FR-3392","program":"pota","name":"Vallees de la Sarre  de l Albe et de l Isch   marais de Francaltroff FR4100244 Natura 2000","coordinates":[6.88722,48.9719]},{"code":"FR-8389","program":"pota","name":"MARAIS PFAFFENMATT A FRANCALTROFF Biological Reserve","coordinates":[6.78515,48.9716]},{"code":"FR-8390","program":"pota","name":"MARAIS ET PRAIRIES HUMIDES A LENING Biological Reserve","coordinates":[6.80736,48.9676]},{"code":"FR-8392","program":"pota","name":"Prairies a Altwiller Biological Reserve","coordinates":[6.98493,48.9235]},{"code":"FR-8394","program":"pota","name":"MARAIS DE HONSKIRCH Biological Reserve","coordinates":[6.94985,48.9317]},{"code":"FR-8395","program":"pota","name":"PRAIRIES DE L'ALBE ET DE LA ZELLE ENTRE VAL-DE-GUEBLANGE, HELLIMER ET INSMING Biological Reserve","coordinates":[6.89695,48.9782]},{"code":"FR-8396","program":"pota","name":"MARAIS ET PRAIRIES DU VAL-DE-GUEBLANGE Biological Reserve","coordinates":[6.95489,48.9923]},{"code":"FR-13615","program":"pota","name":"ETANGS ET MILIEUX TOURBEUX DE LINDRE, DE ZOMMANGE ET DE LANSQUENET Biological Reserve","coordinates":[6.782,48.804]},{"code":"FR-13616","program":"pota","name":"PRAIRIES ET MARAIS DU BASSIN VERSANT DU LINDRE A ASSENONCOURT ET DESSELING Biological Reserve","coordinates":[6.791,48.757]},{"code":"FR-13617","program":"pota","name":"ETANG D'ARMESSOUS ET MARES TOURBEUSES A GUERMANGE Biological Reserve","coordinates":[6.812,48.786]},{"code":"FR-13618","program":"pota","name":"ETANG DE BISPING A BELLES-FORETS Biological Reserve","coordinates":[6.885,48.814]},{"code":"FR-13619","program":"pota","name":"PRAIRIES REMARQUABLES A BELLES-FORETS Biological Reserve","coordinates":[6.885,48.806]},{"code":"FR-13620","program":"pota","name":"HAUT ETANG, ETANG DE NOLWEIHER ET FORET DU JARDIN HOLZ A GUERMANGE Biological Reserve","coordinates":[6.848,48.796]},{"code":"FR-13621","program":"pota","name":"FORETS DOMANIALES DE FENETRANGE ET DE LANGUIMBERG Biological Reserve","coordinates":[6.884,48.842]},{"code":"FR-13622","program":"pota","name":"PETIT ETANG DU MOULIN DE LOUDREFING Biological Reserve","coordinates":[6.895,48.847]},{"code":"FR-13623","program":"pota","name":"GRAND ETANG DE MITTERSHEIM DIT LE LAC VERT Biological Reserve","coordinates":[6.933,48.848]},{"code":"FR-13628","program":"pota","name":"ETANG DU MOULIN A INSVILLER Biological Reserve","coordinates":[6.901,48.885]},{"code":"FR-13630","program":"pota","name":"ETANG ROUGE A INSVILLER Biological Reserve","coordinates":[6.914,48.9]},{"code":"FR-13631","program":"pota","name":"VALLEE DE LA ROSE DE VIBERSVILLER A INSVILLER Biological Reserve","coordinates":[6.908,48.902]},{"code":"FR-13633","program":"pota","name":"BOISEMENT A GROS BOIS ET AULNAIE DE MUNSTER Biological Reserve","coordinates":[6.869,48.903]},{"code":"B/F-2714","program":"wwbota","name":"CEZF-10 - LINSTROFF Sud","coordinates":[6.76091,48.961993]},{"code":"B/F-2715","program":"wwbota","name":"CEZF-12 - FRANCALTROFF Ouest","coordinates":[6.78171,48.956295]},{"code":"B/F-2716","program":"wwbota","name":"CEZF-13 - FRANCALTROFF Centre","coordinates":[6.788154,48.954943]},{"code":"B/F-2723","program":"wwbota","name":"CEZF-9 - LINSTROFF Centre","coordinates":[6.754566,48.966222]},{"code":"B/F-2795","program":"wwbota","name":"M114B - LANGBORN","coordinates":[6.761557,48.969503]},{"code":"B/F-2796","program":"wwbota","name":"M115B - DIGUE de la TENSCH","coordinates":[6.773901,48.960997]},{"code":"B/F-2797","program":"wwbota","name":"M116B - BEIMATT","coordinates":[6.780696,48.962148]},{"code":"B/F-2798","program":"wwbota","name":"M117B - KOEHL","coordinates":[6.790668,48.956049]},{"code":"B/F-2799","program":"wwbota","name":"M118B - ALBERG","coordinates":[6.796614,48.953662]},{"code":"B/F-3011","program":"wwbota","name":"CEZF-14 - FRANCALTROFF Est","coordinates":[6.795215,48.954141]},{"code":"B/F-3013","program":"wwbota","name":"CEZF-25 - KAPPELKINGER Est","coordinates":[6.921393,48.968578]},{"code":"B/F-3014","program":"wwbota","name":"CEZF-28 - AUDVILLER Ouest","coordinates":[6.950233,48.969988]},{"code":"B/F-3123","program":"wwbota","name":"HOFERBRÜCKE 1","coordinates":[6.984127,48.990663]},{"code":"B/F-3124","program":"wwbota","name":"HOFERBRÜCKE 2","coordinates":[6.987852,48.990336]},{"code":"B/F-3125","program":"wwbota","name":"HOFERBRÜCKE 3","coordinates":[6.978185,48.988877]},{"code":"B/F-3126","program":"wwbota","name":"HOFERBRÜCKE 4","coordinates":[6.986698,48.988244]},{"code":"B/F-3127","program":"wwbota","name":"HOFERBRÜCKE 5","coordinates":[6.986144,48.987211]},{"code":"B/F-3132","program":"wwbota","name":"HUHNACKER 2","coordinates":[6.970336,48.992779]},{"code":"B/F-3165","program":"wwbota","name":"M119B - LÉNING","coordinates":[6.809983,48.952141]},{"code":"B/F-3169","program":"wwbota","name":"M120B - BREITMATT","coordinates":[6.83831,48.953095]},{"code":"B/F-3170","program":"wwbota","name":"M121B - BREITMATT Ouest","coordinates":[6.862719,48.958642]},{"code":"B/F-3171","program":"wwbota","name":"M122 - INSMING","coordinates":[6.871471,48.95894]},{"code":"B/F-3172","program":"wwbota","name":"M123 - VILLACH","coordinates":[6.88085,48.960099]},{"code":"B/F-3173","program":"wwbota","name":"M124 - KLEINBACH","coordinates":[6.902666,48.971477]},{"code":"B/F-3174","program":"wwbota","name":"M125B - LUNDERSTATT","coordinates":[6.918587,48.97156]},{"code":"B/F-3175","program":"wwbota","name":"M126 - VAL de GUEBLANGE","coordinates":[6.963711,48.976992]},{"code":"B/F-3176","program":"wwbota","name":"M127 - SCHWEIX","coordinates":[6.971661,48.981339]},{"code":"B/F-3177","program":"wwbota","name":"M128 - MITTENWALD 3","coordinates":[6.986957,48.980624]},{"code":"B/F-3218","program":"wwbota","name":"MITTENWALD 1","coordinates":[6.986327,48.980571]},{"code":"B/F-3219","program":"wwbota","name":"MITTENWALD 2","coordinates":[6.986722,48.980701]},{"code":"B/F-3220","program":"wwbota","name":"MITTENWALD 4","coordinates":[6.989893,48.979135]},{"code":"B/F-3221","program":"wwbota","name":"MITTENWALD 5","coordinates":[6.990487,48.978511]},{"code":"B/F-3222","program":"wwbota","name":"MITTENWALD 6","coordinates":[6.99939,48.973165]},{"code":"B/F-3226","program":"wwbota","name":"NACHTWEID","coordinates":[6.846742,48.977547]},{"code":"B/F-3266","program":"wwbota","name":"RUISSEAU de la ROSE Ouest 1","coordinates":[6.998837,48.977002]},{"code":"B/F-3310","program":"wwbota","name":"STRICHMATT","coordinates":[6.979084,48.981157]}]}