{"lat":48.75,"lon":22.5,"programs":["sota"],"count":11,"references":[{"code":"UT/CA-167","program":"sota","name":"Малая Голица (Malaya Golitsa)","coordinates":[22.7156,48.8398]},{"code":"UT/CA-230","program":"sota","name":"Красивая (Krasivaya)","coordinates":[22.6709,48.9249]},{"code":"UT/CA-231","program":"sota","name":"Студница (Studnitsa)","coordinates":[22.7176,48.9537]},{"code":"UT/CA-243","program":"sota","name":"хр. Яворник (Range Yavornik)","coordinates":[22.5579,48.9034]},{"code":"UT/CA-251","program":"sota","name":"Рогатец (Rogatets)","coordinates":[22.6645,48.8727]},{"code":"UT/CA-253","program":"sota","name":"Голаня (Golanya)","coordinates":[22.5769,48.9811]},{"code":"UT/CA-281","program":"sota","name":"Барсук (Barsuk)","coordinates":[22.6573,48.9039]},{"code":"UT/CA-341","program":"sota","name":"Высота 734 (Height 734)","coordinates":[22.7073,48.7801]},{"code":"UT/CA-344","program":"sota","name":"Липище (Lipishe)","coordinates":[22.6089,48.8168]},{"code":"UT/CA-349","program":"sota","name":"Высота 605 (Height 605)","coordinates":[22.5596,48.8383]},{"code":"UT/CA-368","program":"sota","name":"Высота 481 (Height 481)","coordinates":[22.5218,48.8519]}]}