{"lat":49,"lon":-114.5,"programs":["sota"],"count":7,"references":[{"code":"VE6/BK-029","program":"sota","name":"Scarpe Mountain","coordinates":[-114.401985,49.21318]},{"code":"VE6/BK-040","program":"sota","name":"Lys Peak","coordinates":[-114.30858,49.24013]},{"code":"VE6/BK-043","program":"sota","name":"Three Lakes Ridge","coordinates":[-114.40124,49.242565]},{"code":"VE6/BK-047","program":"sota","name":"Rainy Ridge","coordinates":[-114.37982,49.247738]},{"code":"VE6/BK-052","program":"sota","name":"La Coulotte Peak","coordinates":[-114.31785,49.199764]},{"code":"VE6/BK-059","program":"sota","name":"Jutland Mountain","coordinates":[-114.27262,49.204334]},{"code":"VE6/BK-060","program":"sota","name":"Picard Peak","coordinates":[-114.2921,49.18625]}]}