{"lat":49,"lon":8.75,"programs":["gma","pota","sota"],"count":40,"references":[{"code":"DA/BW-073","program":"gma","name":"Steinsberg","coordinates":[8.87779999,49.21440125]},{"code":"DA/BW-083","program":"gma","name":"Horn","coordinates":[8.80809975,49.04499817]},{"code":"DA/BW-086","program":"gma","name":"Sandberg","coordinates":[8.85079956,49.04449844]},{"code":"DA/BW-143","program":"gma","name":"Schlierkopf","coordinates":[8.93280029,49.03250122]},{"code":"DA/BW-154","program":"gma","name":"Kreuzberg","coordinates":[8.81579971,49.17079926]},{"code":"DA/BW-284","program":"gma","name":"Kornberg","coordinates":[8.8125,49.21419907]},{"code":"DA/BW-285","program":"gma","name":"Bettelberg","coordinates":[8.79580021,49.20330048]},{"code":"DA/BW-372","program":"gma","name":"Hermannsberg","coordinates":[8.7894001,49.23830032]},{"code":"DA/BW-485","program":"gma","name":"Hühnerberg","coordinates":[8.97189999,49.23889923]},{"code":"DA/BW-491","program":"gma","name":"Waschloch","coordinates":[8.77530003,49.17860031]},{"code":"DA/BW-584","program":"gma","name":"Kupferhalden","coordinates":[8.82190037,49.04970169]},{"code":"DA/BW-585","program":"gma","name":"Humsterberg","coordinates":[8.82579994,49.08060074]},{"code":"DA/BW-586","program":"gma","name":"Altenberg","coordinates":[8.87559986,49.08420181]},{"code":"DA/BW-588","program":"gma","name":"Scheuelberg","coordinates":[8.82750034,49.02059937]},{"code":"DA/BW-589","program":"gma","name":"Gleichenberg","coordinates":[8.88749981,49.01110077]},{"code":"DA/BW-590","program":"gma","name":"Mettenberg","coordinates":[8.8781004,49.02030182]},{"code":"DA/BW-705","program":"gma","name":"Vogtberg","coordinates":[8.93416023,49.05195999]},{"code":"DA/BW-706","program":"gma","name":"Neuerberg","coordinates":[8.95096016,49.09880066]},{"code":"DA/BW-707","program":"gma","name":"Sazenberg","coordinates":[8.96133041,49.09431076]},{"code":"DA/BW-708","program":"gma","name":"Endberg","coordinates":[8.90044975,49.00775909]},{"code":"DA/BW-709","program":"gma","name":"Altkellerkopf","coordinates":[8.8599,49.0421]},{"code":"DA/BW-710","program":"gma","name":"Ravensburg","coordinates":[8.87609005,49.10079956]},{"code":"DA/BW-711","program":"gma","name":"R","coordinates":[8.91374969,49.10990143]},{"code":"DA/BW-712","program":"gma","name":"Schl","coordinates":[8.81439972,49.20476151]},{"code":"DA/BW-714","program":"gma","name":"Attenberg\t","coordinates":[8.87716007,49.08465958]},{"code":"DA/BW-738","program":"gma","name":"Ottilienberg","coordinates":[8.930908,49.115567]},{"code":"DA/BW-764","program":"gma","name":"Steinehau","coordinates":[8.99580002,49.03530121]},{"code":"DA/BW-785","program":"gma","name":"Eichelberg","coordinates":[8.82419968,49.19829941]},{"code":"DA/BW-825","program":"gma","name":"Heukopf","coordinates":[8.905024,49.03956]},{"code":"DA/BW-828","program":"gma","name":"Hamberg","coordinates":[8.9332,49.01188]},{"code":"DA/BW-830","program":"gma","name":"Kanzel","coordinates":[8.86889,49.03974]},{"code":"DA/BW-835","program":"gma","name":"Wachtkopf - Hohe Reute","coordinates":[8.94382,49.00118]},{"code":"DA/BW-876","program":"gma","name":"Leinberg","coordinates":[8.96121,49.10673]},{"code":"DA/BW-913","program":"gma","name":"Wintersberg","coordinates":[8.75306,49.05828]},{"code":"DA/BW-935","program":"gma","name":"Bannhalde","coordinates":[8.86406,49.04585]},{"code":"DA/BW-937","program":"gma","name":"Brand","coordinates":[8.95985,49.04045]},{"code":"DA/BW-954","program":"gma","name":"Am Galgen","coordinates":[8.99899,49.09765]},{"code":"DE-0013","program":"pota","name":"Stromberg-Heuchelberg Nature Park","coordinates":[8.93097,49.0368]},{"code":"DE-0672","program":"pota","name":"Schlosspark Angelbachtal National Historical Park","coordinates":[8.77598,49.233]},{"code":"DM/BW-212","program":"sota","name":"Baiselberg","coordinates":[8.9881,49.0039]}]}