{"lat":49,"lon":6.25,"programs":["pota","wwbota"],"count":50,"references":[{"code":"FR-3155","program":"pota","name":"Marais de Vittoncourt FR4112013 Natura 2000","coordinates":[6.46618,49.0265]},{"code":"FR-3156","program":"pota","name":"Marais d Ippling FR4112014 Natura 2000","coordinates":[6.46188,49.1143]},{"code":"FR-3272","program":"pota","name":"Marais de Vittoncourt FR4100214 Natura 2000","coordinates":[6.46611,49.0267]},{"code":"FR-3390","program":"pota","name":"Vallee de la Nied Reunie FR4100241 Natura 2000","coordinates":[6.4775,49.2267]},{"code":"FR-8346","program":"pota","name":"BOIS CAMA A MECLEUVES Biological Reserve","coordinates":[6.2888,49.0328]},{"code":"FR-8347","program":"pota","name":"MILIEUX OUVERTS AU LIEU-DIT LE FEUILLET A MECLEUVES Biological Reserve","coordinates":[6.29138,49.0583]},{"code":"FR-8349","program":"pota","name":"BOIS DE CHAMPION, BOIS DE BOUCHET ET BOIS SAINT-JEAN A ENNERY Biological Reserve","coordinates":[6.26226,49.2246]},{"code":"FR-8352","program":"pota","name":"MOLINION DE BETTELAINVILLE Biological Reserve","coordinates":[6.29361,49.2405]},{"code":"FR-8363","program":"pota","name":"RIED DE BOUZONVILLE A CONDE-NORTHEN Biological Reserve","coordinates":[6.4774,49.234]},{"code":"FR-8379","program":"pota","name":"FORET DE HEMILLY Biological Reserve","coordinates":[6.49151,49.036]},{"code":"FR-8791","program":"pota","name":"BOIS DE VIGY Biological Reserve","coordinates":[6.32771,49.2076]},{"code":"FR-8792","program":"pota","name":"FORET DE VILLERS-BEFEY A SAINT-HUBERT Biological Reserve","coordinates":[6.37306,49.2279]},{"code":"FR-8793","program":"pota","name":"TUNNEL FERROVIAIRE DESAFFECTE DE SAINT-HUBERT Biological Reserve","coordinates":[6.38539,49.241]},{"code":"B/F-2424","program":"wwbota","name":"Bb20 - HUNDERTACKER Ouest","coordinates":[6.494865,49.172277]},{"code":"B/F-2435","program":"wwbota","name":"Bb234 - DROGNY","coordinates":[6.420902,49.249072]},{"code":"B/F-2454","program":"wwbota","name":"Bb33b - JEANNE YVONNE","coordinates":[6.490179,49.223057]},{"code":"B/F-2456","program":"wwbota","name":"Bb34-D - MUHLENKLOPP 1","coordinates":[6.458884,49.213703]},{"code":"B/F-2457","program":"wwbota","name":"Bb34-Db - MUHLENKLOPP 2","coordinates":[6.458989,49.213489]},{"code":"B/F-2458","program":"wwbota","name":"Bb34-Dter - MUHLENKLOPP 3","coordinates":[6.45431,49.211078]},{"code":"B/F-2459","program":"wwbota","name":"Bb35","coordinates":[6.456251,49.244941]},{"code":"B/F-2461","program":"wwbota","name":"Bb36","coordinates":[6.472678,49.246679]},{"code":"B/F-2462","program":"wwbota","name":"Bb37","coordinates":[6.469706,49.247248]},{"code":"B/F-2463","program":"wwbota","name":"Bb4","coordinates":[6.456242,49.241589]},{"code":"B/F-2464","program":"wwbota","name":"Bb5","coordinates":[6.430548,49.249223]},{"code":"B/F-2467","program":"wwbota","name":"Bbo3","coordinates":[6.434281,49.221269]},{"code":"B/F-2468","program":"wwbota","name":"Bbo4","coordinates":[6.398559,49.235725]},{"code":"B/F-2470","program":"wwbota","name":"BELLENBERG","coordinates":[6.493812,49.223041]},{"code":"B/F-2490","program":"wwbota","name":"COLLINE ST-ETIENNE","coordinates":[6.489792,49.190373]},{"code":"B/F-2497","program":"wwbota","name":"EBLANGE","coordinates":[6.491897,49.223707]},{"code":"B/F-2503","program":"wwbota","name":"GALBERG Est","coordinates":[6.432289,49.235456]},{"code":"B/F-2504","program":"wwbota","name":"GALBERG Nord 1","coordinates":[6.428957,49.236526]},{"code":"B/F-2505","program":"wwbota","name":"GALBERG Nord 2","coordinates":[6.429787,49.236531]},{"code":"B/F-2506","program":"wwbota","name":"GALBERG Sud","coordinates":[6.431498,49.2349]},{"code":"B/F-2517","program":"wwbota","name":"HINTERHOLHECK","coordinates":[6.422626,49.248547]},{"code":"B/F-2518","program":"wwbota","name":"HINTERHOLHECK Sud","coordinates":[6.420071,49.246945]},{"code":"B/F-2522","program":"wwbota","name":"KAISERWALD","coordinates":[6.455962,49.244485]},{"code":"B/F-2523","program":"wwbota","name":"KAISERWALD","coordinates":[6.438147,49.245023]},{"code":"B/F-2524","program":"wwbota","name":"KAUDERHECK","coordinates":[6.40332,49.24029]},{"code":"B/F-2531","program":"wwbota","name":"La VIGNE","coordinates":[6.496158,49.188551]},{"code":"B/F-2541","program":"wwbota","name":"MOULIN de GRAVATTE","coordinates":[6.435637,49.229747]},{"code":"B/F-2546","program":"wwbota","name":"MOULIN-NEUF Ouest","coordinates":[6.476445,49.181969]},{"code":"B/F-2559","program":"wwbota","name":"SAINTE BARBE","coordinates":[6.47873,49.205861]},{"code":"B/F-2560","program":"wwbota","name":"SAINTE BARBE Nord","coordinates":[6.479455,49.207902]},{"code":"B/F-2571","program":"wwbota","name":"STEINKAUL Est","coordinates":[6.438177,49.221579]},{"code":"B/F-2572","program":"wwbota","name":"STEINKAUL Ouest","coordinates":[6.437581,49.221785]},{"code":"B/F-2573","program":"wwbota","name":"STEINRITZ Est - LEO","coordinates":[6.491573,49.217091]},{"code":"B/F-2574","program":"wwbota","name":"STEINRITZ Ouest - JANO","coordinates":[6.486376,49.216166]},{"code":"B/F-2575","program":"wwbota","name":"SUSERTEN","coordinates":[6.474299,49.231264]},{"code":"B/F-2578","program":"wwbota","name":"VEILLERBERG","coordinates":[6.406071,49.237977]},{"code":"B/F-6481","program":"wwbota","name":"VV-BOCKANGE - X31","coordinates":[6.435712,49.239106]}]}