{"lat":49,"lon":-119.5,"programs":["pota","sota","wwbota"],"count":12,"references":[{"code":"CA-1203","program":"pota","name":"Anarchist Protected Area","coordinates":[-119.416,49.0604]},{"code":"CA-3252","program":"pota","name":"Swiws (Haynes Point) Provincial Park","coordinates":[-119.451,49.0168]},{"code":"VE7/KB-074","program":"sota","name":"AC79","coordinates":[-119.29732,49.079803]},{"code":"VE7/OS-001","program":"sota","name":"Baldy Mtn","coordinates":[-119.2539,49.1661]},{"code":"VE7/OS-081","program":"sota","name":"Mount Underdown","coordinates":[-119.3536,49.2104]},{"code":"VE7/OS-098","program":"sota","name":"CE33","coordinates":[-119.4391,49.2304]},{"code":"VE7/OS-100","program":"sota","name":"Underdown W5","coordinates":[-119.4008,49.2223]},{"code":"VE7/OS-104","program":"sota","name":"AD74 (Anarchist N)","coordinates":[-119.3464,49.0718]},{"code":"VE7/OS-125","program":"sota","name":"Anarchist Mountain","coordinates":[-119.336,49.0385]},{"code":"VE7/OS-136","program":"sota","name":"AE93","coordinates":[-119.4306,49.0966]},{"code":"VE7/OS-168","program":"sota","name":"BE47","coordinates":[-119.4737,49.1452]},{"code":"B/CA-0342","program":"wwbota","name":"FRP AE42","coordinates":[-119.468163,49.03230403]}]}