{"lat":49,"lon":11.5,"programs":["gma","pota"],"count":9,"references":[{"code":"DA/BM-181","program":"gma","name":"Kreuzberg","coordinates":[11.58689976,49.04109955]},{"code":"DA/BM-182","program":"gma","name":"Vogtholz","coordinates":[11.57279968,49.02030182]},{"code":"DA/BM-235","program":"gma","name":"Schlossberg Ruine Velburg","coordinates":[11.67787,49.2344]},{"code":"DA/BM-245","program":"gma","name":"Schlossberg Ruine Helfenberg","coordinates":[11.64152,49.23954]},{"code":"DA/BM-320","program":"gma","name":"Haag","coordinates":[11.66329956,49.19139862]},{"code":"DA/BM-322","program":"gma","name":"Wolfsberg","coordinates":[11.60529995,49.02360153]},{"code":"DA/BM-511","program":"gma","name":"Limpelberg","coordinates":[11.72128,49.21299]},{"code":"DA/BM-531","program":"gma","name":"Mantelberg","coordinates":[11.71066,49.00959]},{"code":"DE-0927","program":"pota","name":"Jurasteig State Trail","coordinates":[11.7143,49.1655]}]}