{"lat":49,"lon":5.5,"programs":["pota","wwbota"],"count":30,"references":[{"code":"FR-11649","program":"pota","name":"ETANG DE HARAIGNE A DIEPPE-SOUS-DOUAUMONT Biological Reserve","coordinates":[5.503,49.222]},{"code":"FR-11656","program":"pota","name":"BOIS DE ROUVRES A ROUVRES-EN-WOEVRE Biological Reserve","coordinates":[5.714,49.249]},{"code":"FR-11740","program":"pota","name":"BOIS DE FRESNES A VILLE-EN-WOEVRE Biological Reserve","coordinates":[5.628,49.168]},{"code":"FR-11747","program":"pota","name":"GRAND ETANG DE DONCOURT-AUX-TEMPLIERS Biological Reserve","coordinates":[5.709,49.061]},{"code":"FR-13781","program":"pota","name":"FONDS DE BAUGNY, DE MUSSONVAUX ET RUISSEAU DE VAUX A VAUX-LES-PALAMEIX ET MARAIS DE TROYON Biological Reserve","coordinates":[5.522,49.006]},{"code":"FR-13782","program":"pota","name":"COTE DU FAYET A DOMMARTIN-LA-MONTAGNE Biological Reserve","coordinates":[5.608,49.026]},{"code":"FR-13783","program":"pota","name":"ETANGS ET RUISSEAU DU LONGEAU A DOMMARTIN-LA-MONTAGNE ET HANNONVILLE-SOUS-LES-COTES Biological Reserve","coordinates":[5.615,49.03]},{"code":"FR-13784","program":"pota","name":"ETANG DE TRESAUVAUX, CRETE ET VALLEE DES EPARGES Biological Reserve","coordinates":[5.603,49.043]},{"code":"FR-13785","program":"pota","name":"RUISSEAU DE SONVAUX AUX EPARGES Biological Reserve","coordinates":[5.593,49.042]},{"code":"FR-13786","program":"pota","name":"PELOUSES CALCAIRES A L'OUEST DE MESNIL-SOUS-LES-COTES Biological Reserve","coordinates":[5.572,49.077]},{"code":"FR-13787","program":"pota","name":"GERICOTE A BONZEE Biological Reserve","coordinates":[5.562,49.092]},{"code":"FR-13788","program":"pota","name":"FOND DE L'ETANG, FOND DE RAIVAU ET MARAIS DE RUPT-EN-WOEVRE Biological Reserve","coordinates":[5.54,49.077]},{"code":"FR-13795","program":"pota","name":"GITE A CHIROPTERES DE SOMMEDIEUE Biological Reserve","coordinates":[5.56,49.073]},{"code":"B/F-6940","program":"wwbota","name":"Hermeville Parapet","coordinates":[5.60918,49.165107]},{"code":"B/F-6941","program":"wwbota","name":"Hermeville Canon","coordinates":[5.616256,49.163278]},{"code":"B/F-6942","program":"wwbota","name":"Hermeville Abri 1","coordinates":[5.632966,49.166716]},{"code":"B/F-6943","program":"wwbota","name":"Hermeville Abri 2","coordinates":[5.635713,49.168743]},{"code":"B/F-6944","program":"wwbota","name":"Hermeville Abri 3","coordinates":[5.631398,49.170382]},{"code":"B/F-6945","program":"wwbota","name":"Hermeville Abri 4","coordinates":[5.631688,49.172299]},{"code":"B/F-6946","program":"wwbota","name":"Hermeville Abri 5","coordinates":[5.630365,49.173735]},{"code":"B/F-6947","program":"wwbota","name":"Hermeville Abri 6","coordinates":[5.633548,49.174787]},{"code":"B/F-6948","program":"wwbota","name":"Braquis 1","coordinates":[5.628308,49.145285]},{"code":"B/F-6949","program":"wwbota","name":"Braquis 2","coordinates":[5.627093,49.148619]},{"code":"B/F-6950","program":"wwbota","name":"FresneenWoevre","coordinates":[5.651904,49.095162]},{"code":"B/F-6951","program":"wwbota","name":"Trésauvaux","coordinates":[5.609727,49.079174]},{"code":"B/F-6952","program":"wwbota","name":"Les Eparges 1","coordinates":[5.615138,49.060715]},{"code":"B/F-6953","program":"wwbota","name":"Les Eparges 2","coordinates":[5.618055,49.063925]},{"code":"B/F-6954","program":"wwbota","name":"Kronprinz","coordinates":[5.616725,49.058144]},{"code":"B/F-6955","program":"wwbota","name":"Mouilly","coordinates":[5.535213,49.046606]},{"code":"B/F-7325","program":"wwbota","name":"Saint-Maurice","coordinates":[5.650871,49.178251]}]}