{"lat":49,"lon":1,"programs":["pota"],"count":21,"references":[{"code":"FR-4393","program":"pota","name":"La Vallee de l'Iton au lieu-dit Le Hom Natura 2000","coordinates":[1.11694,49.1258]},{"code":"FR-11886","program":"pota","name":"LA COTE DE BECDAL, LE FOND DU VALLON Biological Reserve","coordinates":[1.163,49.189]},{"code":"FR-11887","program":"pota","name":"LA VALLEE DE L'EURE D'ACQUIGNY A MENILLES, LA BASSE VALLEE DE L'ITON Biological Reserve","coordinates":[1.156,49.172]},{"code":"FR-11888","program":"pota","name":"LE GAMBOUT, LE ROQUET, LA GRANDE VALLEE ET LA VALLEE AUX NES, LA COTE DU ROULE, LA VALLEE Biological Reserve","coordinates":[1.084,49.136]},{"code":"FR-11889","program":"pota","name":"LE BOIS DES PLANCHES, LE HOM ET LA COTE DU HOM Biological Reserve","coordinates":[1.084,49.136]},{"code":"FR-11890","program":"pota","name":"LA COTE DES ANGLES Biological Reserve","coordinates":[1.133,49.103]},{"code":"FR-11891","program":"pota","name":"LES PRAIRIES DE LA CRESSIONNIERE Biological Reserve","coordinates":[1.107,49.102]},{"code":"FR-11892","program":"pota","name":"LES JARDINS Biological Reserve","coordinates":[1.102,49.095]},{"code":"FR-11893","program":"pota","name":"LES COTEAUX DES EVEAUX Biological Reserve","coordinates":[1.129,49.104]},{"code":"FR-11894","program":"pota","name":"LES VALLEES À TOURNEVILLE Biological Reserve","coordinates":[1.116,49.083]},{"code":"FR-11895","program":"pota","name":"LE COURS DE L'ITON DE NORMANVILLE AU MOULIN HEULIN Biological Reserve","coordinates":[1.141,49.086]},{"code":"FR-11896","program":"pota","name":"LES PELOUSES DU BUC ET DE LA VALLEE MASSON Biological Reserve","coordinates":[1.145,49.09]},{"code":"FR-11897","program":"pota","name":"LA PELOUSE ET LA PRAIRIE PRES DU RESERVOIR Biological Reserve","coordinates":[1.171,49.08]},{"code":"FR-11898","program":"pota","name":"LES PELOUSES ET LES BOISEMENTS DE LA VALLEE DU MESNIL Biological Reserve","coordinates":[1.192,49.068]},{"code":"FR-11899","program":"pota","name":"LE COTEAU DE LA VERDERIE Biological Reserve","coordinates":[1.149,49.064]},{"code":"FR-11900","program":"pota","name":"LA CARRIERE DU BOIS DES VIGNES Biological Reserve","coordinates":[1.19,49.036]},{"code":"FR-11901","program":"pota","name":"LE MARAIS DES PTIS Biological Reserve","coordinates":[1.18,49.19]},{"code":"FR-11902","program":"pota","name":"LES COTEAUX DE L'EURE, LE VAL BICOT Biological Reserve","coordinates":[1.195,49.178]},{"code":"FR-11903","program":"pota","name":"LA VALLEE DE L'EURE D'ACQUIGNY A CAILLY-SUR-EURE Biological Reserve","coordinates":[1.195,49.178]},{"code":"FR-11904","program":"pota","name":"LE BOIS DU FILS, LE BOIS HION Biological Reserve","coordinates":[1.212,49.106]},{"code":"FR-11905","program":"pota","name":"LA COTE BEAUME Biological Reserve","coordinates":[1.236,49.094]}]}