{"lat":49,"lon":17,"programs":["gma","sota"],"count":27,"references":[{"code":"OL/JM-178","program":"gma","name":"Babí­ lom <Babi lom>","coordinates":[17.05500031,49.01599884]},{"code":"OL/JM-205","program":"gma","name":"Bradlo","coordinates":[17.19599915,49.07799911]},{"code":"OL/JM-206","program":"gma","name":"Železňák <Zeleznak>","coordinates":[17.16581,49.08155]},{"code":"OL/JM-313","program":"gma","name":"Špidlák <Spidlak>","coordinates":[17.20282,49.08733]},{"code":"OL/JM-314","program":"gma","name":"Holý kopec <Holy kopec>","coordinates":[17.21133,49.07292]},{"code":"OL/JM-395","program":"gma","name":"Žešov <Zesov>","coordinates":[17.08053,49.23291]},{"code":"OL/JM-396","program":"gma","name":"Klí­n <Klin> ","coordinates":[17.1013,49.21688]},{"code":"OL/JM-397","program":"gma","name":"Lichov","coordinates":[17.13802,49.19387]},{"code":"OL/JM-398","program":"gma","name":"Jaslůvka <Jasluvka>","coordinates":[17.02804,49.19826]},{"code":"OL/JM-399","program":"gma","name":"Kraví­ hora <Kravi hora>","coordinates":[17.17428,49.14157]},{"code":"OL/JM-411","program":"gma","name":"Lysé hory <Lyse hory>","coordinates":[17.06416,49.02843]},{"code":"OL/JM-412","program":"gma","name":"U Rozhledny","coordinates":[17.09139,49.05941]},{"code":"OL/JM-413","program":"gma","name":"Hrádek <Hradek>","coordinates":[17.11205,49.07719]},{"code":"OL/JM-414","program":"gma","name":"Kalvice","coordinates":[17.09224,49.09071]},{"code":"OL/JM-415","program":"gma","name":"Červená hora <Cervena hora>","coordinates":[17.06076,49.08494]},{"code":"OL/JM-416","program":"gma","name":"Kozí­ hřbet <Kozi hrbet>","coordinates":[17.04153,49.07697]},{"code":"OL/JM-417","program":"gma","name":"Dubový vrch <Dubovy vrch>","coordinates":[17.00577,49.06326]},{"code":"OL/JM-418","program":"gma","name":"Radlovec","coordinates":[17.01601,49.09817]},{"code":"OL/JM-420","program":"gma","name":"Lenivá hora <Leniva hora>","coordinates":[17.13628,49.06559]},{"code":"OL/JM-421","program":"gma","name":"Malá Ostrá <Mala Ostra>","coordinates":[17.15016,49.07843]},{"code":"OL/JM-435","program":"gma","name":"Holý kopec <Holy kopec>","coordinates":[17.0294678,49.2250319]},{"code":"OL/ZL-065","program":"gma","name":"Ocásek <Ocasek>","coordinates":[17.23500061,49.09899902]},{"code":"OL/ZL-068","program":"gma","name":"Kleštěnec <Klestenec>","coordinates":[17.20899963,49.21699905]},{"code":"OL/ZL-103","program":"gma","name":"Hrad u Stří­lek <Hrad u Strilek>","coordinates":[17.22699928,49.13299942]},{"code":"OL/ZL-108","program":"gma","name":"Vršava <Vrsava>","coordinates":[17.19499969,49.10200119]},{"code":"OK/JM-016","program":"sota","name":"Hradisko","coordinates":[17.121,49.201]},{"code":"OK/JM-026","program":"sota","name":"U slepice","coordinates":[17.0491,49.1003]}]}