{"lat":49,"lon":13,"programs":["gma","sota"],"count":46,"references":[{"code":"DA/BM-020","program":"gma","name":"Kleiner Osser","coordinates":[13.10280037,49.20140076]},{"code":"DA/BM-021","program":"gma","name":"Oberer Kühberg","coordinates":[13.02670002,49.20029831]},{"code":"DA/BM-029","program":"gma","name":"Kühberg","coordinates":[13.02530003,49.1391983]},{"code":"DA/BM-030","program":"gma","name":"Mühlriegel","coordinates":[13.0152998,49.15670013]},{"code":"DA/BM-031","program":"gma","name":"Fahrenberg","coordinates":[13.03859997,49.22969818]},{"code":"DA/BM-032","program":"gma","name":"Enzian","coordinates":[13.08310032,49.12360001]},{"code":"DA/BM-033","program":"gma","name":"Silberberg (Bischofshaube)","coordinates":[13.12421,49.05715]},{"code":"DA/BM-034","program":"gma","name":"Brandtner Riegel","coordinates":[13.1347,49.05699]},{"code":"DA/BM-035","program":"gma","name":"Hochzellberg","coordinates":[13.13389969,49.07780075]},{"code":"DA/BM-036","program":"gma","name":"Hahnenriegel","coordinates":[13.16219997,49.06499863]},{"code":"DA/BM-037","program":"gma","name":"Rote Hoehe","coordinates":[13.1782999,49.05939865]},{"code":"DA/BM-038","program":"gma","name":"Wagnerspitze","coordinates":[13.14669991,49.13779831]},{"code":"DA/BM-039","program":"gma","name":"Hennenkobel","coordinates":[13.18169975,49.04499817]},{"code":"DA/BM-195","program":"gma","name":"Zwercheck","coordinates":[13.16559982,49.1733017]},{"code":"DA/BM-220","program":"gma","name":"Mittagsplatzl","coordinates":[13.143,49.094]},{"code":"DA/BM-274","program":"gma","name":"Schindelauberg","coordinates":[13.04307,49.23986]},{"code":"DA/BM-286","program":"gma","name":"Jägerhübel","coordinates":[13.11425,49.21592]},{"code":"DA/BM-303","program":"gma","name":"Kleiner Arber","coordinates":[13.11030006,49.11309814]},{"code":"DA/BM-305","program":"gma","name":"Sulzriegel","coordinates":[13.23939991,49.06940079]},{"code":"DA/BM-335","program":"gma","name":"Hindenburgfelsen","coordinates":[13.15970039,49.14110184]},{"code":"DA/BM-336","program":"gma","name":"Schwarzeck","coordinates":[13.06359959,49.14749908]},{"code":"DA/BM-422","program":"gma","name":"Harlachberger Spitz","coordinates":[13.08066,49.04941]},{"code":"DA/BM-423","program":"gma","name":"Strohmannhanslhoehe","coordinates":[13.09377,49.04609]},{"code":"DA/BM-424","program":"gma","name":"Oberberg","coordinates":[13.13375,49.01297]},{"code":"DA/BM-500","program":"gma","name":"Hochstein (Schareben)","coordinates":[13.06408,49.1238]},{"code":"DA/BM-501","program":"gma","name":"Heugstatt","coordinates":[13.06809,49.12919]},{"code":"DA/BM-502","program":"gma","name":"Plattenriegel (Schareben)","coordinates":[13.04828,49.13051]},{"code":"OL/PL-001","program":"gma","name":"Svaroh","coordinates":[13.16644955,49.17385101]},{"code":"OL/PL-003","program":"gma","name":"Ostrý (Velký Ostrý) <Ostry Velky Ostry>","coordinates":[13.11032009,49.2029686]},{"code":"OL/PL-009","program":"gma","name":"Špičák <Spicak>","coordinates":[13.20862865,49.17299652]},{"code":"OL/PL-012","program":"gma","name":"Malý Špičák (Rozvodí­) <Maly Spicak Rozvodi>","coordinates":[13.20009518,49.17523956]},{"code":"OL/PL-019","program":"gma","name":"Lovečná <Lovecna>","coordinates":[13.12049484,49.2191658]},{"code":"OL/PL-021","program":"gma","name":"Prenet (Velký Prenet) <Prenet>","coordinates":[13.21120358,49.23550415]},{"code":"OL/PL-024","program":"gma","name":"Lomničky <Lomnicky>","coordinates":[13.09291172,49.23361206]},{"code":"OL/PL-029","program":"gma","name":"Malý Prenet <Maly Prenet>","coordinates":[13.20127392,49.24261856]},{"code":"OL/PL-032","program":"gma","name":"Na Výšině <Na Vysine>","coordinates":[13.11994457,49.22786713]},{"code":"OL/PL-044","program":"gma","name":"Velký Kokrháč <Velky Kokrhac>","coordinates":[13.1447858,49.1865977]},{"code":"OL/PL-045","program":"gma","name":"Rýzmberk <Ryzmberk>","coordinates":[13.19648933,49.20800018]},{"code":"OL/PL-1029","program":"gma","name":"Můstek <Mustek>","coordinates":[13.2466519,49.202155]},{"code":"DM/BM-028","program":"sota","name":"Großer Osser","coordinates":[13.109763,49.20314]},{"code":"DM/BM-047","program":"sota","name":"Großer Arber","coordinates":[13.1358,49.1125]},{"code":"DM/BM-261","program":"sota","name":"Wolfgangriegel","coordinates":[13.0411,49.0703]},{"code":"DM/BM-263","program":"sota","name":"Kronberg","coordinates":[13.1053,49.0369]},{"code":"DM/BM-268","program":"sota","name":"Hochberg","coordinates":[13.2064,49.1078]},{"code":"OK/PL-003","program":"sota","name":"Jezerní hora","coordinates":[13.1847,49.1686]},{"code":"OK/PL-010","program":"sota","name":"Můstek","coordinates":[13.2465,49.2022]}]}