{"lat":49,"lon":7,"programs":["gma","pota","wwbota"],"count":331,"references":[{"code":"DA/SR-036","program":"gma","name":"Hardt","coordinates":[7.18219995,49.1568985]},{"code":"DA/SR-037","program":"gma","name":"Totenkopf","coordinates":[7.24139977,49.13059998]},{"code":"DA/SR-043","program":"gma","name":"Hannock","coordinates":[7.18809986,49.16669846]},{"code":"DA/SR-047","program":"gma","name":"Ransbacher Berg","coordinates":[7.08640003,49.17720032]},{"code":"DA/SR-050","program":"gma","name":"Auberg","coordinates":[7.06029987,49.16970062]},{"code":"DA/SR-072","program":"gma","name":"Schwarzenberg","coordinates":[7.04029989,49.24670029]},{"code":"DA/SR-082","program":"gma","name":"Heidenkopf","coordinates":[7.13322,49.17444]},{"code":"FR-3233","program":"pota","name":"Pelouses a Obergailbach FR4100168 Natura 2000","coordinates":[7.23278,49.1244]},{"code":"FR-3273","program":"pota","name":"Marais d Ippling FR4100215 Natura 2000","coordinates":[7.0075,49.0964]},{"code":"FR-6628","program":"pota","name":"PELOUSE DU GRUNDWIESE A OBERGAILBACH Biological Reserve","coordinates":[7.23224,49.1233]},{"code":"FR-6629","program":"pota","name":"RUISSEAUX GAILBACH ET HOFBRUNNEN A OBERGAILBACH Biological Reserve","coordinates":[7.22768,49.1163]},{"code":"FR-6632","program":"pota","name":"RUISSEAU DE WERSCHINGERTHAL A RIMLING Biological Reserve","coordinates":[7.2456,49.0818]},{"code":"FR-8415","program":"pota","name":"GITES A CHIROPTERES A SARREGUEMINES ET GROSBLIEDERSTROFF Biological Reserve","coordinates":[7.02722,49.1342]},{"code":"FR-8416","program":"pota","name":"MARAIS DE IPPLING Biological Reserve","coordinates":[7.00941,49.0976]},{"code":"FR-8417","program":"pota","name":"GITES A CHIROPTERES DE ZETTING ET WITTRING Biological Reserve","coordinates":[7.13479,49.0722]},{"code":"FR-8418","program":"pota","name":"FORET DOMANIALE DU BUCHHOLZ A SARREGUEMINES Biological Reserve","coordinates":[7.05691,49.0902]},{"code":"FR-13638","program":"pota","name":"Prairie inondables de la Sarre, Huellen a Herbitzheim Biological Reserve","coordinates":[7.064,49.009]},{"code":"FR-13640","program":"pota","name":"Zones humides et bassins du Hopbach a Herbitzheim Biological Reserve","coordinates":[7.053,49.016]},{"code":"FR-13641","program":"pota","name":"PRAIRIES A AZURES A WILLERWALD ET HAMBACH Biological Reserve","coordinates":[7.047,49.032]},{"code":"FR-13642","program":"pota","name":"Etang du Kissfeld a Herbitzheim Biological Reserve","coordinates":[7.08,49.043]},{"code":"FR-13643","program":"pota","name":"Bois du Wackenkopf a Siltzheim Biological Reserve","coordinates":[7.077,49.071]},{"code":"FR-13644","program":"pota","name":"Vergers et prairies du coteau In den Reben a Siltzheim Biological Reserve","coordinates":[7.095,49.076]},{"code":"FR-13645","program":"pota","name":"CANAL DES HOUILLERES DE LA SARRE ENTRE WITTRING ET ZETTING Biological Reserve","coordinates":[7.117,49.067]},{"code":"FR-13646","program":"pota","name":"FRICHE DU ROSSELBERG A ZETTING Biological Reserve","coordinates":[7.141,49.081]},{"code":"FR-13647","program":"pota","name":"PRAIRIES DE NEUFGRANGE Biological Reserve","coordinates":[7.062,49.08]},{"code":"DE-0693","program":"pota","name":"Biosphäre Bliesgau Biosphere Reserve","coordinates":[7.19818,49.2116]},{"code":"DE-0742","program":"pota","name":"Echelmeyer Park Recreation Park","coordinates":[7.00243,49.2389]},{"code":"DE-0919","program":"pota","name":"Woogbachtal Nature Reserve","coordinates":[7.10428,49.2426]},{"code":"B/DL-0062","program":"wwbota","name":"Bunker WH 316","coordinates":[7.032319,49.218739]},{"code":"B/DL-0064","program":"wwbota","name":"Zivilschutzanlage Hochstraße","coordinates":[7.034492,49.206931]},{"code":"B/DL-0202","program":"wwbota","name":"Schutzbunker am Staden Saarbrücken","coordinates":[7.010428,49.225728]},{"code":"B/DL-0206","program":"wwbota","name":"WH 640 in Heckendalheim","coordinates":[7.133994,49.231728]},{"code":"B/DL-0207","program":"wwbota","name":"WA642a in Heckendalheim","coordinates":[7.137269,49.233319]},{"code":"B/DL-0245","program":"wwbota","name":"WH 604","coordinates":[7.109353,49.229465]},{"code":"B/DL-0246","program":"wwbota","name":"WH 611","coordinates":[7.110887,49.229376]},{"code":"B/DL-0247","program":"wwbota","name":"WH 609","coordinates":[7.109674,49.228665]},{"code":"B/DL-0248","program":"wwbota","name":"WH 613","coordinates":[7.114681,49.230443]},{"code":"B/DL-0249","program":"wwbota","name":"WH 616","coordinates":[7.116598,49.23]},{"code":"B/DL-0250","program":"wwbota","name":"WH 617","coordinates":[7.117429,49.230431]},{"code":"B/DL-0251","program":"wwbota","name":"WH 618","coordinates":[7.118612,49.231429]},{"code":"B/DL-0252","program":"wwbota","name":"WH 619","coordinates":[7.119911,49.231559]},{"code":"B/DL-0253","program":"wwbota","name":"WH 620","coordinates":[7.120505,49.230834]},{"code":"B/DL-0254","program":"wwbota","name":"WH 634","coordinates":[7.127653,49.233552]},{"code":"B/DL-0255","program":"wwbota","name":"WH 635","coordinates":[7.128899,49.233513]},{"code":"B/DL-0256","program":"wwbota","name":"WH 638","coordinates":[7.131805,49.232104]},{"code":"B/DL-0267","program":"wwbota","name":"Westwallbunkeranlage bei Heckendalheim","coordinates":[7.152337,49.236613]},{"code":"B/DL-0268","program":"wwbota","name":"Westwallbunkeranlage beim Obertalerberg","coordinates":[7.164341,49.241953]},{"code":"B/DL-0269","program":"wwbota","name":"Westwallbunker Regelbau 108","coordinates":[7.181227,49.243047]},{"code":"B/DL-0270","program":"wwbota","name":"Westlwallbunker Regelbau 509","coordinates":[7.203097,49.236301]},{"code":"B/DL-0280","program":"wwbota","name":"Schutzbunker Blieskastel","coordinates":[7.246167,49.237933]},{"code":"B/DL-0298","program":"wwbota","name":"Zivilschutzbunker Saarbrücken 1","coordinates":[7.002962,49.235526]},{"code":"B/DL-0595","program":"wwbota","name":"Westwallbunker WH35","coordinates":[7.094892,49.23502]},{"code":"B/DL-0977","program":"wwbota","name":"Bunker am Hexentanzbach","coordinates":[7.04619,49.24286]},{"code":"B/F-2979","program":"wwbota","name":"ACHEN Nord","coordinates":[7.185092,49.046802]},{"code":"B/F-2980","program":"wwbota","name":"ACHEN Nord Est","coordinates":[7.195936,49.048599]},{"code":"B/F-2981","program":"wwbota","name":"ACHEN Nord Ouest","coordinates":[7.17696,49.048807]},{"code":"B/F-2982","program":"wwbota","name":"BARRAGE 1","coordinates":[7.091243,49.021198]},{"code":"B/F-2983","program":"wwbota","name":"BARRAGE 2","coordinates":[7.090476,49.021496]},{"code":"B/F-2984","program":"wwbota","name":"BARRAGE 3","coordinates":[7.090835,49.021678]},{"code":"B/F-2985","program":"wwbota","name":"BARRAGE 4","coordinates":[7.089861,49.022553]},{"code":"B/F-2986","program":"wwbota","name":"BARRAGE de WITTRING","coordinates":[7.15104,49.053326]},{"code":"B/F-2987","program":"wwbota","name":"BARRAGE de WITTRING Nord","coordinates":[7.150911,49.053634]},{"code":"B/F-2988","program":"wwbota","name":"BELLEVUE","coordinates":[7.169762,49.032742]},{"code":"B/F-2989","program":"wwbota","name":"BLIES GUERSVILLER (GRM)","coordinates":[7.081187,49.148847]},{"code":"B/F-2990","program":"wwbota","name":"BLIESBRUCK Centre","coordinates":[7.183299,49.117666]},{"code":"B/F-2991","program":"wwbota","name":"BLIESBRUCK Nord","coordinates":[7.184168,49.121359]},{"code":"B/F-2992","program":"wwbota","name":"BLIESBRUCK Pont","coordinates":[7.177831,49.115595]},{"code":"B/F-2995","program":"wwbota","name":"BUCHHOLZ","coordinates":[7.054935,49.098795]},{"code":"B/F-3017","program":"wwbota","name":"CITE SOLVAY 1","coordinates":[7.019148,49.009345]},{"code":"B/F-3018","program":"wwbota","name":"CITE SOLVAY 3","coordinates":[7.031765,49.008913]},{"code":"B/F-3019","program":"wwbota","name":"CITE SOLVAY 4","coordinates":[7.023193,49.00556]},{"code":"B/F-3020","program":"wwbota","name":"CITE SOLVAY 5","coordinates":[7.0251,49.0059]},{"code":"B/F-3021","program":"wwbota","name":"CITE SOLVAY 6","coordinates":[7.027237,49.005625]},{"code":"B/F-3022","program":"wwbota","name":"CITE SOLVAY 7","coordinates":[7.019752,49.003058]},{"code":"B/F-3026","program":"wwbota","name":"COTE 252 1","coordinates":[7.015302,49.005732]},{"code":"B/F-3027","program":"wwbota","name":"COTE 252 2","coordinates":[7.016514,49.005681]},{"code":"B/F-3028","program":"wwbota","name":"COTE 294","coordinates":[7.154434,49.05117]},{"code":"B/F-3029","program":"wwbota","name":"COTE 294bis","coordinates":[7.154414,49.051092]},{"code":"B/F-3031","program":"wwbota","name":"DERCHENBRONN","coordinates":[7.207877,49.026033]},{"code":"B/F-3032","program":"wwbota","name":"DIEDING 1  (Avant Poste)","coordinates":[7.129186,49.061803]},{"code":"B/F-3033","program":"wwbota","name":"DIEDING 2 (Avant Poste)","coordinates":[7.128643,49.061498]},{"code":"B/F-3042","program":"wwbota","name":"DIGUE de WILLERLACHGRABEN","coordinates":[7.040811,49.01332]},{"code":"B/F-3044","program":"wwbota","name":"EICHELFELD","coordinates":[7.121942,49.031976]},{"code":"B/F-3049","program":"wwbota","name":"ETTING Sud","coordinates":[7.188123,49.026203]},{"code":"B/F-3058","program":"wwbota","name":"FRAUENBERG (MF de)","coordinates":[7.128311,49.136857]},{"code":"B/F-3060","program":"wwbota","name":"FUERST 1","coordinates":[7.187727,49.045329]},{"code":"B/F-3061","program":"wwbota","name":"FUERST 10","coordinates":[7.200308,49.047744]},{"code":"B/F-3062","program":"wwbota","name":"FUERST 2","coordinates":[7.189066,49.045594]},{"code":"B/F-3063","program":"wwbota","name":"FUERST 3","coordinates":[7.190749,49.045468]},{"code":"B/F-3064","program":"wwbota","name":"FUERST 4","coordinates":[7.19223,49.047485]},{"code":"B/F-3065","program":"wwbota","name":"FUERST 5","coordinates":[7.192798,49.047633]},{"code":"B/F-3066","program":"wwbota","name":"FUERST 6","coordinates":[7.189635,49.044338]},{"code":"B/F-3067","program":"wwbota","name":"FUERST 7","coordinates":[7.198083,49.047916]},{"code":"B/F-3068","program":"wwbota","name":"FUERST 8","coordinates":[7.198958,49.047867]},{"code":"B/F-3069","program":"wwbota","name":"GALLENMUEHLE 1","coordinates":[7.160769,49.029663]},{"code":"B/F-3070","program":"wwbota","name":"GALLENMUEHLE 2","coordinates":[7.161124,49.029594]},{"code":"B/F-3071","program":"wwbota","name":"GALLENMUEHLE 3","coordinates":[7.162382,49.03145]},{"code":"B/F-3072","program":"wwbota","name":"GARE de KALHAUSEN 1","coordinates":[7.122931,49.034974]},{"code":"B/F-3073","program":"wwbota","name":"GARE de KALHAUSEN 2","coordinates":[7.125107,49.034397]},{"code":"B/F-3074","program":"wwbota","name":"GARE de KALHAUSEN 3","coordinates":[7.130072,49.034316]},{"code":"B/F-3075","program":"wwbota","name":"GRAND BOIS","coordinates":[7.157557,49.049236]},{"code":"B/F-3076","program":"wwbota","name":"GRAND BOIS 1","coordinates":[7.156443,49.042769]},{"code":"B/F-3077","program":"wwbota","name":"GRAND BOIS 3","coordinates":[7.155906,49.038515]},{"code":"B/F-3078","program":"wwbota","name":"GROSSWALD 1","coordinates":[7.139385,49.042044]},{"code":"B/F-3079","program":"wwbota","name":"GROSSWALD 2","coordinates":[7.14016,49.040252]},{"code":"B/F-3080","program":"wwbota","name":"GROSSWALD 3","coordinates":[7.138376,49.045258]},{"code":"B/F-3081","program":"wwbota","name":"GROSSWALD 4","coordinates":[7.143391,49.047859]},{"code":"B/F-3082","program":"wwbota","name":"GROSSWALD 5","coordinates":[7.143993,49.047383]},{"code":"B/F-3083","program":"wwbota","name":"GROSSWALD 6","coordinates":[7.145772,49.048482]},{"code":"B/F-3084","program":"wwbota","name":"GROSSWALD 7","coordinates":[7.146411,49.047054]},{"code":"B/F-3085","program":"wwbota","name":"GROSSWALD 8","coordinates":[7.13651,49.044069]},{"code":"B/F-3089","program":"wwbota","name":"GUNGLINGERWALD 4","coordinates":[7.031765,49.138328]},{"code":"B/F-3094","program":"wwbota","name":"HAUT POIRIER","coordinates":[7.167709,49.050641]},{"code":"B/F-3097","program":"wwbota","name":"HERBITZHEIM  1","coordinates":[7.077942,49.011643]},{"code":"B/F-3098","program":"wwbota","name":"HERBITZHEIM  1bis","coordinates":[7.077801,49.011631]},{"code":"B/F-3099","program":"wwbota","name":"HERBITZHEIM  2","coordinates":[7.0825,49.017408]},{"code":"B/F-3100","program":"wwbota","name":"HERBITZHEIM  3","coordinates":[7.086946,49.019827]},{"code":"B/F-3101","program":"wwbota","name":"HERBITZHEIM  4","coordinates":[7.09269,49.01931]},{"code":"B/F-3104","program":"wwbota","name":"HERBITZHEIM 27","coordinates":[7.062181,49.000355]},{"code":"B/F-3105","program":"wwbota","name":"HERBITZHEIM 28","coordinates":[7.065947,49.002015]},{"code":"B/F-3106","program":"wwbota","name":"HERBITZHEIM 29","coordinates":[7.067717,49.002256]},{"code":"B/F-3107","program":"wwbota","name":"HERBITZHEIM 31","coordinates":[7.092179,49.009934]},{"code":"B/F-3108","program":"wwbota","name":"HERBITZHEIM 5 - Ma","coordinates":[7.094279,49.023083]},{"code":"B/F-3109","program":"wwbota","name":"HERBITZHEIM 7","coordinates":[7.089619,49.017715]},{"code":"B/F-3110","program":"wwbota","name":"HERBITZHEIM 8","coordinates":[7.088207,49.018116]},{"code":"B/F-3111","program":"wwbota","name":"HERBITZHEIM Nord 2","coordinates":[7.096331,49.024734]},{"code":"B/F-3136","program":"wwbota","name":"KISSWALD 1 (Avant Poste)","coordinates":[7.085114,49.035324]},{"code":"B/F-3137","program":"wwbota","name":"KISSWALD 2 (Avant Poste)","coordinates":[7.084959,49.034797]},{"code":"B/F-3138","program":"wwbota","name":"KISSWALD 3","coordinates":[7.087908,49.03532]},{"code":"B/F-3139","program":"wwbota","name":"KLAGENBRONN","coordinates":[7.165767,49.02217]},{"code":"B/F-3142","program":"wwbota","name":"KNOPP 1","coordinates":[7.000612,49.000322]},{"code":"B/F-3143","program":"wwbota","name":"KNOPP 4","coordinates":[7.001092,49.00046]},{"code":"B/F-3144","program":"wwbota","name":"KNOPP 6","coordinates":[7.002242,49.000368]},{"code":"B/F-3145","program":"wwbota","name":"KRITSCHETTERBERG 1","coordinates":[7.156453,49.017773]},{"code":"B/F-3146","program":"wwbota","name":"L'ETANG","coordinates":[7.030012,49.014731]},{"code":"B/F-3155","program":"wwbota","name":"LEYER 1","coordinates":[7.180922,49.03648]},{"code":"B/F-3156","program":"wwbota","name":"LEYER 2","coordinates":[7.186619,49.038951]},{"code":"B/F-3157","program":"wwbota","name":"LEYER 3","coordinates":[7.189464,49.038358]},{"code":"B/F-3179","program":"wwbota","name":"M12B - KNOPP 3","coordinates":[7.002102,49.000458]},{"code":"B/F-3180","program":"wwbota","name":"M13B - KNOPP 2","coordinates":[7.001259,49.00052]},{"code":"B/F-3223","program":"wwbota","name":"MOHWIESE Nord","coordinates":[7.180198,49.045877]},{"code":"B/F-3224","program":"wwbota","name":"MOHWIESE Sud","coordinates":[7.180501,49.045122]},{"code":"B/F-3225","program":"wwbota","name":"MUEHLENFELD","coordinates":[7.144763,49.031152]},{"code":"B/F-3228","program":"wwbota","name":"PASSAGE à NIVEAU","coordinates":[7.135305,49.043685]},{"code":"B/F-3230","program":"wwbota","name":"PIFFERSRAEDCHEN 1","coordinates":[7.163976,49.044505]},{"code":"B/F-3231","program":"wwbota","name":"PIFFERSRAEDCHEN 2","coordinates":[7.166045,49.045122]},{"code":"B/F-3232","program":"wwbota","name":"PIFFERSRAEDCHEN 3","coordinates":[7.17176,49.045338]},{"code":"B/F-3233","program":"wwbota","name":"PIFFERSRAEDCHEN 4","coordinates":[7.175194,49.044539]},{"code":"B/F-3234","program":"wwbota","name":"PONT de HANWEIER (MF du )","coordinates":[7.069265,49.116482]},{"code":"B/F-3237","program":"wwbota","name":"PONT RAIL (MF du)","coordinates":[7.058423,49.111109]},{"code":"B/F-3247","program":"wwbota","name":"REBBERG Nord 1","coordinates":[7.197046,49.048068]},{"code":"B/F-3248","program":"wwbota","name":"REBBERG Sud 1","coordinates":[7.199473,49.045274]},{"code":"B/F-3249","program":"wwbota","name":"REBBERG Sud 2","coordinates":[7.197098,49.045531]},{"code":"B/F-3250","program":"wwbota","name":"REBBERG Sud 3","coordinates":[7.195597,49.045464]},{"code":"B/F-3260","program":"wwbota","name":"ROUHLING Est","coordinates":[7.004394,49.139514]},{"code":"B/F-3263","program":"wwbota","name":"RUISSEAU d'ACHEN 1","coordinates":[7.181549,49.041107]},{"code":"B/F-3264","program":"wwbota","name":"RUISSEAU d'ACHEN 5","coordinates":[7.192289,49.042212]},{"code":"B/F-3265","program":"wwbota","name":"RUISSEAU d'ACHEN 6","coordinates":[7.195976,49.041893]},{"code":"B/F-3268","program":"wwbota","name":"SALTZBRONN Est","coordinates":[7.048534,49.00121]},{"code":"B/F-3269","program":"wwbota","name":"SALTZBRONN Gare","coordinates":[7.036437,49.001089]},{"code":"B/F-3270","program":"wwbota","name":"SALWIESE 1","coordinates":[7.199934,49.040573]},{"code":"B/F-3271","program":"wwbota","name":"SALWIESE 2","coordinates":[7.199894,49.039402]},{"code":"B/F-3272","program":"wwbota","name":"SALWIESE 3","coordinates":[7.201509,49.039499]},{"code":"B/F-3273","program":"wwbota","name":"SALWIESE 4","coordinates":[7.198605,49.037764]},{"code":"B/F-3274","program":"wwbota","name":"SALWIESE 4bis","coordinates":[7.198937,49.037819]},{"code":"B/F-3275","program":"wwbota","name":"SALWIESE 5bis","coordinates":[7.201811,49.037351]},{"code":"B/F-3276","program":"wwbota","name":"SALWIESE 6","coordinates":[7.204406,49.038052]},{"code":"B/F-3277","program":"wwbota","name":"SALWIESE 7","coordinates":[7.205724,49.037343]},{"code":"B/F-3278","program":"wwbota","name":"SALWIESE 8","coordinates":[7.205669,49.035403]},{"code":"B/F-3285","program":"wwbota","name":"SARRALBE PONT-RAIL","coordinates":[7.035677,49.004081]},{"code":"B/F-3286","program":"wwbota","name":"SARRALBE VILLE 10","coordinates":[7.032489,49.001274]},{"code":"B/F-3287","program":"wwbota","name":"SARRALBE VILLE 12","coordinates":[7.025768,49.000039]},{"code":"B/F-3289","program":"wwbota","name":"SARRALBE VILLE 4","coordinates":[7.028247,49.001049]},{"code":"B/F-3290","program":"wwbota","name":"SARRALBE VILLE 5","coordinates":[7.029252,49.001651]},{"code":"B/F-3292","program":"wwbota","name":"SARRALBE VILLE 7","coordinates":[7.031037,49.0021]},{"code":"B/F-3295","program":"wwbota","name":"SARREGUEMINES 1","coordinates":[7.068501,49.114662]},{"code":"B/F-3296","program":"wwbota","name":"SCHERERSWIESE","coordinates":[7.206754,49.0204]},{"code":"B/F-3297","program":"wwbota","name":"SCHLOSSWALD 1","coordinates":[7.103993,49.028606]},{"code":"B/F-3298","program":"wwbota","name":"SCHLOSSWALD 2","coordinates":[7.103436,49.029588]},{"code":"B/F-3299","program":"wwbota","name":"SCHLOSSWALD 3","coordinates":[7.106242,49.029907]},{"code":"B/F-3300","program":"wwbota","name":"SCHLOSSWALD 4","coordinates":[7.111366,49.030613]},{"code":"B/F-3301","program":"wwbota","name":"SCHWANDELWALD 1","coordinates":[7.053592,49.00617]},{"code":"B/F-3302","program":"wwbota","name":"SCHWANDELWALD 5","coordinates":[7.05854,49.00691]},{"code":"B/F-3303","program":"wwbota","name":"SCHWANDELWALD Sud","coordinates":[7.056952,49.004599]},{"code":"B/F-3304","program":"wwbota","name":"SCHWEIZERFELD 1","coordinates":[7.153669,49.024251]},{"code":"B/F-3308","program":"wwbota","name":"STEINBRUEHL","coordinates":[7.101531,49.020478]},{"code":"B/F-3311","program":"wwbota","name":"TIEFGRABEN","coordinates":[7.147165,49.003922]},{"code":"B/F-3317","program":"wwbota","name":"TUNNEL","coordinates":[7.060356,49.110868]},{"code":"B/F-3318","program":"wwbota","name":"VAL d'ACHEN 1","coordinates":[7.168979,49.03805]},{"code":"B/F-3319","program":"wwbota","name":"VAL d'ACHEN 2","coordinates":[7.16952,49.038766]},{"code":"B/F-3322","program":"wwbota","name":"WEIDESHEIM 1","coordinates":[7.128154,49.039279]},{"code":"B/F-3323","program":"wwbota","name":"WEIDESHEIM 2","coordinates":[7.131677,49.039867]},{"code":"B/F-3324","program":"wwbota","name":"WEIDESHEIM 3","coordinates":[7.135044,49.038493]},{"code":"B/F-3325","program":"wwbota","name":"WEIDESHEIM 4","coordinates":[7.132647,49.038675]},{"code":"B/F-3326","program":"wwbota","name":"WEIDESHEIM 5","coordinates":[7.132668,49.036863]},{"code":"B/F-3327","program":"wwbota","name":"WEIDESHEIM 6","coordinates":[7.133231,49.035924]},{"code":"B/F-3328","program":"wwbota","name":"WELFERDING 1","coordinates":[7.047054,49.112751]},{"code":"B/F-3329","program":"wwbota","name":"WELFERDING 2","coordinates":[7.048679,49.113398]},{"code":"B/F-3330","program":"wwbota","name":"WELSCHMUEHLE 1","coordinates":[7.154075,49.028266]},{"code":"B/F-3331","program":"wwbota","name":"WELSCHMUEHLE 2","coordinates":[7.149587,49.028727]},{"code":"B/F-3332","program":"wwbota","name":"WIESVILLER Centre (Avant Poste)","coordinates":[7.171774,49.068542]},{"code":"B/F-3333","program":"wwbota","name":"WIESVILLER Est (Avant Poste)","coordinates":[7.172819,49.068639]},{"code":"B/F-3334","program":"wwbota","name":"WIESVILLER Ouest (Avant Poste)","coordinates":[7.170481,49.068315]},{"code":"B/F-3335","program":"wwbota","name":"WILLERWALD 1 (Avant Poste)","coordinates":[7.0338,49.030749]},{"code":"B/F-3336","program":"wwbota","name":"WILLERWALD 2 (Avant Poste)","coordinates":[7.034199,49.030765]},{"code":"B/F-3337","program":"wwbota","name":"WILLERWALD 3 (Avant Poste)","coordinates":[7.034374,49.030728]},{"code":"B/F-3338","program":"wwbota","name":"WITTRING","coordinates":[7.149247,49.048804]},{"code":"B/F-3341","program":"wwbota","name":"ACHENER WEG 2","coordinates":[7.217323,49.044754]},{"code":"B/F-3342","program":"wwbota","name":"ACHENER WEG 3","coordinates":[7.221564,49.044395]},{"code":"B/F-3343","program":"wwbota","name":"ACHENER WEG 4","coordinates":[7.222477,49.04307]},{"code":"B/F-3344","program":"wwbota","name":"ACHENER WEG 8","coordinates":[7.226598,49.040758]},{"code":"B/F-3349","program":"wwbota","name":"BERSTERCH Est","coordinates":[7.242919,49.048985]},{"code":"B/F-3350","program":"wwbota","name":"BERSTERCH Ouest","coordinates":[7.242104,49.049097]},{"code":"B/F-3351","program":"wwbota","name":"BINING","coordinates":[7.244936,49.054745]},{"code":"B/F-3352","program":"wwbota","name":"BININGERWIESE 1","coordinates":[7.24294,49.053907]},{"code":"B/F-3353","program":"wwbota","name":"BININGERWIESE 2","coordinates":[7.241994,49.053894]},{"code":"B/F-3354","program":"wwbota","name":"BININGERWIESE 3","coordinates":[7.241667,49.053714]},{"code":"B/F-3355","program":"wwbota","name":"BININGERWIESE 4","coordinates":[7.240154,49.053054]},{"code":"B/F-3356","program":"wwbota","name":"BININGERWIESE 6","coordinates":[7.238398,49.053007]},{"code":"B/F-3361","program":"wwbota","name":"BOMBACH 1","coordinates":[7.23013,49.040909]},{"code":"B/F-3362","program":"wwbota","name":"BOMBACH 2","coordinates":[7.230403,49.042203]},{"code":"B/F-3363","program":"wwbota","name":"BOMBACH 3","coordinates":[7.232448,49.042732]},{"code":"B/F-3364","program":"wwbota","name":"BOMBACH 4","coordinates":[7.232756,49.042071]},{"code":"B/F-3365","program":"wwbota","name":"BOMBACHERHOF","coordinates":[7.237649,49.044494]},{"code":"B/F-3366","program":"wwbota","name":"BOMBACHERHOF 1","coordinates":[7.233967,49.04536]},{"code":"B/F-3367","program":"wwbota","name":"BOMBACHERHOF 3","coordinates":[7.235376,49.044406]},{"code":"B/F-3368","program":"wwbota","name":"BOMBACHERHOF 4","coordinates":[7.236981,49.045054]},{"code":"B/F-3373","program":"wwbota","name":"DELLWIESE Est","coordinates":[7.215443,49.036454]},{"code":"B/F-3374","program":"wwbota","name":"DELLWIESE Ouest","coordinates":[7.211744,49.03604]},{"code":"B/F-3387","program":"wwbota","name":"ESCHER Centre","coordinates":[7.236382,49.030919]},{"code":"B/F-3388","program":"wwbota","name":"ESCHER Est","coordinates":[7.239064,49.031944]},{"code":"B/F-3389","program":"wwbota","name":"ESCHER Ouest","coordinates":[7.234522,49.030884]},{"code":"B/F-3390","program":"wwbota","name":"FATTER BRUNEN","coordinates":[7.245085,49.053571]},{"code":"B/F-3391","program":"wwbota","name":"FERME WELSCHHOF Est","coordinates":[7.225231,49.055255]},{"code":"B/F-3392","program":"wwbota","name":"FIRST 1","coordinates":[7.215894,49.055476]},{"code":"B/F-3393","program":"wwbota","name":"FIRST 2","coordinates":[7.218621,49.05597]},{"code":"B/F-3394","program":"wwbota","name":"FIRST 3","coordinates":[7.219032,49.055903]},{"code":"B/F-3395","program":"wwbota","name":"FIRST 4","coordinates":[7.21926,49.056086]},{"code":"B/F-3396","program":"wwbota","name":"FIRST 6","coordinates":[7.220272,49.056212]},{"code":"B/F-3397","program":"wwbota","name":"FRELINSBERG","coordinates":[7.213157,49.024649]},{"code":"B/F-3398","program":"wwbota","name":"GAIKLINGEN Est","coordinates":[7.222008,49.038646]},{"code":"B/F-3399","program":"wwbota","name":"GAIKLINGEN Ouest","coordinates":[7.221133,49.038771]},{"code":"B/F-3400","program":"wwbota","name":"GARTEN 1","coordinates":[7.20701,49.051374]},{"code":"B/F-3401","program":"wwbota","name":"GARTEN 2","coordinates":[7.208236,49.051873]},{"code":"B/F-3402","program":"wwbota","name":"GARTEN 4","coordinates":[7.208053,49.052165]},{"code":"B/F-3403","program":"wwbota","name":"GARTEN 5","coordinates":[7.20931,49.052655]},{"code":"B/F-3404","program":"wwbota","name":"GARTEN 6","coordinates":[7.210321,49.05327]},{"code":"B/F-3406","program":"wwbota","name":"GROS REDERCHING Centre (Avant Poste)","coordinates":[7.217077,49.071057]},{"code":"B/F-3407","program":"wwbota","name":"GROS REDERCHING Est 1","coordinates":[7.218431,49.072153]},{"code":"B/F-3408","program":"wwbota","name":"GROS REDERCHING Est 2","coordinates":[7.21893,49.071853]},{"code":"B/F-3409","program":"wwbota","name":"GROS REDERCHING Ouest (Avant Poste)","coordinates":[7.214861,49.070619]},{"code":"B/F-3410","program":"wwbota","name":"GROS REDERCHING Sud (Avant Poste)","coordinates":[7.212775,49.063457]},{"code":"B/F-3412","program":"wwbota","name":"GUCKENBERG 1","coordinates":[7.247907,49.048918]},{"code":"B/F-3413","program":"wwbota","name":"GUCKENBERG 3","coordinates":[7.249091,49.049205]},{"code":"B/F-3425","program":"wwbota","name":"HAMBESCH 1","coordinates":[7.246659,49.038941]},{"code":"B/F-3426","program":"wwbota","name":"HAMBESCH 2","coordinates":[7.249112,49.03906]},{"code":"B/F-3433","program":"wwbota","name":"HILLEN Est","coordinates":[7.243423,49.029087]},{"code":"B/F-3434","program":"wwbota","name":"HILLEN Nord","coordinates":[7.242705,49.029608]},{"code":"B/F-3435","program":"wwbota","name":"HILLEN Ouest","coordinates":[7.241067,49.029558]},{"code":"B/F-3436","program":"wwbota","name":"HILLEN Sud 3","coordinates":[7.237749,49.026751]},{"code":"B/F-3437","program":"wwbota","name":"HUNSTWIESE","coordinates":[7.242079,49.044846]},{"code":"B/F-3441","program":"wwbota","name":"KALKOFEN  1","coordinates":[7.237387,49.052974]},{"code":"B/F-3442","program":"wwbota","name":"KALKOFEN 2","coordinates":[7.236629,49.053019]},{"code":"B/F-3443","program":"wwbota","name":"KALKOFEN 3","coordinates":[7.234973,49.052718]},{"code":"B/F-3444","program":"wwbota","name":"KALKOFEN 4","coordinates":[7.23032,49.05371]},{"code":"B/F-3445","program":"wwbota","name":"KALKOFEN 5","coordinates":[7.232617,49.055354]},{"code":"B/F-3446","program":"wwbota","name":"KALKOFEN 6","coordinates":[7.23019,49.056315]},{"code":"B/F-3447","program":"wwbota","name":"KALKOFEN 7","coordinates":[7.230692,49.056976]},{"code":"B/F-3448","program":"wwbota","name":"KALKOFEN 8","coordinates":[7.230216,49.056881]},{"code":"B/F-3449","program":"wwbota","name":"KALKOFEN 9","coordinates":[7.229779,49.057115]},{"code":"B/F-3450","program":"wwbota","name":"KALKOFEN 11","coordinates":[7.229283,49.057164]},{"code":"B/F-3452","program":"wwbota","name":"KLEINGEWAEND 1","coordinates":[7.219521,49.053957]},{"code":"B/F-3453","program":"wwbota","name":"KLEINGEWAEND 2","coordinates":[7.220592,49.052682]},{"code":"B/F-3454","program":"wwbota","name":"KLEINGEWAEND 3","coordinates":[7.222823,49.051505]},{"code":"B/F-3455","program":"wwbota","name":"KOPP 1","coordinates":[7.226086,49.044341]},{"code":"B/F-3456","program":"wwbota","name":"KOPP 3","coordinates":[7.227513,49.046]},{"code":"B/F-3457","program":"wwbota","name":"KOPP 4","coordinates":[7.230523,49.046789]},{"code":"B/F-3458","program":"wwbota","name":"KOPP 5","coordinates":[7.230816,49.046856]},{"code":"B/F-3459","program":"wwbota","name":"KOPP 6","coordinates":[7.232373,49.046733]},{"code":"B/F-3460","program":"wwbota","name":"LABBISCH Nord 1","coordinates":[7.2087,49.042777]},{"code":"B/F-3461","program":"wwbota","name":"LABBISCH Nord 2","coordinates":[7.207381,49.043002]},{"code":"B/F-3462","program":"wwbota","name":"LABBISCH Nord 3","coordinates":[7.206207,49.041933]},{"code":"B/F-3463","program":"wwbota","name":"LABBISCH Sud 1 - M13","coordinates":[7.205489,49.040253]},{"code":"B/F-3464","program":"wwbota","name":"LABBISCH Sud 3","coordinates":[7.206285,49.03922]},{"code":"B/F-3465","program":"wwbota","name":"LABBISCH Sud 4","coordinates":[7.206141,49.03896]},{"code":"B/F-3466","program":"wwbota","name":"LANTZWILLER","coordinates":[7.21838,49.025233]},{"code":"B/F-3467","program":"wwbota","name":"LOHRBRONN","coordinates":[7.226692,49.017346]},{"code":"B/F-3479","program":"wwbota","name":"NACHTWEID 1","coordinates":[7.249704,49.042731]},{"code":"B/F-3485","program":"wwbota","name":"NEUWIESE 1","coordinates":[7.23203,49.049021]},{"code":"B/F-3486","program":"wwbota","name":"NEUWIESE 2","coordinates":[7.237734,49.047601]},{"code":"B/F-3487","program":"wwbota","name":"NEUWIESE 3","coordinates":[7.238141,49.046675]},{"code":"B/F-3488","program":"wwbota","name":"Nord-Ouest de SINGLING Droite","coordinates":[7.214991,49.055917]},{"code":"B/F-3489","program":"wwbota","name":"Nord-Ouest de SINGLING Gauche","coordinates":[7.212742,49.055466]},{"code":"B/F-3490","program":"wwbota","name":"OBERGAILBACH","coordinates":[7.216538,49.11346]},{"code":"B/F-3499","program":"wwbota","name":"OLFERDING Est (Avant Poste)","coordinates":[7.238541,49.069804]},{"code":"B/F-3500","program":"wwbota","name":"OLFERDING Ouest (Avant Poste)","coordinates":[7.236643,49.07017]},{"code":"B/F-3512","program":"wwbota","name":"ROUTE de GROS-REDERCHING","coordinates":[7.246556,49.056366]},{"code":"B/F-3513","program":"wwbota","name":"RUNDWIESE","coordinates":[7.213088,49.04698]},{"code":"B/F-3514","program":"wwbota","name":"SALWALD 1","coordinates":[7.222516,49.035645]},{"code":"B/F-3515","program":"wwbota","name":"SALWALD 2","coordinates":[7.223958,49.035124]},{"code":"B/F-3516","program":"wwbota","name":"SALWALD 3","coordinates":[7.224735,49.035028]},{"code":"B/F-3517","program":"wwbota","name":"SALWALD 4","coordinates":[7.226745,49.034737]},{"code":"B/F-3518","program":"wwbota","name":"SALWALD 5","coordinates":[7.227632,49.033434]},{"code":"B/F-3521","program":"wwbota","name":"SAUUNTER 2","coordinates":[7.223597,49.023173]},{"code":"B/F-3522","program":"wwbota","name":"SCHITTEFELD 1","coordinates":[7.203701,49.045886]},{"code":"B/F-3523","program":"wwbota","name":"SCHITTEFELD 2","coordinates":[7.20712,49.047579]},{"code":"B/F-3524","program":"wwbota","name":"SCHITTEFELD 4","coordinates":[7.204054,49.049425]},{"code":"B/F-3525","program":"wwbota","name":"SCHITTEFELD 5","coordinates":[7.203349,49.048949]},{"code":"B/F-3526","program":"wwbota","name":"SCHITTEFELD 6","coordinates":[7.202057,49.048185]},{"code":"B/F-3527","program":"wwbota","name":"SINGLING 1","coordinates":[7.217349,49.046955]},{"code":"B/F-3528","program":"wwbota","name":"SINGLING 3","coordinates":[7.222154,49.048347]},{"code":"B/F-3529","program":"wwbota","name":"SINGLING 5","coordinates":[7.223254,49.047997]},{"code":"B/F-3530","program":"wwbota","name":"SINGLING 6","coordinates":[7.226425,49.047395]},{"code":"B/F-3531","program":"wwbota","name":"SINGLING 8","coordinates":[7.229583,49.04859]},{"code":"B/F-3532","program":"wwbota","name":"SINGLING 9","coordinates":[7.229844,49.048999]},{"code":"B/F-3533","program":"wwbota","name":"SINGLING Ouest","coordinates":[7.205499,49.051073]},{"code":"B/F-3534","program":"wwbota","name":"STAND de TIR Est","coordinates":[7.245608,49.04289]},{"code":"B/F-3535","program":"wwbota","name":"STAND de TIR Nord","coordinates":[7.244176,49.043338]},{"code":"B/F-3536","program":"wwbota","name":"STAND de TIR Ouest","coordinates":[7.243543,49.043143]},{"code":"B/F-3541","program":"wwbota","name":"STEINER DEL 1","coordinates":[7.232643,49.037756]},{"code":"B/F-3542","program":"wwbota","name":"STEINER DEL 2","coordinates":[7.236571,49.036802]},{"code":"B/F-3543","program":"wwbota","name":"STEINER DEL 3","coordinates":[7.237328,49.037544]},{"code":"B/F-3544","program":"wwbota","name":"STEINER DEL 4","coordinates":[7.237641,49.037783]},{"code":"B/F-3545","program":"wwbota","name":"STEINER DEL 5","coordinates":[7.238731,49.039286]},{"code":"B/F-3546","program":"wwbota","name":"STEINER HUEBEL","coordinates":[7.237758,49.042948]},{"code":"B/F-3549","program":"wwbota","name":"VALLEE d'ALTKIRCHE","coordinates":[7.227684,49.023347]},{"code":"B/F-3550","program":"wwbota","name":"WELSCHHOF","coordinates":[7.223283,49.058194]},{"code":"B/F-3551","program":"wwbota","name":"WOLFSREDGEN Centre","coordinates":[7.234509,49.021685]},{"code":"B/F-3552","program":"wwbota","name":"WOLFSREDGEN Est","coordinates":[7.242069,49.020241]},{"code":"B/F-3553","program":"wwbota","name":"WOLFSREDGEN Ouest","coordinates":[7.230607,49.022465]},{"code":"B/F-6485","program":"wwbota","name":"VV-HAUT POIRIER","coordinates":[7.166981,49.049901]}]}