{"lat":49,"lon":-118.5,"programs":["pota","sota","wwbota"],"count":16,"references":[{"code":"CA-3242","program":"pota","name":"Boothman's Oxbow Provincial Park","coordinates":[-118.355,49.0147]},{"code":"CA-3544","program":"pota","name":"Gilpin Grasslands Provincial Park","coordinates":[-118.331,49.0123]},{"code":"VE7/KB-013","program":"sota","name":"Observation Mountain","coordinates":[-118.4474,49.0388]},{"code":"VE7/KB-061","program":"sota","name":"BD33","coordinates":[-118.335236,49.130405]},{"code":"VE7/KB-065","program":"sota","name":"Mt. Morrissey","coordinates":[-118.331726,49.066917]},{"code":"VE7/KB-066","program":"sota","name":"Xenia Hill","coordinates":[-118.34508,49.18936]},{"code":"VE7/KB-071","program":"sota","name":"Morrissey NE1","coordinates":[-118.314255,49.071625]},{"code":"VE7/KB-072","program":"sota","name":"Xenia NE1","coordinates":[-118.31616,49.228794]},{"code":"VE7/KB-115","program":"sota","name":"Grand Forks Hill","coordinates":[-118.39684,49.06543]},{"code":"VE7/KB-117","program":"sota","name":"Stewart Hill","coordinates":[-118.27988,49.03652]},{"code":"VE7/KB-139","program":"sota","name":"Thimble Mountain","coordinates":[-118.4909,49.12475]},{"code":"VE7/KB-140","program":"sota","name":"CE16","coordinates":[-118.4647,49.217545]},{"code":"VE7/KB-157","program":"sota","name":"Volcanic Hill","coordinates":[-118.42116,49.16926]},{"code":"VE7/KB-158","program":"sota","name":"Sand Hill","coordinates":[-118.423615,49.095264]},{"code":"VE7/KB-168","program":"sota","name":"VE7/KB-168","coordinates":[-118.45315,49.232246]},{"code":"B/CA-0348","program":"wwbota","name":"FRP BE42","coordinates":[-118.4451392,49.03009463]}]}