{"lat":49,"lon":10,"programs":["gma","pota"],"count":13,"references":[{"code":"DA/BM-406","program":"gma","name":"Geißberg","coordinates":[10.23222,49.15701]},{"code":"DA/BM-407","program":"gma","name":"Hornberg","coordinates":[10.1704,49.22486]},{"code":"DA/BM-552","program":"gma","name":"Pechberg","coordinates":[10.16057,49.18574]},{"code":"DA/BW-062","program":"gma","name":"Hornberg","coordinates":[10.18830013,49.01530075]},{"code":"DA/BW-065","program":"gma","name":"Kreßberg","coordinates":[10.24139977,49.14360046]},{"code":"DA/BW-078","program":"gma","name":"Hohenberg","coordinates":[10.15530014,49.14609909]},{"code":"DA/BW-607","program":"gma","name":"Hirtenberg","coordinates":[10.14220047,49.1269989]},{"code":"DA/BW-608","program":"gma","name":"Hornberg","coordinates":[10.10499954,49.17419815]},{"code":"DA/BW-725","program":"gma","name":"Schoenebuerg","coordinates":[10.11567,49.14696]},{"code":"DA/BW-817","program":"gma","name":"Streuberg","coordinates":[10.21558,49.16336]},{"code":"DA/BW-944","program":"gma","name":"Hohenberg","coordinates":[10.04136,49.00269]},{"code":"DE-0995","program":"pota","name":"Crailsheimer Hart und Reusenberg Flora and Fauna Reserve","coordinates":[10.1086,49.1137]},{"code":"DE-1017","program":"pota","name":"Kocher-Jagst-Trail National Historic Trail","coordinates":[10.0699,49.1443]}]}