{"lat":49,"lon":12.5,"programs":["gma","pota","sota"],"count":30,"references":[{"code":"DA/BM-010","program":"gma","name":"Maiberg","coordinates":[12.62779999,49.09669876]},{"code":"DA/BM-063","program":"gma","name":"Traubenberg","coordinates":[12.55830002,49.21170044]},{"code":"DA/BM-269","program":"gma","name":"Winterberg","coordinates":[12.73667,49.01593]},{"code":"DA/BM-273","program":"gma","name":"Luitpoldh","coordinates":[12.66384,49.23384]},{"code":"DA/BM-278","program":"gma","name":"Kleinberg","coordinates":[12.60683,49.09125]},{"code":"DA/BM-282","program":"gma","name":"Steinriegel","coordinates":[12.54188,49.21708]},{"code":"DA/BM-287","program":"gma","name":"Viechtberg","coordinates":[12.56261,49.0522]},{"code":"DA/BM-288","program":"gma","name":"Mitterbühl","coordinates":[12.58445,49.05735]},{"code":"DA/BM-292","program":"gma","name":"Büscherl","coordinates":[12.55427,49.0265]},{"code":"DA/BM-330","program":"gma","name":"Lamberg","coordinates":[12.71809959,49.19860077]},{"code":"DA/BM-360","program":"gma","name":"Weißenstein","coordinates":[12.68280029,49.13079834]},{"code":"DA/BM-361","program":"gma","name":"Längseugenberg","coordinates":[12.62469959,49.13690186]},{"code":"DA/BM-365","program":"gma","name":"Schlossberg","coordinates":[12.69890022,49.2419014]},{"code":"DA/BM-409","program":"gma","name":"Teufelsmauer","coordinates":[12.61594,49.19441]},{"code":"DA/BM-427","program":"gma","name":"Kramerschopf","coordinates":[12.74037,49.07209]},{"code":"DA/BM-448","program":"gma","name":"Hofberg (Burgruine Haibach)","coordinates":[12.71168,49.01969]},{"code":"DA/BM-469","program":"gma","name":"Kaltenberg","coordinates":[12.63592,49.11311]},{"code":"DA/BM-475","program":"gma","name":"Kobelberg","coordinates":[12.51898,49.0141]},{"code":"DA/BM-478","program":"gma","name":"Kirchenberg","coordinates":[12.60922,49.03786]},{"code":"DA/BM-504","program":"gma","name":"Himmelberg","coordinates":[12.69812,49.10138]},{"code":"DA/BM-505","program":"gma","name":"Sommerberg","coordinates":[12.74765,49.03667]},{"code":"DA/BM-565","program":"gma","name":"Ochsenberg","coordinates":[12.58943,49.0488]},{"code":"DA/BM-577","program":"gma","name":"Steinbühl (Wiesenfelden)","coordinates":[12.53808,49.0646]},{"code":"DA/BM-600","program":"gma","name":"Gallnerberg","coordinates":[12.6744,49.0472]},{"code":"DE-0015","program":"pota","name":"Oberer Bayerischer Wald Nature Park","coordinates":[12.6716,49.2255]},{"code":"DE-0657","program":"pota","name":"Brandmoos Natura 2000","coordinates":[12.5206,49.0319]},{"code":"DE-0658","program":"pota","name":"Weiherlandschaft bei Wiesenfelden Natura 2000","coordinates":[12.536,49.0368]},{"code":"DE-0958","program":"pota","name":"Main-Donau-Weg (Ostlinie) National Recreation Trail","coordinates":[12.6105,49.2251]},{"code":"DM/BM-013","program":"sota","name":"Gallnerberg","coordinates":[12.67686,49.04838]},{"code":"DM/BM-373","program":"sota","name":"Büscherl","coordinates":[12.5544,49.0265]}]}