{"lat":49,"lon":19,"programs":["gma","pota","sota"],"count":20,"references":[{"code":"OM0/ZA-006","program":"gma","name":"Šiprúň","coordinates":[19.2283005,49.0240313]},{"code":"SK-0005","program":"pota","name":"Malá Fatra National Park","coordinates":[19.043,49.187]},{"code":"SK-0188","program":"pota","name":"Kúpeľný park Ľubochňa - National Monument","coordinates":[19.1636,49.1177]},{"code":"OM/ZA-013","program":"sota","name":"Veľký Kriváň","coordinates":[19.0307,49.1876]},{"code":"OM/ZA-017","program":"sota","name":"Veľký Rozsutec","coordinates":[19.0987,49.2317]},{"code":"OM/ZA-019","program":"sota","name":"Stoh","coordinates":[19.094,49.212]},{"code":"OM/ZA-033","program":"sota","name":"Kľak","coordinates":[19.1122,49.0466]},{"code":"OM/ZA-047","program":"sota","name":"Hrčova kečka","coordinates":[19.1872,49.2449]},{"code":"OM/ZA-050","program":"sota","name":"Lysica","coordinates":[19.1837,49.2275]},{"code":"OM/ZA-054","program":"sota","name":"Kopa","coordinates":[19.1378,49.1371]},{"code":"OM/ZA-055","program":"sota","name":"Sokolie","coordinates":[19.0148,49.236]},{"code":"OM/ZA-057","program":"sota","name":"Šip","coordinates":[19.1788,49.1655]},{"code":"OM/ZA-058","program":"sota","name":"Nižná Lipová","coordinates":[19.1227,49.0813]},{"code":"OM/ZA-060","program":"sota","name":"Kečky","coordinates":[19.2427,49.1258]},{"code":"OM/ZA-064","program":"sota","name":"Boboty","coordinates":[19.0602,49.244]},{"code":"OM/ZA-068","program":"sota","name":"Ostré","coordinates":[19.2103,49.1366]},{"code":"OM/ZA-084","program":"sota","name":"Malá Smrekovica","coordinates":[19.2062,49.0062]},{"code":"OM/ZA-086","program":"sota","name":"Osnica","coordinates":[19.1243,49.2199]},{"code":"OM/ZA-089","program":"sota","name":"Perušín","coordinates":[19.1616,49.0144]},{"code":"OM/ZA-103","program":"sota","name":"Ostré","coordinates":[19.1466,49.2406]}]}