{"lat":49,"lon":20,"programs":["gma","pota","sota"],"count":24,"references":[{"code":"OM0/PO-001","program":"gma","name":"MengusovskГғВҪ Г…ВЎtГғВӯt","coordinates":[20.05970001,49.18719864]},{"code":"OM0/PO-002","program":"gma","name":"Svinica","coordinates":[20.00919914,49.2195015]},{"code":"OM0/PO-007","program":"gma","name":"SlavkovskГғВҪ Г…ВЎtГғВӯt <Slavkovsky stit>","coordinates":[20.1845922,49.1660783]},{"code":"SO/MP-001","program":"gma","name":"Rysy","coordinates":[20.088333,49.179444]},{"code":"SK-0223","program":"pota","name":"Park KaЕЎtieДҫ Batizovce - National Monument","coordinates":[20.1861,49.0751]},{"code":"SK-0224","program":"pota","name":"Park KaЕЎtieДҫ LuДҚivnГЎ - National Monument","coordinates":[20.1403,49.0515]},{"code":"OM/PO-001","program":"sota","name":"GerlachovskГҪ ЕЎtГӯt","coordinates":[20.134,49.1641]},{"code":"OM/PO-002","program":"sota","name":"LomnickГҪ ЕЎtГӯt","coordinates":[20.213,49.1952]},{"code":"OM/PO-003","program":"sota","name":"ДҪadovГҪ ЕЎtГӯt","coordinates":[20.1828,49.1987]},{"code":"OM/PO-004","program":"sota","name":"VysokГЎ","coordinates":[20.0942,49.1727]},{"code":"OM/PO-005","program":"sota","name":"KonДҚistГЎ","coordinates":[20.1138,49.1575]},{"code":"OM/PO-006","program":"sota","name":"KrivГЎЕҲ","coordinates":[20.0003,49.163]},{"code":"OM/PO-007","program":"sota","name":"Bradavica","coordinates":[20.1558,49.1713]},{"code":"OM/PO-009","program":"sota","name":"HrubГҪ vrch","coordinates":[20.0267,49.1708]},{"code":"OM/PO-011","program":"sota","name":"Havran","coordinates":[20.1977,49.2485]},{"code":"OM/PO-014","program":"sota","name":"HlГәpy","coordinates":[20.2203,49.2369]},{"code":"OM/PO-017","program":"sota","name":"KozГӯ kameЕҲ","coordinates":[20.161,49.0165]},{"code":"OM/PO-057","program":"sota","name":"SuchГҪ vrch","coordinates":[20.1507,49.2379]},{"code":"OM/PO-059","program":"sota","name":"Brada","coordinates":[20.0162,49.0217]},{"code":"OM/PO-092","program":"sota","name":"Rysy","coordinates":[20.0884,49.1793]},{"code":"SP/TA-001","program":"sota","name":"MiДҷguszowiecki Szczyt","coordinates":[20.0599,49.1872]},{"code":"SP/TA-002","program":"sota","name":"Еҡwinica","coordinates":[20.0094,49.2195]},{"code":"SP/TA-003","program":"sota","name":"Kozi Wierch","coordinates":[20.0286,49.2184]},{"code":"SP/TA-004","program":"sota","name":"Miedziane","coordinates":[20.0489,49.2015]}]}