{"lat":49,"lon":2.5,"programs":["pota","wwbota"],"count":41,"references":[{"code":"FR-1601","program":"pota","name":"Oise-Pays de France Regional Park","coordinates":[2.56667,49.1833]},{"code":"FR-2915","program":"pota","name":"Forets picardes massif des trois forets et bois du Roi FR2212005 Natura 2000","coordinates":[2.58333,49.1708]},{"code":"FR-11223","program":"pota","name":"Massif de Chantilly Ermenonville Biological Reserve","coordinates":[2.59512,49.1555]},{"code":"B/F-7137","program":"wwbota","name":"Chauvineau 15A","coordinates":[2.507915,49.194957]},{"code":"B/F-7138","program":"wwbota","name":"Chauvineau 15C","coordinates":[2.5086,49.195077]},{"code":"B/F-7139","program":"wwbota","name":"Chauvineau 15F","coordinates":[2.514922,49.194763]},{"code":"B/F-7140","program":"wwbota","name":"Chauvineau 15G","coordinates":[2.517339,49.193398]},{"code":"B/F-7141","program":"wwbota","name":"Chauvineau 15J","coordinates":[2.525554,49.193345]},{"code":"B/F-7142","program":"wwbota","name":"Chauvineau 15K","coordinates":[2.526317,49.193367]},{"code":"B/F-7143","program":"wwbota","name":"Chauvineau 16C","coordinates":[2.533239,49.194144]},{"code":"B/F-7144","program":"wwbota","name":"Chauvineau 16D","coordinates":[2.534505,49.194097]},{"code":"B/F-7145","program":"wwbota","name":"Chauvineau 16F","coordinates":[2.545681,49.195467]},{"code":"B/F-7146","program":"wwbota","name":"Chauvineau 16G","coordinates":[2.548793,49.196196]},{"code":"B/F-7147","program":"wwbota","name":"Chauvineau 16H","coordinates":[2.550902,49.196356]},{"code":"B/F-7148","program":"wwbota","name":"Chauvineau 16I","coordinates":[2.556468,49.195657]},{"code":"B/F-7149","program":"wwbota","name":"Chauvineau 16J","coordinates":[2.56783,49.199385]},{"code":"B/F-7150","program":"wwbota","name":"Chauvineau 16K","coordinates":[2.569011,49.20049]},{"code":"B/F-7151","program":"wwbota","name":"Chauvineau 17D","coordinates":[2.575534,49.20178]},{"code":"B/F-7152","program":"wwbota","name":"Chauvineau 17E","coordinates":[2.57557,49.201468]},{"code":"B/F-7153","program":"wwbota","name":"Chauvineau 17G","coordinates":[2.58093,49.201348]},{"code":"B/F-7154","program":"wwbota","name":"Chauvineau 17L","coordinates":[2.592678,49.198889]},{"code":"B/F-7155","program":"wwbota","name":"Chauvineau 17P","coordinates":[2.601084,49.196971]},{"code":"B/F-7156","program":"wwbota","name":"Chauvineau 17Q","coordinates":[2.601778,49.196875]},{"code":"B/F-7157","program":"wwbota","name":"Chauvineau 17V","coordinates":[2.605842,49.192536]},{"code":"B/F-7158","program":"wwbota","name":"Chauvineau 17W","coordinates":[2.63349,49.18943]},{"code":"B/F-7159","program":"wwbota","name":"Chauvineau 17X","coordinates":[2.639186,49.19103]},{"code":"B/F-7160","program":"wwbota","name":"Chauvineau 17Z","coordinates":[2.641066,49.190342]},{"code":"B/F-7161","program":"wwbota","name":"Chauvineau 17AA","coordinates":[2.641516,49.189817]},{"code":"B/F-7162","program":"wwbota","name":"Chauvineau 18A","coordinates":[2.662486,49.17522]},{"code":"B/F-7163","program":"wwbota","name":"Chauvineau 18B","coordinates":[2.662151,49.175883]},{"code":"B/F-7164","program":"wwbota","name":"Chauvineau 18D","coordinates":[2.672614,49.176935]},{"code":"B/F-7165","program":"wwbota","name":"Chauvineau 18E","coordinates":[2.674556,49.177365]},{"code":"B/F-7166","program":"wwbota","name":"Chauvineau 18F","coordinates":[2.67833,49.172338]},{"code":"B/F-7167","program":"wwbota","name":"Chauvineau 18G","coordinates":[2.684724,49.166223]},{"code":"B/F-7168","program":"wwbota","name":"Chauvineau 18J","coordinates":[2.695454,49.165916]},{"code":"B/F-7169","program":"wwbota","name":"Chauvineau 18K","coordinates":[2.697959,49.165717]},{"code":"B/F-7170","program":"wwbota","name":"Chauvineau 18L","coordinates":[2.698611,49.165882]},{"code":"B/F-7171","program":"wwbota","name":"Chauvineau 19A","coordinates":[2.722867,49.16771]},{"code":"B/F-7172","program":"wwbota","name":"Chauvineau 19B","coordinates":[2.725702,49.168062]},{"code":"B/F-7173","program":"wwbota","name":"Chauvineau 19C","coordinates":[2.731105,49.169164]},{"code":"B/F-7174","program":"wwbota","name":"Chauvineau 19G","coordinates":[2.738034,49.170543]}]}