{"lat":49,"lon":-124.5,"programs":["pota","sota"],"count":18,"references":[{"code":"CA-3481","program":"pota","name":"Englishman River Falls Provincial Park","coordinates":[-124.35,49.2458]},{"code":"CA-3571","program":"pota","name":"Green Mountain Wildlife Management Area","coordinates":[-124.342,49.058]},{"code":"CA-3580","program":"pota","name":"Haley Lake Ecological Reserve","coordinates":[-124.314,49.0133]},{"code":"VE7/CV-035","program":"sota","name":"Marmot Mountain","coordinates":[-124.4623,49.0124]},{"code":"VE7/CV-040","program":"sota","name":"VE7/CV-040","coordinates":[-124.4954,49.0064]},{"code":"VE7/NO-002","program":"sota","name":"Mount Moriarty","coordinates":[-124.4519,49.1378]},{"code":"VE7/NO-004","program":"sota","name":"Gemini Mountain","coordinates":[-124.3114,49.0261]},{"code":"VE7/NO-006","program":"sota","name":"Green Mountain","coordinates":[-124.3425,49.0567]},{"code":"VE7/NO-007","program":"sota","name":"Butler Peak","coordinates":[-124.3325,49.0067]},{"code":"VE7/NO-023","program":"sota","name":"Pavo Peak","coordinates":[-124.3992,49.0225]},{"code":"VE7/NO-024","program":"sota","name":"VE7/NO-024","coordinates":[-124.4031,49.1201]},{"code":"VE7/NO-025","program":"sota","name":"VE7/NO-025","coordinates":[-124.4794,49.1178]},{"code":"VE7/NO-029","program":"sota","name":"VE7/NO-029","coordinates":[-124.4395,49.0239]},{"code":"VE7/NO-031","program":"sota","name":"VE7/NO-031","coordinates":[-124.3623,49.1504]},{"code":"VE7/NO-032","program":"sota","name":"VE7/NO-032","coordinates":[-124.4772,49.2246]},{"code":"VE7/NO-035","program":"sota","name":"VE7/NO-035","coordinates":[-124.3049,49.1191]},{"code":"VE7/NO-036","program":"sota","name":"VE7/NO-036","coordinates":[-124.2653,49.1615]},{"code":"VE7/NO-037","program":"sota","name":"VE7/NO-037","coordinates":[-124.4042,49.058]}]}