{"lat":49,"lon":-124,"programs":["pota","sota","wwbota"],"count":15,"references":[{"code":"CA-3533","program":"pota","name":"Gabriola Sands Provincial Park","coordinates":[-123.859,49.1941]},{"code":"CA-3598","program":"pota","name":"Hemer Provincial Park","coordinates":[-123.839,49.1043]},{"code":"CA-3616","program":"pota","name":"Hudson Rocks Ecological Reserve","coordinates":[-123.926,49.2247]},{"code":"CA-3795","program":"pota","name":"Spruston Staging Area Recreation Site","coordinates":[-123.968,49.0598]},{"code":"CA-3823","program":"pota","name":"Morden Colliery Historic Site","coordinates":[-123.873,49.0946]},{"code":"CA-3891","program":"pota","name":"Saysutshun (Newcastle Island) Marine Park","coordinates":[-123.934,49.1911]},{"code":"CA-3955","program":"pota","name":"Petroglyph Provincial Park","coordinates":[-123.926,49.1407]},{"code":"CA-4028","program":"pota","name":"Roberts Memorial Provincial Park","coordinates":[-123.779,49.0621]},{"code":"CA-4054","program":"pota","name":"Sandwell Provincial Park","coordinates":[-123.815,49.1843]},{"code":"CA-4313","program":"pota","name":"Yellow Point Bog Ecological Reserve","coordinates":[-123.795,49.0528]},{"code":"VE7/CV-129","program":"sota","name":"Mount Hayes","coordinates":[-123.9083,49.0133]},{"code":"VE7/CV-131","program":"sota","name":"VE7/CV-131","coordinates":[-123.8366,49.0282]},{"code":"VE7/NO-040","program":"sota","name":"Gabriola Island","coordinates":[-123.7758,49.1434]},{"code":"B/CA-0266","program":"wwbota","name":"FRP ME33","coordinates":[-123.9646896,49.15234353]},{"code":"B/CA-0367","program":"wwbota","name":"Nanaimo BRIDGE","coordinates":[-123.9716193,49.14826833]}]}