{"lat":49,"lon":-122.25,"programs":["pota","sota"],"count":16,"references":[{"code":"CA-3219","program":"pota","name":"Bert Brink Wildlife Management Area","coordinates":[-122.15,49.1481]},{"code":"CA-3527","program":"pota","name":"Fraser River Ecological Reserve","coordinates":[-122.02,49.1757]},{"code":"CA-3770","program":"pota","name":"Sumas Mountain Regional Park","coordinates":[-122.151,49.1152]},{"code":"VE7/FV-016","program":"sota","name":"Dewdney Peak","coordinates":[-122.1981,49.1892]},{"code":"VE7/FV-026","program":"sota","name":"Sumas Peak","coordinates":[-122.1275,49.1201]},{"code":"VE7/FV-027","program":"sota","name":"McKee Peak","coordinates":[-122.2147,49.0636]},{"code":"VE7/FV-028","program":"sota","name":"Vedder Peak","coordinates":[-122.0439,49.0536]},{"code":"VE7/FV-152","program":"sota","name":"Deroche Mountain","coordinates":[-122.0611,49.2397]},{"code":"VE7/FV-166","program":"sota","name":"Deroche SW2","coordinates":[-122.0911,49.2314]},{"code":"VE7/FV-174","program":"sota","name":"Nicomen Mountain","coordinates":[-122.12,49.2053]},{"code":"VE7/FV-175","program":"sota","name":"MacNab Peak","coordinates":[-122.1792,49.2486]},{"code":"VE7/FV-179","program":"sota","name":"Pattison Peak","coordinates":[-122.1778,49.2197]},{"code":"VE7/FV-583","program":"sota","name":"VE7/FV-583","coordinates":[-122.121,49.0092]},{"code":"VE7/FV-595","program":"sota","name":"VE7/FV-595","coordinates":[-122.2064,49.1141]},{"code":"VE7/FV-603","program":"sota","name":"Chilliwack Mountain","coordinates":[-122.0253,49.1513]},{"code":"VE7/FV-609","program":"sota","name":"VE7/FV-609","coordinates":[-122.2467,49.0522]}]}