{"lat":49,"lon":14.25,"programs":["gma","wwbota"],"count":33,"references":[{"code":"OL/JC-1001","program":"gma","name":"Vysoký Kamýk <Vysoky Kamyk>","coordinates":[14.29599953,49.23300171]},{"code":"OL/JC-478","program":"gma","name":"Malý Kamýk <Maly Kamyk>","coordinates":[14.29633999,49.2356987]},{"code":"OL/JC-528","program":"gma","name":"Pecivál <Pecival>","coordinates":[14.29795456,49.22253799]},{"code":"OL/JC-561","program":"gma","name":"Kometa","coordinates":[14.31518936,49.20767212]},{"code":"OL/JC-622","program":"gma","name":"Zdoba","coordinates":[14.33695793,49.21427917]},{"code":"OL/JC-631","program":"gma","name":"Chlum","coordinates":[14.2812376,49.24647141]},{"code":"OL/JC-638","program":"gma","name":"Kloboučky <Kloboucky>","coordinates":[14.28120041,49.24179077]},{"code":"OL/JC-715","program":"gma","name":"Na Skalce","coordinates":[14.334445,49.23786545]},{"code":"OL/JC-720","program":"gma","name":"Malý Kamení­k <Maly Kamenik>","coordinates":[14.43539619,49.08757019]},{"code":"OL/JC-737","program":"gma","name":"Strážiště <Straziste>","coordinates":[14.43221855,49.12598419]},{"code":"OL/JC-748","program":"gma","name":"Jelení­ vrch <Jeleni vrch>","coordinates":[14.47417831,49.07767868]},{"code":"OL/JC-757","program":"gma","name":"Jedlový vrch <Jedlovy vrch>","coordinates":[14.33936024,49.22763824]},{"code":"OL/JC-760","program":"gma","name":"Výštice <Vystice>","coordinates":[14.40574932,49.12045288]},{"code":"OL/JC-770","program":"gma","name":"Ostrý vrch <Ostry vrch>","coordinates":[14.28823566,49.20312119]},{"code":"OL/JC-792","program":"gma","name":"Olešnický vrch <Olesnicky vrch>","coordinates":[14.3916562,49.0983574]},{"code":"OL/JC-798","program":"gma","name":"Nuzovský vrch <Nuzovsky vrch>","coordinates":[14.2533834,49.2421209]},{"code":"OL/JC-817","program":"gma","name":"Janoch","coordinates":[14.4173154,49.1626095]},{"code":"OL/JC-830","program":"gma","name":"Červený vrch <Cerveny vrch>","coordinates":[14.393958,49.2152383]},{"code":"OL/JC-846","program":"gma","name":"Hřeben <Hreben>","coordinates":[14.4273734,49.1468279]},{"code":"OL/JC-848","program":"gma","name":"Kaní­n <Kanin>","coordinates":[14.4687514,49.0626838]},{"code":"OL/JC-857","program":"gma","name":"Baba","coordinates":[14.4517502,49.0750542]},{"code":"OL/JC-865","program":"gma","name":"U Hrádku <U Hradku>","coordinates":[14.4540357,49.1163724]},{"code":"OL/JC-866","program":"gma","name":"Vazová <Vazova>","coordinates":[14.3132802,49.1313811]},{"code":"OL/JC-870","program":"gma","name":"Holý vrch <Holy vrch>","coordinates":[14.3597152,49.2298779]},{"code":"OL/JC-871","program":"gma","name":"Kopanina","coordinates":[14.4275565,49.2498798]},{"code":"OL/JC-969","program":"gma","name":"Velký Kameník <Velky Kamenik>","coordinates":[14.44299984,49.09799957]},{"code":"OL/JC-980","program":"gma","name":"Pakostov","coordinates":[14.3760004,49.13999939]},{"code":"OL/JC-982","program":"gma","name":"Chocholouš <Chocholous>","coordinates":[14.28499985,49.18700027]},{"code":"OL/JC-985","program":"gma","name":"Račice <Racice>","coordinates":[14.47099972,49.04199982]},{"code":"OL/JC-986","program":"gma","name":"Jaroslavický vrch <Jaroslavicky vrch>","coordinates":[14.47700024,49.16400146]},{"code":"OL/JC-993","program":"gma","name":"Zádušní vrch <Zadusni vrch>","coordinates":[14.26900005,49.0019989]},{"code":"B/OK-0249","program":"wwbota","name":"139/37/A-180Z Pasovice","coordinates":[14.35728,49.24346]},{"code":"B/OK-0250","program":"wwbota","name":"144/67/B2-80Z Tyn nad Vltavou","coordinates":[14.45587,49.15531]}]}