{"lat":49,"lon":13.25,"programs":["gma","sota","wwbota"],"count":79,"references":[{"code":"DA/BM-041","program":"gma","name":"Ruckwiesberg","coordinates":[13.28250027,49.09469986]},{"code":"DA/BM-042","program":"gma","name":"Schwarzbachriegel","coordinates":[13.28719997,49.07830048]},{"code":"DA/BM-304","program":"gma","name":"Großer Falkenstein","coordinates":[13.27970028,49.08440018]},{"code":"DA/BM-334","program":"gma","name":"Hochleiten","coordinates":[13.25109959,49.0428009]},{"code":"DA/BM-494","program":"gma","name":"Scheuereckberg","coordinates":[13.33112,49.0674]},{"code":"DA/BM-495","program":"gma","name":"Paukenriegel","coordinates":[13.3376,49.00601]},{"code":"OL/PL-004","program":"gma","name":"Jezernice","coordinates":[13.42741203,49.07161713]},{"code":"OL/PL-006","program":"gma","name":"Skalka ","coordinates":[13.38882542,49.07928848]},{"code":"OL/PL-007","program":"gma","name":"Dřevěná hůl <Drevena hul>","coordinates":[13.34116364,49.1156044]},{"code":"OL/PL-008","program":"gma","name":"Habr","coordinates":[13.25307655,49.1918869]},{"code":"OL/PL-010","program":"gma","name":"Sklářský vrch <Sklarsky vrch>","coordinates":[13.28264999,49.1432457]},{"code":"OL/PL-013","program":"gma","name":"Jedlová <Jedlova>","coordinates":[13.2638588,49.20694351]},{"code":"OL/PL-015","program":"gma","name":"Modravská hora <Modravska hora>","coordinates":[13.4794569,49.0137291]},{"code":"OL/PL-018","program":"gma","name":"Hůrecký vrch <Hurecky vrch>","coordinates":[13.33941269,49.1352272]},{"code":"OL/PL-020","program":"gma","name":"Adamova hora","coordinates":[13.48203945,49.04032135]},{"code":"OL/PL-023","program":"gma","name":"Výběžek <Vybezek>","coordinates":[13.47892189,49.04920578]},{"code":"OL/PL-025","program":"gma","name":"Tok","coordinates":[13.27810955,49.15714264]},{"code":"OL/PL-026","program":"gma","name":"Kostelní­ vrch <Kostelni vrch>","coordinates":[13.46708012,49.06570816]},{"code":"OL/PL-027","program":"gma","name":"Větrný <Vetrny>","coordinates":[13.40802,49.09359]},{"code":"OL/PL-030","program":"gma","name":"Březní­k <Breznik>","coordinates":[13.42549801,49.14945984]},{"code":"OL/PL-033","program":"gma","name":"Sup","coordinates":[13.29377842,49.20249557]},{"code":"OL/PL-034","program":"gma","name":"Gerlova paseka","coordinates":[13.32143688,49.17058945]},{"code":"OL/PL-035","program":"gma","name":"Slunečná <Slunecna>","coordinates":[13.40184021,49.11407852]},{"code":"OL/PL-036","program":"gma","name":"Kamenáč <kamenac>","coordinates":[13.382864,49.1952858]},{"code":"OL/PL-038","program":"gma","name":"Na Hofmanově mlýně <Na Hofmanove mlyne>","coordinates":[13.35371017,49.17554855]},{"code":"OL/PL-039","program":"gma","name":"Plošina <Plosina>","coordinates":[13.25781155,49.24773026]},{"code":"OL/PL-040","program":"gma","name":"Svinenský vrch <Svinensky vrch>","coordinates":[13.34702682,49.21622467]},{"code":"OL/PL-047","program":"gma","name":"Sedelský vrch <Sedelsky vrch>","coordinates":[13.47887611,49.10094833]},{"code":"OL/PL-050","program":"gma","name":"Na Vrchách <Na Vrchach>","coordinates":[13.46296024,49.07684326]},{"code":"OL/PL-051","program":"gma","name":"Radkovský vrch <Radkovsky vrch>","coordinates":[13.48921013,49.13695908]},{"code":"OL/PL-052","program":"gma","name":"Pálenka <palenka>","coordinates":[13.36459923,49.22302628]},{"code":"OL/PL-055","program":"gma","name":"Hamerský vrch <Hamersky vrch>","coordinates":[13.30134487,49.22527695]},{"code":"OL/PL-057","program":"gma","name":"Kamenitý <Kamenity>","coordinates":[13.39243984,49.13021851]},{"code":"OL/PL-058","program":"gma","name":"Vosí­k <Vosik>","coordinates":[13.40980244,49.20105743]},{"code":"OL/PL-061","program":"gma","name":"Kolářova hora <Kolarova hora>","coordinates":[13.36233521,49.23501205]},{"code":"OL/PL-065","program":"gma","name":"Hamižná <Hamizna>","coordinates":[13.45242977,49.16268921]},{"code":"OL/PL-066","program":"gma","name":"Jakubice","coordinates":[13.44787025,49.15768051]},{"code":"OL/PL-075","program":"gma","name":"Vršek <Vrsek>","coordinates":[13.37690926,49.2195282]},{"code":"OL/PL-077","program":"gma","name":"Bezděkovský kopec <Bezdekovsky kopec>","coordinates":[13.42630196,49.17602539]},{"code":"OL/PL-083","program":"gma","name":"Nuzerovská Stráž <Nuzerovska Straz>","coordinates":[13.46922874,49.19358444]},{"code":"OL/PL-088","program":"gma","name":"Volšovská stráž <Volsovska straz>","coordinates":[13.46797562,49.20925903]},{"code":"OL/PL-089","program":"gma","name":"Hadí vrch <Hadi vrch>","coordinates":[13.338,49.1867]},{"code":"OL/PL-102","program":"gma","name":"Kaltský vrch <Kaltsky vrch>","coordinates":[13.43008804,49.23674393]},{"code":"OL/PL-103","program":"gma","name":"Stráž <Straz>","coordinates":[13.46816444,49.20314407]},{"code":"OL/PL-105","program":"gma","name":"Vrchy","coordinates":[13.40163612,49.21591568]},{"code":"OL/PL-114","program":"gma","name":"Bláhovsko <Blahovsko>","coordinates":[13.40367508,49.23105621]},{"code":"OL/PL-133","program":"gma","name":"Na Větrní­ku <Na Vetrniku>","coordinates":[13.43815804,49.18992996]},{"code":"OL/PL-137","program":"gma","name":"Výrovna <Vyrovna>","coordinates":[13.4112215,49.24245834]},{"code":"OL/PL-140","program":"gma","name":"Na Lejmaru","coordinates":[13.42931271,49.24385834]},{"code":"OL/PL-144","program":"gma","name":"Pahorek","coordinates":[13.41690063,49.2401619]},{"code":"OL/PL-175","program":"gma","name":"Ptačí­ vršek <Ptaci vrsek>","coordinates":[13.46933937,49.18286514]},{"code":"OL/PL-176","program":"gma","name":"Hora","coordinates":[13.42802429,49.2117424]},{"code":"OL/PL-194","program":"gma","name":"Janský vrch <Jansky vrch>","coordinates":[13.47599983,49.18638992]},{"code":"OL/PL-220","program":"gma","name":"Farský vrch <Farsky vrch>","coordinates":[13.42960453,49.22774124]},{"code":"OL/PL-226","program":"gma","name":"Mouření­n <Mourenin>","coordinates":[13.49466991,49.16933823]},{"code":"OL/PL-236","program":"gma","name":"Větrovská <Vetrovska>","coordinates":[13.46032238,49.24700928]},{"code":"OL/PL-252","program":"gma","name":"Buben","coordinates":[13.46265697,49.23552704]},{"code":"OL/PL-278","program":"gma","name":"Letná <Letna>","coordinates":[13.47270966,49.22673798]},{"code":"OL/PL-283","program":"gma","name":"Cimberk","coordinates":[13.45988941,49.21498108]},{"code":"OL/PL-314","program":"gma","name":"Hrnčíř <Hrncir>","coordinates":[13.44327068,49.21245575]},{"code":"OL/PL-376","program":"gma","name":"Tomanův kopec <Tomanuv kopec>","coordinates":[13.46413994,49.22669601]},{"code":"OL/PL-960","program":"gma","name":"Polom","coordinates":[13.28899956,49.13000107]},{"code":"OL/PL-962","program":"gma","name":"Oblí­k <Oblik>","coordinates":[13.44299984,49.05400085]},{"code":"OL/PL-964","program":"gma","name":"Pancíř <Pancir>","coordinates":[13.25500011,49.17900085]},{"code":"OL/PL-966","program":"gma","name":"Javorná <Javorna>","coordinates":[13.32400036,49.20000076]},{"code":"OL/PL-967","program":"gma","name":"Vysoký hřbet <Vysoky hrbet>","coordinates":[13.3739996,49.16899872]},{"code":"DM/BM-267","program":"sota","name":"Riesberg","coordinates":[13.2894,49.0397]},{"code":"OK/PL-004","program":"sota","name":"Plesná","coordinates":[13.3128,49.1046]},{"code":"OK/PL-007","program":"sota","name":"Poledník","coordinates":[13.395,49.0642]},{"code":"OK/PL-015","program":"sota","name":"Křemelná","coordinates":[13.4479,49.1224]},{"code":"OK/PL-089","program":"sota","name":"Svatobor","coordinates":[13.4875,49.2355]},{"code":"OK/PL-091","program":"sota","name":"Spálený","coordinates":[13.4684,49.0912]},{"code":"B/OK-1221","program":"wwbota","name":"H-40/24/A-160 Susice","coordinates":[13.49973,49.18217]},{"code":"B/OK-1222","program":"wwbota","name":"H-40/25/D1 Susice","coordinates":[13.4947,49.18403]},{"code":"B/OK-1223","program":"wwbota","name":"H-40/26/D2 Susice","coordinates":[13.49124,49.1841]},{"code":"B/OK-1224","program":"wwbota","name":"H-40/28/D2 Susice","coordinates":[13.48857,49.18343]},{"code":"B/OK-1225","program":"wwbota","name":"H-40/29/D2 Susice","coordinates":[13.48402,49.18182]},{"code":"B/OK-1227","program":"wwbota","name":"H-40/31/D1 Susice","coordinates":[13.48342,49.18148]},{"code":"B/OK-1228","program":"wwbota","name":"H-40/35/B1-90 Susice","coordinates":[13.4572,49.19679]}]}