{"lat":49,"lon":-121.5,"programs":["pota","sota"],"count":35,"references":[{"code":"CA-3327","program":"pota","name":"Chilliwack Lake Provincial Park","coordinates":[-121.454,49.0905]},{"code":"CA-3329","program":"pota","name":"Chilliwack River Ecological Reserve","coordinates":[-121.412,49.006]},{"code":"CA-4094","program":"pota","name":"Skagit River Cottonwoods Ecological Reserve","coordinates":[-121.266,49.1602]},{"code":"VE7/FV-009","program":"sota","name":"Goat Peak","coordinates":[-121.4814,49.1364]},{"code":"VE7/FV-011","program":"sota","name":"Paleface Mtn.","coordinates":[-121.3872,49.0744]},{"code":"VE7/FV-041","program":"sota","name":"Mount Hansen","coordinates":[-121.4597,49.2367]},{"code":"VE7/FV-056","program":"sota","name":"MacDonald Peak","coordinates":[-121.4625,49.0375]},{"code":"VE7/FV-060","program":"sota","name":"Mt. Webb","coordinates":[-121.4564,49.0511]},{"code":"VE7/FV-194","program":"sota","name":"Mount Payne","coordinates":[-121.2748,49.1679]},{"code":"VE7/FV-200","program":"sota","name":"Mount Rideout","coordinates":[-121.2528,49.1615]},{"code":"VE7/FV-223","program":"sota","name":"Mount Lindeman","coordinates":[-121.4539,49.0132]},{"code":"VE7/FV-254","program":"sota","name":"Thompson Peak","coordinates":[-121.2993,49.0535]},{"code":"VE7/FV-259","program":"sota","name":"Cassino Peak","coordinates":[-121.287,49.1912]},{"code":"VE7/FV-271","program":"sota","name":"Mount Daly","coordinates":[-121.2843,49.0314]},{"code":"VE7/FV-287","program":"sota","name":"Mount Northgraves","coordinates":[-121.478,49.1667]},{"code":"VE7/FV-289","program":"sota","name":"Eaton Peak","coordinates":[-121.3468,49.2374]},{"code":"VE7/FV-303","program":"sota","name":"VE7/FV-303","coordinates":[-121.333,49.2367]},{"code":"VE7/FV-311","program":"sota","name":"Klesilkwa Mountain","coordinates":[-121.3487,49.0961]},{"code":"VE7/FV-312","program":"sota","name":"Klesilkwa N1","coordinates":[-121.3439,49.1083]},{"code":"VE7/FV-316","program":"sota","name":"Mount Lockwood","coordinates":[-121.2812,49.0926]},{"code":"VE7/FV-320","program":"sota","name":"Mount Edgar","coordinates":[-121.3452,49.034]},{"code":"VE7/FV-321","program":"sota","name":"Thompson NW4","coordinates":[-121.3285,49.0795]},{"code":"VE7/FV-323","program":"sota","name":"Jeffrey Peak","coordinates":[-121.4598,49.1943]},{"code":"VE7/FV-333","program":"sota","name":"VE7/FV-333","coordinates":[-121.3168,49.0193]},{"code":"VE7/FV-337","program":"sota","name":"Mount Green","coordinates":[-121.3214,49.2193]},{"code":"VE7/FV-356","program":"sota","name":"Mount Wittenberg","coordinates":[-121.4034,49.1262]},{"code":"VE7/FV-358","program":"sota","name":"Mount Holden","coordinates":[-121.373,49.1444]},{"code":"VE7/FV-372","program":"sota","name":"Mount Corriveau","coordinates":[-121.4965,49.0638]},{"code":"VE7/FV-378","program":"sota","name":"VE7/FV-378","coordinates":[-121.2657,49.2313]},{"code":"VE7/FV-388","program":"sota","name":"Flora Peak","coordinates":[-121.4288,49.1135]},{"code":"VE7/FV-434","program":"sota","name":"Lamb Peak (Greendrop Peak)","coordinates":[-121.4498,49.1526]},{"code":"VE7/FV-436","program":"sota","name":"VE7/FV-436","coordinates":[-121.3901,49.0878]},{"code":"VE7/FV-440","program":"sota","name":"Mount Nowell","coordinates":[-121.4058,49.1727]},{"code":"VE7/FV-449","program":"sota","name":"Mount Meroniuk","coordinates":[-121.3836,49.0629]},{"code":"VE7/FV-473","program":"sota","name":"VE7/FV-473","coordinates":[-121.4265,49.2237]}]}