{"lat":49.25,"lon":12.5,"programs":["gma","sota"],"count":38,"references":[{"code":"DA/BM-053","program":"gma","name":"Hoher Stein","coordinates":[12.72780037,49.34469986]},{"code":"DA/BM-054","program":"gma","name":"Klammerfels","coordinates":[12.73579979,49.34469986]},{"code":"DA/BM-055","program":"gma","name":"Zwirenzel","coordinates":[12.68470001,49.34109879]},{"code":"DA/BM-056","program":"gma","name":"Galgenberg","coordinates":[12.72719955,49.39830017]},{"code":"DA/BM-057","program":"gma","name":"Bleschenberg","coordinates":[12.65559959,49.3321991]},{"code":"DA/BM-058","program":"gma","name":"Güttenberg","coordinates":[12.54329967,49.38140106]},{"code":"DA/BM-059","program":"gma","name":"Kirchenbühl","coordinates":[12.66110039,49.29499817]},{"code":"DA/BM-060","program":"gma","name":"Riedbühl","coordinates":[12.54139996,49.28469849]},{"code":"DA/BM-061","program":"gma","name":"Kürnberg","coordinates":[12.54529953,49.27360153]},{"code":"DA/BM-062","program":"gma","name":"Sattelberg","coordinates":[12.55447,49.26477]},{"code":"DA/BM-196","program":"gma","name":"Blauberg","coordinates":[12.66110039,49.3689003]},{"code":"DA/BM-263","program":"gma","name":"Rabenberg","coordinates":[12.61428,49.29298]},{"code":"DA/BM-276","program":"gma","name":"Kielberg","coordinates":[12.69858,49.2925]},{"code":"DA/BM-280","program":"gma","name":"Kathlfelsen","coordinates":[12.70842,49.31778]},{"code":"DA/BM-325","program":"gma","name":"Hinterer Hiener","coordinates":[12.70530033,49.32580185]},{"code":"DA/BM-326","program":"gma","name":"Vorderer Hiener","coordinates":[12.71329975,49.30939865]},{"code":"DA/BM-364","program":"gma","name":"Engelberg","coordinates":[12.67560005,49.36360168]},{"code":"DA/BM-366","program":"gma","name":"Öchselsberg","coordinates":[12.69970036,49.27310181]},{"code":"DA/BM-410","program":"gma","name":"Katzenbühl","coordinates":[12.63705,49.25022]},{"code":"DA/BM-428","program":"gma","name":"Kettenberg","coordinates":[12.55919,49.27376]},{"code":"DA/BM-449","program":"gma","name":"Frauenstein","coordinates":[12.53196,49.4655]},{"code":"DA/BM-489","program":"gma","name":"Arberblick","coordinates":[12.71372,49.31484]},{"code":"DA/BM-490","program":"gma","name":"Laubenholz","coordinates":[12.65792,49.25924]},{"code":"DA/BM-521","program":"gma","name":"Altenschneeberg","coordinates":[12.54741,49.43727]},{"code":"OL/PL-060","program":"gma","name":"Lysá <Lysa>","coordinates":[12.7186842,49.48864746]},{"code":"OL/PL-067","program":"gma","name":"Velká skála <Velka skala>","coordinates":[12.74129963,49.46321869]},{"code":"OL/PL-087","program":"gma","name":"Květná skalina <Kvetna skalina>","coordinates":[12.74808025,49.40645981]},{"code":"OL/PL-136","program":"gma","name":"Nad Zámečkem <Nad Zameckem>","coordinates":[12.69270992,49.4300499]},{"code":"OL/PL-165","program":"gma","name":"Kozí vrch <Kozi vrch>","coordinates":[12.66781902,49.45243835]},{"code":"OL/PL-167","program":"gma","name":"Liščín <Liscin>","coordinates":[12.7401104,49.41437149]},{"code":"OL/PL-193","program":"gma","name":"Skalka","coordinates":[12.67446041,49.44279861]},{"code":"OL/PL-219","program":"gma","name":"Nad Lí­skovcem <Nad Liskovcem>","coordinates":[12.67326927,49.46788025]},{"code":"OL/PL-282","program":"gma","name":"Mlýnský vrch <Mlynsky vrch>","coordinates":[12.68495083,49.45199203]},{"code":"OL/PL-399","program":"gma","name":"Huťský vrch <Hutsky vrch>","coordinates":[12.73686028,49.44147873]},{"code":"OL/PL-969","program":"gma","name":"Starý Herštejn <Stary Herstejn>","coordinates":[12.71397,49.47218]},{"code":"OL/PL-980","program":"gma","name":"Záseky <Zaseky>","coordinates":[12.65499973,49.47499847]},{"code":"DM/BM-087","program":"sota","name":"Signalberg","coordinates":[12.5375,49.4636]},{"code":"DM/BM-309","program":"sota","name":"Hochwald","coordinates":[12.6506,49.3022]}]}