{"lat":49.25,"lon":5.75,"programs":["pota","sota","wwbota"],"count":151,"references":[{"code":"FR-8797","program":"pota","name":"FOND DE VALLON DE KAHLER ET PELOUSE CALCAIRE DE LA CROIX SAINT-MARC A OTTANGE Biological Reserve","coordinates":[5.99193,49.443]},{"code":"FR-8798","program":"pota","name":"Carriere de calcaires du Bajocien, Ottange Conservation Area","coordinates":[5.98,49.45]},{"code":"FR-8799","program":"pota","name":"Ancienne mine de la Borne de Fer et sa cuirrasse lateritique du Barremien a Aumetz Conservation Area","coordinates":[5.99193,49.43]},{"code":"FR-8800","program":"pota","name":"CARRIERE DU QUART DE RESERVE A AUDUN LE TICHE Biological Reserve","coordinates":[5.97719,49.4615]},{"code":"FR-8801","program":"pota","name":"ANCIENNES MINES A CIEL OUVERT ET SOUTERRAINES DE MICHEVILLE Biological Reserve","coordinates":[5.91783,49.4855]},{"code":"FR-8803","program":"pota","name":"VALLON DE LA MOULAINE A VILLLERS-LA-MONTAGNE ET HUSSIGNY-GODBRANGE Biological Reserve","coordinates":[5.84046,49.4872]},{"code":"FR-8806","program":"pota","name":"PELOUSE DES QUICON A ERROUVILLE Biological Reserve","coordinates":[5.89992,49.4067]},{"code":"FR-8807","program":"pota","name":"VALLON ET MARAIS DE LA CRUSNES DE SERROUVILLE A MERCY-LE-BAS Biological Reserve","coordinates":[5.82479,49.3974]},{"code":"FR-8809","program":"pota","name":"PELOUSES A FONTOY Biological Reserve","coordinates":[5.99747,49.3573]},{"code":"FR-8812","program":"pota","name":"VALLONS DU CONROY ET DU CHEVILLON DE SANCY A AVRIL Biological Reserve","coordinates":[5.98607,49.3076]},{"code":"FR-9913","program":"pota","name":"VALLON DU NANHOL A L'EST DE PIERREPONT Biological Reserve","coordinates":[5.76802,49.4298]},{"code":"LU-0006","program":"pota","name":"Ellergronn Natura 2000","coordinates":[5.9764,49.4748]},{"code":"LU-0039","program":"pota","name":"Parc vum Galgebierg Natura 2000","coordinates":[5.98198,49.4832]},{"code":"FL/VO-206","program":"sota","name":"La Borne de Fer","coordinates":[5.969683,49.44893]},{"code":"B/F-1737","program":"wwbota","name":"AUMETZ","coordinates":[5.95947,49.414225]},{"code":"B/F-1738","program":"wwbota","name":"AUMETZ - Pamart","coordinates":[5.955809,49.418505]},{"code":"B/F-1739","program":"wwbota","name":"BOCKHOLZ","coordinates":[5.975192,49.452791]},{"code":"B/F-1742","program":"wwbota","name":"BOIS de CRUSNES 1","coordinates":[5.916161,49.440702]},{"code":"B/F-1743","program":"wwbota","name":"BOIS de CRUSNES 2","coordinates":[5.914869,49.44001]},{"code":"B/F-1744","program":"wwbota","name":"BOIS de CRUSNES 4","coordinates":[5.919051,49.441896]},{"code":"B/F-1745","program":"wwbota","name":"BOIS de CRUSNES 5","coordinates":[5.919889,49.441838]},{"code":"B/F-1750","program":"wwbota","name":"BOIS du FOUR","coordinates":[5.843796,49.457726]},{"code":"B/F-1751","program":"wwbota","name":"BOURENE Est - C22","coordinates":[5.879134,49.447623]},{"code":"B/F-1752","program":"wwbota","name":"BOURENE Ouest - C21","coordinates":[5.873647,49.448814]},{"code":"B/F-1753","program":"wwbota","name":"BREHAIN","coordinates":[5.9059,49.44519]},{"code":"B/F-1754","program":"wwbota","name":"BREHAIN Ouest (C2 de l'ouvrage de BREHAIN)","coordinates":[5.897933,49.443033]},{"code":"B/F-1755","program":"wwbota","name":"BURE - C33","coordinates":[5.998878,49.402327]},{"code":"B/F-1760","program":"wwbota","name":"CHENIERES Est - C12","coordinates":[5.768588,49.459181]},{"code":"B/F-1761","program":"wwbota","name":"CHENIERES Ouest - C11","coordinates":[5.764138,49.457991]},{"code":"B/F-1762","program":"wwbota","name":"CRUSNES Est - C25","coordinates":[5.924007,49.439876]},{"code":"B/F-1763","program":"wwbota","name":"CRUSNES Ouest - C24","coordinates":[5.920765,49.441938]},{"code":"B/F-1765","program":"wwbota","name":"Db10","coordinates":[5.951783,49.416766]},{"code":"B/F-1767","program":"wwbota","name":"Db108","coordinates":[5.98765,49.398459]},{"code":"B/F-1768","program":"wwbota","name":"Db11","coordinates":[5.933461,49.436229]},{"code":"B/F-1769","program":"wwbota","name":"Db110","coordinates":[5.97343,49.401457]},{"code":"B/F-1770","program":"wwbota","name":"Db111 - CHEMIN d'AUMETZ 2","coordinates":[5.96983,49.40909]},{"code":"B/F-1771","program":"wwbota","name":"Db112","coordinates":[5.966171,49.398106]},{"code":"B/F-1772","program":"wwbota","name":"Db113 - CHEMIN d'AUMETZ 3","coordinates":[5.964159,49.409774]},{"code":"B/F-1773","program":"wwbota","name":"Db114 - HOLLE d'OTTANGE","coordinates":[5.956644,49.424708]},{"code":"B/F-1774","program":"wwbota","name":"Db115bis","coordinates":[5.944481,49.404792]},{"code":"B/F-1775","program":"wwbota","name":"Db12","coordinates":[5.929329,49.437814]},{"code":"B/F-1776","program":"wwbota","name":"Db120 - LUDELANGE Sud","coordinates":[5.978326,49.399527]},{"code":"B/F-1777","program":"wwbota","name":"Db122 - La CORVEE","coordinates":[5.998643,49.391439]},{"code":"B/F-1778","program":"wwbota","name":"Db123 - CROIX d'AUDUN Nord","coordinates":[5.945238,49.429946]},{"code":"B/F-1779","program":"wwbota","name":"Db124","coordinates":[5.926177,49.417732]},{"code":"B/F-1780","program":"wwbota","name":"Db125 - BOIS de CRUSNES Ouest","coordinates":[5.921559,49.443598]},{"code":"B/F-1781","program":"wwbota","name":"Db126 - BOIS de CRUSNES Est","coordinates":[5.921677,49.443538]},{"code":"B/F-1782","program":"wwbota","name":"Db128 - BOIS de CRUSNES 3","coordinates":[5.916239,49.437459]},{"code":"B/F-1783","program":"wwbota","name":"Db129","coordinates":[5.909614,49.426251]},{"code":"B/F-1784","program":"wwbota","name":"Db13","coordinates":[5.892543,49.442517]},{"code":"B/F-1785","program":"wwbota","name":"Db130 - CROIX d'AUDUN Sud","coordinates":[5.945589,49.429505]},{"code":"B/F-1786","program":"wwbota","name":"Db132 - BEAUSEJOUR 1","coordinates":[5.912305,49.43529]},{"code":"B/F-1787","program":"wwbota","name":"Db133 - BEAUSEJOUR 2","coordinates":[5.912853,49.434095]},{"code":"B/F-1789","program":"wwbota","name":"Db137","coordinates":[5.993008,49.389964]},{"code":"B/F-1790","program":"wwbota","name":"Db139 - CHEMIN d'AUMETZ 1","coordinates":[5.966158,49.411175]},{"code":"B/F-1791","program":"wwbota","name":"Db13a","coordinates":[5.913101,49.438739]},{"code":"B/F-1792","program":"wwbota","name":"Db14","coordinates":[5.8832,49.439759]},{"code":"B/F-1793","program":"wwbota","name":"Db140","coordinates":[5.958327,49.39956]},{"code":"B/F-1794","program":"wwbota","name":"Db143 - VOSAILLES","coordinates":[5.951593,49.428067]},{"code":"B/F-1795","program":"wwbota","name":"Db147 - FOSSE aux BREBIS","coordinates":[5.934647,49.42381]},{"code":"B/F-1796","program":"wwbota","name":"Db15","coordinates":[5.874873,49.441762]},{"code":"B/F-1797","program":"wwbota","name":"Db154","coordinates":[5.907671,49.407995]},{"code":"B/F-1798","program":"wwbota","name":"Db16","coordinates":[5.872419,49.442193]},{"code":"B/F-1799","program":"wwbota","name":"Db17","coordinates":[5.860129,49.451289]},{"code":"B/F-1800","program":"wwbota","name":"Db18","coordinates":[5.822055,49.445958]},{"code":"B/F-1801","program":"wwbota","name":"Db18-D - FOND TOURNA","coordinates":[5.846163,49.455168]},{"code":"B/F-1802","program":"wwbota","name":"Db19","coordinates":[5.811576,49.452659]},{"code":"B/F-1804","program":"wwbota","name":"Db20","coordinates":[5.809768,49.454231]},{"code":"B/F-1805","program":"wwbota","name":"Db202","coordinates":[5.875859,49.435447]},{"code":"B/F-1806","program":"wwbota","name":"Db207","coordinates":[5.855349,49.437419]},{"code":"B/F-1807","program":"wwbota","name":"Db208","coordinates":[5.854385,49.438205]},{"code":"B/F-1808","program":"wwbota","name":"Db209","coordinates":[5.850483,49.440412]},{"code":"B/F-1809","program":"wwbota","name":"Db21","coordinates":[5.800131,49.461247]},{"code":"B/F-1810","program":"wwbota","name":"Db212","coordinates":[5.857837,49.448995]},{"code":"B/F-1811","program":"wwbota","name":"Db213","coordinates":[5.846737,49.453637]},{"code":"B/F-1812","program":"wwbota","name":"Db214 - MORFONTAINE STADE","coordinates":[5.84188,49.448026]},{"code":"B/F-1813","program":"wwbota","name":"Db215","coordinates":[5.834876,49.452427]},{"code":"B/F-1814","program":"wwbota","name":"Db216","coordinates":[5.82131,49.447098]},{"code":"B/F-1815","program":"wwbota","name":"Db217 - MORFONTAINE DEPOT","coordinates":[5.825908,49.447162]},{"code":"B/F-1816","program":"wwbota","name":"Db22","coordinates":[5.798069,49.46215]},{"code":"B/F-1817","program":"wwbota","name":"Db220","coordinates":[5.819275,49.446982]},{"code":"B/F-1818","program":"wwbota","name":"Db221","coordinates":[5.81919,49.446434]},{"code":"B/F-1819","program":"wwbota","name":"Db222","coordinates":[5.813087,49.447347]},{"code":"B/F-1820","program":"wwbota","name":"Db223","coordinates":[5.811014,49.447102]},{"code":"B/F-1821","program":"wwbota","name":"Db224","coordinates":[5.807915,49.447311]},{"code":"B/F-1822","program":"wwbota","name":"Db225","coordinates":[5.809428,49.447454]},{"code":"B/F-1823","program":"wwbota","name":"Db227","coordinates":[5.806271,49.459244]},{"code":"B/F-1824","program":"wwbota","name":"Db229","coordinates":[5.796466,49.450374]},{"code":"B/F-1825","program":"wwbota","name":"Db23","coordinates":[5.790128,49.463762]},{"code":"B/F-1826","program":"wwbota","name":"Db230 - PINAUSET","coordinates":[5.796421,49.450572]},{"code":"B/F-1827","program":"wwbota","name":"Db236 - FOND NOTRE DAME","coordinates":[5.796692,49.452929]},{"code":"B/F-1828","program":"wwbota","name":"Db238","coordinates":[5.787499,49.448918]},{"code":"B/F-1829","program":"wwbota","name":"Db239 - MM267bis","coordinates":[5.785862,49.449479]},{"code":"B/F-1830","program":"wwbota","name":"Db24","coordinates":[5.787079,49.462878]},{"code":"B/F-1831","program":"wwbota","name":"Db241","coordinates":[5.797827,49.457249]},{"code":"B/F-1832","program":"wwbota","name":"Db242","coordinates":[5.777196,49.449695]},{"code":"B/F-1833","program":"wwbota","name":"Db243","coordinates":[5.77041,49.449704]},{"code":"B/F-1834","program":"wwbota","name":"Db244","coordinates":[5.77056,49.449987]},{"code":"B/F-1835","program":"wwbota","name":"Db246 - HAUT de la VIGNE","coordinates":[5.763438,49.450822]},{"code":"B/F-1836","program":"wwbota","name":"Db249","coordinates":[5.763466,49.457286]},{"code":"B/F-1837","program":"wwbota","name":"Db25","coordinates":[5.786475,49.462518]},{"code":"B/F-1838","program":"wwbota","name":"Db252 - HAUT de la VIGNE Nord","coordinates":[5.758361,49.449586]},{"code":"B/F-1839","program":"wwbota","name":"Db253 - HAUT de la VIGNE Sud","coordinates":[5.758193,49.449202]},{"code":"B/F-1840","program":"wwbota","name":"Db254 - BASLIEUX Nord 1","coordinates":[5.751528,49.446298]},{"code":"B/F-1841","program":"wwbota","name":"Db255 - BASLIEUX Nord 2","coordinates":[5.751715,49.446014]},{"code":"B/F-1842","program":"wwbota","name":"Db256","coordinates":[5.767761,49.453489]},{"code":"B/F-1843","program":"wwbota","name":"Db258","coordinates":[5.859928,49.4228]},{"code":"B/F-1844","program":"wwbota","name":"Db26","coordinates":[5.776805,49.454325]},{"code":"B/F-1845","program":"wwbota","name":"Db265 - FOND FLOSSE","coordinates":[5.822066,49.42551]},{"code":"B/F-1848","program":"wwbota","name":"Db3","coordinates":[5.993405,49.402318]},{"code":"B/F-1850","program":"wwbota","name":"Db301","coordinates":[5.75068,49.460579]},{"code":"B/F-1897","program":"wwbota","name":"Db4","coordinates":[5.990951,49.398347]},{"code":"B/F-1906","program":"wwbota","name":"Db5","coordinates":[5.98465,49.405363]},{"code":"B/F-1907","program":"wwbota","name":"Db6","coordinates":[5.984155,49.406521]},{"code":"B/F-1908","program":"wwbota","name":"Db7","coordinates":[5.965791,49.405605]},{"code":"B/F-1909","program":"wwbota","name":"Db8","coordinates":[5.956595,49.418156]},{"code":"B/F-1910","program":"wwbota","name":"Db9","coordinates":[5.956605,49.421838]},{"code":"B/F-1911","program":"wwbota","name":"Dbo1","coordinates":[5.861388,49.405246]},{"code":"B/F-1914","program":"wwbota","name":"Dbo2","coordinates":[5.87268,49.435007]},{"code":"B/F-1915","program":"wwbota","name":"Dbo3","coordinates":[5.813978,49.431303]},{"code":"B/F-1916","program":"wwbota","name":"Dbo4","coordinates":[5.783852,49.42676]},{"code":"B/F-1923","program":"wwbota","name":"FERME THIERY - C20","coordinates":[5.869875,49.449542]},{"code":"B/F-1926","program":"wwbota","name":"FONTOY Gare 1","coordinates":[5.985431,49.353692]},{"code":"B/F-1927","program":"wwbota","name":"FONTOY Gare 2","coordinates":[5.985696,49.353937]},{"code":"B/F-1928","program":"wwbota","name":"FONTOY Gare 3","coordinates":[5.985644,49.354329]},{"code":"B/F-1929","program":"wwbota","name":"GRAMESGRUND 1","coordinates":[5.960146,49.458436]},{"code":"B/F-1930","program":"wwbota","name":"GRAMESGRUND 2","coordinates":[5.961387,49.45402]},{"code":"B/F-1936","program":"wwbota","name":"JALAUMONT Est - C10","coordinates":[5.755683,49.460231]},{"code":"B/F-1937","program":"wwbota","name":"JALAUMONT Ouest - C9","coordinates":[5.751292,49.459971]},{"code":"B/F-1938","program":"wwbota","name":"La FOULCETTE","coordinates":[5.970439,49.458679]},{"code":"B/F-1939","program":"wwbota","name":"LAIX - C13","coordinates":[5.780197,49.46166]},{"code":"B/F-1942","program":"wwbota","name":"Le CONROY","coordinates":[5.985435,49.349281]},{"code":"B/F-1945","program":"wwbota","name":"Les TRICHES 1","coordinates":[5.970456,49.352865]},{"code":"B/F-1946","program":"wwbota","name":"Les TRICHES 2","coordinates":[5.971009,49.353262]},{"code":"B/F-1949","program":"wwbota","name":"MAUVAIS BOIS","coordinates":[5.796096,49.462959]},{"code":"B/F-1952","program":"wwbota","name":"MM272 - Le RATENTOUT Ouest","coordinates":[5.798119,49.497282]},{"code":"B/F-1953","program":"wwbota","name":"MM273 - Le RATENTOUT Est","coordinates":[5.798364,49.497134]},{"code":"B/F-1955","program":"wwbota","name":"MORFONTAINE - C14","coordinates":[5.81031,49.459495]},{"code":"B/F-1956","program":"wwbota","name":"NOUVEAU CRUSNES Est - C27","coordinates":[5.93888,49.433767]},{"code":"B/F-1957","program":"wwbota","name":"NOUVEAU CRUSNES Ouest - C26","coordinates":[5.937067,49.435465]},{"code":"B/F-1958","program":"wwbota","name":"PINAUSET","coordinates":[5.796505,49.450185]},{"code":"B/F-1961","program":"wwbota","name":"RAVIN de CRUSNES - C23","coordinates":[5.916416,49.441856]},{"code":"B/F-1964","program":"wwbota","name":"ROUTE d'OTTANGE Centre - C30","coordinates":[5.952992,49.429635]},{"code":"B/F-1965","program":"wwbota","name":"ROUTE d'OTTANGE Est - C31","coordinates":[5.955287,49.428508]},{"code":"B/F-1966","program":"wwbota","name":"ROUTE d'OTTANGE Ouest - C29","coordinates":[5.951253,49.429856]},{"code":"B/F-1968","program":"wwbota","name":"TRESSANGE - C32","coordinates":[5.978978,49.409136]},{"code":"B/F-1969","program":"wwbota","name":"VERBUSCH Est - C19","coordinates":[5.852741,49.452861]},{"code":"B/F-1970","program":"wwbota","name":"VERBUSCH Ouest - C18","coordinates":[5.851637,49.453594]},{"code":"B/F-1971","program":"wwbota","name":"VILLERS la MONTAGNE Centre - C16","coordinates":[5.824273,49.458256]},{"code":"B/F-1972","program":"wwbota","name":"VILLERS la MONTAGNE Est - C17","coordinates":[5.835529,49.457106]},{"code":"B/F-1973","program":"wwbota","name":"VILLERS la MONTAGNE Ouest - C15","coordinates":[5.82289,49.459527]}]}