{"lat":49.25,"lon":21.75,"programs":["gma","pota","sota"],"count":49,"references":[{"code":"SO/PK-185","program":"gma","name":"GroГ…вЂћ","coordinates":[21.901889,49.359083]},{"code":"SO/PK-231","program":"gma","name":"WertyszГѓВіw","coordinates":[21.901194,49.353139]},{"code":"SO/PK-232","program":"gma","name":"ObГ…вЂљaz","coordinates":[21.769194,49.465111]},{"code":"SO/PK-260","program":"gma","name":"DziaГ…вЂљ","coordinates":[21.777111,49.48075]},{"code":"SO/PK-312","program":"gma","name":"KanasiГѓВіwka","coordinates":[21.95025,49.35325]},{"code":"SO/PK-336","program":"gma","name":"GГѓВіra Pieprzowa","coordinates":[21.782417,49.452472]},{"code":"SO/PK-357","program":"gma","name":"GГѓВіra Klepka","coordinates":[21.755111,49.398167]},{"code":"SO/PK-358","program":"gma","name":"GГѓВіra Garbki","coordinates":[21.798333,49.406556]},{"code":"SO/PK-359","program":"gma","name":"Г…ЕЎredni Wierch","coordinates":[21.759389,49.409]},{"code":"SO/PK-360","program":"gma","name":"GГѓВіra PstrzyГ…вЂћska","coordinates":[21.763556,49.3765]},{"code":"SO/PK-361","program":"gma","name":"GГѓВіra Klin","coordinates":[21.788917,49.358]},{"code":"SO/PK-362","program":"gma","name":"KamieГ…вЂћ","coordinates":[21.820444,49.395667]},{"code":"SO/PK-364","program":"gma","name":"GГѓВіra Dzielec","coordinates":[21.772278,49.431861]},{"code":"SO/PK-365","program":"gma","name":"GГѓВіra Kamarka","coordinates":[21.782583,49.430639]},{"code":"SO/PK-366","program":"gma","name":"GГѓВіra Bania Szklarska","coordinates":[21.825639,49.477722]},{"code":"SO/PK-367","program":"gma","name":"GГѓВіra PolaГ…вЂћska","coordinates":[21.869889,49.465667]},{"code":"SO/PK-368","program":"gma","name":"GГѓВіra Garbki","coordinates":[21.883556,49.465333]},{"code":"SO/PK-369","program":"gma","name":"GГѓВіra Putyska","coordinates":[21.88575,49.479861]},{"code":"SO/PK-370","program":"gma","name":"GГѓВіra DziaГ…вЂљ","coordinates":[21.867972,49.485417]},{"code":"SO/PK-380","program":"gma","name":"GГѓВіra Polana","coordinates":[21.954556,49.488278]},{"code":"SO/PK-381","program":"gma","name":"GГѓВіra Jawornik","coordinates":[21.982639,49.47275]},{"code":"SO/PK-382","program":"gma","name":"GГѓВіra Skibice","coordinates":[21.946778,49.473639]},{"code":"SO/PK-384","program":"gma","name":"GГѓВіra DziaГ…вЂљ","coordinates":[21.925861,49.459806]},{"code":"SO/PK-385","program":"gma","name":"GГѓВіra Berdo","coordinates":[21.951389,49.441917]},{"code":"SO/PK-386","program":"gma","name":"GГѓВіra Kiczera","coordinates":[21.93,49.406944]},{"code":"SO/PK-387","program":"gma","name":"GГѓВіra Debrz","coordinates":[21.883667,49.408889]},{"code":"SO/PK-388","program":"gma","name":"GГѓВіra Kiczera Г…ЕЎrednia","coordinates":[21.967667,49.387917]},{"code":"SO/PK-390","program":"gma","name":"GГѓВіra Kiczerka","coordinates":[21.993806,49.418944]},{"code":"SO/PK-391","program":"gma","name":"GГѓВіra Kiczera","coordinates":[21.989833,49.361833]},{"code":"SO/PK-410","program":"gma","name":"GГѓВіra Popowe CzoГ…вЂљo","coordinates":[21.836,49.402944]},{"code":"SO/PK-411","program":"gma","name":"GГѓВіra Tokarnia","coordinates":[21.765194,49.420222]},{"code":"SO/PK-419","program":"gma","name":"Kiczera","coordinates":[21.933056,49.491833]},{"code":"SO/PK-486","program":"gma","name":"Ubycz","coordinates":[21.977417,49.422389]},{"code":"SO/PK-487","program":"gma","name":"GГѓВіra Hawajska","coordinates":[21.968994,49.406133]},{"code":"SO/PK-489","program":"gma","name":"PaГ…вЂћskie Г…ВЃuki (Smokowiska)","coordinates":[21.9635,49.465806]},{"code":"SO/PK-491","program":"gma","name":"Wilcze Budy","coordinates":[21.999778,49.445278]},{"code":"SO/PK-602","program":"gma","name":"Ruska GГѓВіra","coordinates":[21.855306,49.445583]},{"code":"SO/PK-603","program":"gma","name":"Ibocz","coordinates":[21.847083,49.435472]},{"code":"SO/PK-604","program":"gma","name":"PaГ…вЂћska GГѓВіra","coordinates":[21.817833,49.455194]},{"code":"SO/PK-605","program":"gma","name":"Г…ВЃysa GГѓВіra","coordinates":[21.83431,49.44494]},{"code":"PL-0442","program":"pota","name":"JaЕ›liski Landscape Park","coordinates":[21.8193,49.4071]},{"code":"PL-2140","program":"pota","name":"Е№rГіdliska JasioЕ‚ki Nature Reserve","coordinates":[21.9275,49.3661]},{"code":"PL-2158","program":"pota","name":"KamieЕ„ nad JaЕ›liskami Nature Reserve","coordinates":[21.814,49.3954]},{"code":"PL-2513","program":"pota","name":"Ostoja JaЕ›liska Natura 2000","coordinates":[21.8947,49.448]},{"code":"SK-0027","program":"pota","name":"VГЅchodnГ© Karpaty - Protected Landscape Area","coordinates":[21.938,49.3267]},{"code":"OM/PO-071","program":"sota","name":"BrГєsy","coordinates":[21.8622,49.2995]},{"code":"SP/BS-007","program":"sota","name":"KamieЕ„","coordinates":[21.8206,49.397]},{"code":"SP/BS-008","program":"sota","name":"Wielki Bukowiec (Pasika)","coordinates":[21.9662,49.3451]},{"code":"SP/BS-017","program":"sota","name":"Jawornik","coordinates":[21.8507,49.4812]}]}