{"lat":49.25,"lon":-121.25,"programs":["sota"],"count":28,"references":[{"code":"VE7/FV-196","program":"sota","name":"Mount Outram","coordinates":[-121.1583,49.2896]},{"code":"VE7/FV-233","program":"sota","name":"Tulameen Mountain","coordinates":[-121.116,49.3874]},{"code":"VE7/FV-244","program":"sota","name":"Mount Dewdney","coordinates":[-121.0596,49.2769]},{"code":"VE7/FV-250","program":"sota","name":"Mount Hatfield","coordinates":[-121.1828,49.3268]},{"code":"VE7/FV-253","program":"sota","name":"VE7/FV-253","coordinates":[-121.1278,49.387]},{"code":"VE7/FV-267","program":"sota","name":"MacLeod Peak","coordinates":[-121.2129,49.3287]},{"code":"VE7/FV-275","program":"sota","name":"Mount Manson","coordinates":[-121.175,49.3063]},{"code":"VE7/FV-291","program":"sota","name":"Mount Ford","coordinates":[-121.0723,49.2523]},{"code":"VE7/FV-336","program":"sota","name":"Punch Peak (Snass W2)","coordinates":[-121.004,49.2751]},{"code":"VE7/FV-339","program":"sota","name":"Mount Snider","coordinates":[-121.1702,49.4211]},{"code":"VE7/FV-347","program":"sota","name":"Johnson Peak (Manson Ridge)","coordinates":[-121.2059,49.2972]},{"code":"VE7/FV-352","program":"sota","name":"Mount Davis","coordinates":[-121.0941,49.3427]},{"code":"VE7/FV-369","program":"sota","name":"Johnson NW2","coordinates":[-121.2238,49.3044]},{"code":"VE7/FV-374","program":"sota","name":"Cedarflat Peak","coordinates":[-121.114,49.4459]},{"code":"VE7/FV-379","program":"sota","name":"VE7/FV-379","coordinates":[-121.1083,49.2613]},{"code":"VE7/FV-429","program":"sota","name":"Peers Peak","coordinates":[-121.2188,49.3614]},{"code":"VE7/FV-430","program":"sota","name":"VE7/FV-430","coordinates":[-121.0936,49.4702]},{"code":"VE7/FV-488","program":"sota","name":"Brigade Peak","coordinates":[-121.2468,49.3867]},{"code":"VE7/FV-530","program":"sota","name":"VE7/FV-530","coordinates":[-121.2112,49.4357]},{"code":"VE7/FV-557","program":"sota","name":"VE7/FV-557","coordinates":[-121.1817,49.4778]},{"code":"VE7/OS-060","program":"sota","name":"Mount Sutter","coordinates":[-121.0954,49.4342]},{"code":"VE7/OS-064","program":"sota","name":"Cunningham Peak","coordinates":[-121.0322,49.3628]},{"code":"VE7/OS-067","program":"sota","name":"Chisholm Peak","coordinates":[-121.0088,49.3958]},{"code":"VE7/OS-075","program":"sota","name":"Battleford Peak","coordinates":[-121.0388,49.3179]},{"code":"VE7/OS-079","program":"sota","name":"VE7/OS-079","coordinates":[-121.0145,49.4713]},{"code":"VE7/OS-089","program":"sota","name":"VE7/OS-089","coordinates":[-121.0096,49.3314]},{"code":"VE7/OS-093","program":"sota","name":"VE7/OS-093","coordinates":[-121.077,49.3685]},{"code":"VE7/OS-097","program":"sota","name":"Treasure Mountain","coordinates":[-121.0583,49.4217]}]}