{"lat":49.25,"lon":8.5,"programs":["gma","pota","sota"],"count":10,"references":[{"code":"DA/BW-287","program":"gma","name":"Galgenberg","coordinates":[8.69779968,49.25780106]},{"code":"DA/BW-288","program":"gma","name":"Letzenberg","coordinates":[8.67860031,49.25109863]},{"code":"DA/BW-289","program":"gma","name":"Wallenberg","coordinates":[8.7407999,49.27030182]},{"code":"DA/BW-292","program":"gma","name":"Hirschberg","coordinates":[8.71170044,49.33390045]},{"code":"DA/BW-343","program":"gma","name":"Hohe Nistler","coordinates":[8.70779991,49.44580078]},{"code":"DA/BW-344","program":"gma","name":"Heiligenberg","coordinates":[8.70639992,49.42580032]},{"code":"DA/BW-486","program":"gma","name":"Wilhau","coordinates":[8.72389984,49.26390076]},{"code":"DA/BW-756","program":"gma","name":"Weißer Stein","coordinates":[8.72280025,49.4530983]},{"code":"DE-1218","program":"pota","name":"Unterer Neckar Heidelberg - Mannheim Flora and Fauna Reserve","coordinates":[8.61154,49.4564]},{"code":"DM/BW-114","program":"sota","name":"Königstuhl","coordinates":[8.730132,49.402588]}]}