{"lat":49.25,"lon":2.5,"programs":["pota","sota"],"count":7,"references":[{"code":"FR-3058","program":"pota","name":"Marais de Sacy le Grand FR2200378 Natura 2000","coordinates":[2.55972,49.3367]},{"code":"FR-3060","program":"pota","name":"Massifs forestiers d Halatte de Chantilly et d Ermenonville FR2200382 Natura 2000","coordinates":[2.63778,49.2806]},{"code":"FR-11214","program":"pota","name":"Bois de Trois Etots et de Pronleroy Biological Reserve","coordinates":[2.54409,49.467]},{"code":"FR-11218","program":"pota","name":"Foret de Remy et bois de Pieumelle Biological Reserve","coordinates":[2.6009,49.4155]},{"code":"FR-11219","program":"pota","name":"Bois des Cotes, montagnes de Verderonne, du Moulin et de Berthaut Biological Reserve","coordinates":[2.50304,49.3489]},{"code":"FL/NO-025","program":"sota","name":"Mont Pagnotte","coordinates":[2.6401,49.2797]},{"code":"FL/NO-121","program":"sota","name":"Mont Cesar, Catenoy","coordinates":[2.5123,49.3625]}]}