{"lat":49.25,"lon":10.75,"programs":["gma","pota","wwbota"],"count":8,"references":[{"code":"DA/BM-587","program":"gma","name":"Dillenberg / Holzmichelbuck","coordinates":[10.7819,49.45306]},{"code":"DE-0506","program":"pota","name":"Stadtpark Fürth National Recreation Area","coordinates":[10.9969,49.4737]},{"code":"DE-0896","program":"pota","name":"Fürther Stadtwald Provincial Recreation Area","coordinates":[10.9148,49.4684]},{"code":"DE-0907","program":"pota","name":"Hainberg Nature Reserve","coordinates":[10.9928,49.4265]},{"code":"DE-0912","program":"pota","name":"Grün für alle National Recreation Area","coordinates":[10.971,49.4296]},{"code":"DE-0935","program":"pota","name":"Alte Veste Historic Site","coordinates":[10.9658,49.4531]},{"code":"B/DL-0225","program":"wwbota","name":"Fanbunker Fürth","coordinates":[10.995383,49.489819]},{"code":"B/DL-0226","program":"wwbota","name":"Bunker bei Fürth","coordinates":[10.929139,49.471597]}]}