{"lat":49.25,"lon":15.5,"programs":["gma","wwbota"],"count":22,"references":[{"code":"OL/VY-039","program":"gma","name":"Mistrovský kopec <Mistrovsky kopec>","coordinates":[15.5125462,49.2883009]},{"code":"OL/VY-046","program":"gma","name":"Kosovský vrch <Kosovsky vrch>","coordinates":[15.5135962,49.4949667]},{"code":"OL/VY-048","program":"gma","name":"Venuší­n <Venusin>","coordinates":[15.5120044,49.4747532]},{"code":"OL/VY-050","program":"gma","name":"Malý Špičák <Maly Spicak>","coordinates":[15.5073745,49.3203466]},{"code":"OL/VY-056","program":"gma","name":"Vysoký kámen <Vysoky kamen>","coordinates":[15.566973,49.4629833]},{"code":"OL/VY-058","program":"gma","name":"Kostelecký vrch <Kostelecky vrch>","coordinates":[15.5060004,49.3581322]},{"code":"OL/VY-061","program":"gma","name":"Prosekaná <Prosekana>","coordinates":[15.7019393,49.2848589]},{"code":"OL/VY-076","program":"gma","name":"U Serpentinky","coordinates":[15.569947,49.4802389]},{"code":"OL/VY-090","program":"gma","name":"Rudný <Rudny>","coordinates":[15.5812148,49.4349562]},{"code":"OL/VY-093","program":"gma","name":"Strážka <Strazka>","coordinates":[15.6867457,49.2997744]},{"code":"OL/VY-096","program":"gma","name":"Strážnice <Straznice>","coordinates":[15.70108,49.31338]},{"code":"OL/VY-125","program":"gma","name":"Pekelský vrch <Pekelsky vrch>","coordinates":[15.511345,49.3954562]},{"code":"OL/VY-128","program":"gma","name":"Březina <Brezina>","coordinates":[15.709143,49.4647535]},{"code":"OL/VY-144","program":"gma","name":"Bransouzský vrch <Bransouzsky vrch>","coordinates":[15.737506,49.3093203]},{"code":"OL/VY-175","program":"gma","name":"Špičák <Spicak>","coordinates":[15.51099968,49.31200027]},{"code":"OL/VY-185","program":"gma","name":"Roháč <Rohac>","coordinates":[15.52600002,49.45800018]},{"code":"OL/VY-186","program":"gma","name":"Popický vrch <Popicky vrch>","coordinates":[15.52200031,49.3429985]},{"code":"OL/VY-224","program":"gma","name":"Salátův kopec <Salatuv kopec>","coordinates":[15.72200012,49.25600052]},{"code":"B/OK-5087","program":"wwbota","name":"Pozorovatelna civilni obrany","coordinates":[15.5558261,49.4201258]},{"code":"B/OK-5088","program":"wwbota","name":"Pozorovatelna civilni obrany","coordinates":[15.5804125,49.3815547]},{"code":"B/OK-5089","program":"wwbota","name":"Pozorovatelna civilni obrany","coordinates":[15.6156631,49.3705603]},{"code":"B/OK-5090","program":"wwbota","name":"Einmannbunker","coordinates":[15.5968394,49.3939614]}]}