{"lat":49.25,"lon":10.25,"programs":["gma","pota"],"count":8,"references":[{"code":"DA/BM-108","program":"gma","name":"Büchelberg","coordinates":[10.39309978,49.27750015]},{"code":"DA/BM-109","program":"gma","name":"Schwander Berg","coordinates":[10.32530022,49.2881012]},{"code":"DA/BM-112","program":"gma","name":"Schäfersberg","coordinates":[10.2638998,49.3608017]},{"code":"DA/BM-114","program":"gma","name":"Teufelshäusel","coordinates":[10.30309963,49.44110107]},{"code":"DA/BM-115","program":"gma","name":"Petersberg","coordinates":[10.38059998,49.43669891]},{"code":"DA/BM-117","program":"gma","name":"Deutscher Bühl","coordinates":[10.42469978,49.39080048]},{"code":"DA/BM-580","program":"gma","name":"Sauhochranken","coordinates":[10.277344,49.276003]},{"code":"DE-0019","program":"pota","name":"Frankenhöhe Nature Park","coordinates":[10.4095,49.3898]}]}