{"lat":49.25,"lon":11.5,"programs":["gma","sota"],"count":16,"references":[{"code":"DA/BM-170","program":"gma","name":"Dietrichstein","coordinates":[11.59469986,49.34170151]},{"code":"DA/BM-171","program":"gma","name":"Bromberg","coordinates":[11.71640015,49.30970001]},{"code":"DA/BM-177","program":"gma","name":"Kalvariberg","coordinates":[11.67420006,49.3608017]},{"code":"DA/BM-225","program":"gma","name":"Habsberg","coordinates":[11.632,49.314]},{"code":"DA/BM-446","program":"gma","name":"Haunberg","coordinates":[11.5631,49.35974]},{"code":"DA/BM-479","program":"gma","name":"Kappersberg","coordinates":[11.597777,49.441666]},{"code":"DA/BM-536","program":"gma","name":"Lichtenegg (Ruine)","coordinates":[11.5931,49.48114]},{"code":"DA/BM-538","program":"gma","name":"Hochberg (Mittelburg)","coordinates":[11.5307,49.48087]},{"code":"DA/BM-566","program":"gma","name":"Hohe Ried","coordinates":[11.601,49.3179]},{"code":"DA/BM-567","program":"gma","name":"Leherberg","coordinates":[11.574739,49.420224]},{"code":"DA/BM-568","program":"gma","name":"Dürrling","coordinates":[11.66609698,49.34488781]},{"code":"DA/BM-569","program":"gma","name":"Fichta","coordinates":[11.67470385,49.32032684]},{"code":"DA/BM-570","program":"gma","name":"Plankenstein - Burgstall","coordinates":[11.63161297,49.26503196]},{"code":"DA/BM-571","program":"gma","name":"Bärenfelsen - Brunnberg","coordinates":[11.60343982,49.43713079]},{"code":"DA/BM-579","program":"gma","name":"Bärenberg","coordinates":[11.64996,49.43213]},{"code":"DM/BM-256","program":"sota","name":"Poppberg","coordinates":[11.5847,49.4136]}]}