{"lat":49.25,"lon":-114.5,"programs":["gma","pota","sota"],"count":22,"references":[{"code":"VA6/BK-003","program":"gma","name":"Poker Peak","coordinates":[-114.38899994,49.4980011]},{"code":"CA-2969","program":"pota","name":"Castle Falls Natural Area","coordinates":[-114.322,49.4453]},{"code":"CA-2971","program":"pota","name":"Castle Provincial Park","coordinates":[-114.337,49.4013]},{"code":"CA-2972","program":"pota","name":"Castle Wildland Provincial Park","coordinates":[-114.31,49.276]},{"code":"CA-3159","program":"pota","name":"West Castle Wetlands Ecological Reserve","coordinates":[-114.414,49.328]},{"code":"VE6/BK-015","program":"sota","name":"Table Mountain","coordinates":[-114.25897,49.362366]},{"code":"VE6/BK-030","program":"sota","name":"Mount Haig","coordinates":[-114.4464,49.288914]},{"code":"VE6/BK-039","program":"sota","name":"Syncline Mountain","coordinates":[-114.46063,49.358536]},{"code":"VE6/BK-042","program":"sota","name":"Saint Eloi Mountain","coordinates":[-114.479515,49.326717]},{"code":"VE6/BK-045","program":"sota","name":"Barnaby Peak","coordinates":[-114.3686,49.3047]},{"code":"VE6/BK-046","program":"sota","name":"Saint Eloi SW1","coordinates":[-114.49282,49.322327]},{"code":"VE6/BK-049","program":"sota","name":"Barndoor Peak","coordinates":[-114.3753,49.3193]},{"code":"VE6/BK-063","program":"sota","name":"Triangle Peak","coordinates":[-114.258286,49.31975]},{"code":"VE6/BK-072","program":"sota","name":"Poker Peak","coordinates":[-114.38982,49.49924]},{"code":"VE6/BK-073","program":"sota","name":"Carbondale Hill","coordinates":[-114.357506,49.430264]},{"code":"VE6/BK-085","program":"sota","name":"Gravenstafel Ridge","coordinates":[-114.4425,49.31]},{"code":"VE6/BK-089","program":"sota","name":"Rainy Ridge N1","coordinates":[-114.3839,49.2672]},{"code":"VE6/BK-095","program":"sota","name":"Mount Backus","coordinates":[-114.2719,49.4359]},{"code":"VE6/BK-096","program":"sota","name":"Cherry Hill","coordinates":[-114.4426,49.4478]},{"code":"VE6/BK-098","program":"sota","name":"Backus N1","coordinates":[-114.2562,49.4791]},{"code":"VE6/BK-102","program":"sota","name":"Backus S1","coordinates":[-114.2974,49.3964]},{"code":"VE6/BK-103","program":"sota","name":"Carbondale NW1","coordinates":[-114.3989,49.447]}]}