{"lat":49.25,"lon":15.25,"programs":["gma","pota"],"count":24,"references":[{"code":"OL/VY-014","program":"gma","name":"Skelný vrch <Skelny vrch>","coordinates":[15.3442213,49.2558225]},{"code":"OL/VY-020","program":"gma","name":"Rovina","coordinates":[15.361472,49.2544745]},{"code":"OL/VY-021","program":"gma","name":"Mešnice <Mesnice>","coordinates":[15.3975316,49.3775897]},{"code":"OL/VY-028","program":"gma","name":"Čertův hrádek <Certuv hradek>","coordinates":[15.4054883,49.3668039]},{"code":"OL/VY-029","program":"gma","name":"Strážník <Straznik>","coordinates":[15.452579,49.4679444]},{"code":"OL/VY-030","program":"gma","name":"Přední­ skála <Predni skala>","coordinates":[15.425009,49.3624522]},{"code":"OL/VY-031","program":"gma","name":"Ří­delovský kopec <Ridelovsky kopec>","coordinates":[15.3869431,49.2518464]},{"code":"OL/VY-032","program":"gma","name":"Huťský vrch <Hutsky vrch>","coordinates":[15.4421487,49.3663142]},{"code":"OL/VY-034","program":"gma","name":"Skalky","coordinates":[15.4993569,49.4852785]},{"code":"OL/VY-036","program":"gma","name":"Farářský kopec <Fararsky kopec>","coordinates":[15.4030235,49.2589606]},{"code":"OL/VY-040","program":"gma","name":"Borový vrch <Borovy vrch>","coordinates":[15.4134485,49.442226]},{"code":"OL/VY-043","program":"gma","name":"Vyštěnec <Vystenec>","coordinates":[15.427291,49.2569844]},{"code":"OL/VY-054","program":"gma","name":"Bojanov","coordinates":[15.3869897,49.4736559]},{"code":"OL/VY-057","program":"gma","name":"Boucko","coordinates":[15.4437698,49.4209214]},{"code":"OL/VY-063","program":"gma","name":"Hamr","coordinates":[15.4634707,49.2520235]},{"code":"OL/VY-078","program":"gma","name":"U Sv. Antoní­na <U Sv. Antonina>","coordinates":[15.4886946,49.4127527]},{"code":"OL/VY-085","program":"gma","name":"Soví hať <Sovi hat>","coordinates":[15.3689986,49.4821339]},{"code":"OL/VY-168","program":"gma","name":"Křemešní­k <Kremesnik>","coordinates":[15.32900047,49.40499878]},{"code":"OL/VY-169","program":"gma","name":"Čeří­nek <Cerinek>","coordinates":[15.43700027,49.37599945]},{"code":"OL/VY-170","program":"gma","name":"Lí­sek <Lisek>","coordinates":[15.28199959,49.27600098]},{"code":"OL/VY-179","program":"gma","name":"Ještěnice <Jestenice>","coordinates":[15.33199978,49.27500153]},{"code":"OL/VY-223","program":"gma","name":"Hanzalka <Hanzalka>","coordinates":[15.43900013,49.30599976]},{"code":"OL/VY-233","program":"gma","name":"Zbinožský kopec <Zbinozsky kopec>","coordinates":[15.4880897,49.482675]},{"code":"CZ-0047","program":"pota","name":"Čeřínek Nature Park","coordinates":[15.4304,49.3658]}]}