{"lat":49.25,"lon":19.25,"programs":["pota","sota"],"count":5,"references":[{"code":"SK-0019","program":"pota","name":"Horná Orava - Protected Landscape Area","coordinates":[19.38,49.435]},{"code":"OM/ZA-048","program":"sota","name":"Budín","coordinates":[19.4522,49.3441]},{"code":"OM/ZA-094","program":"sota","name":"Štibel","coordinates":[19.2512,49.3463]},{"code":"OM/ZA-097","program":"sota","name":"Vráta","coordinates":[19.3904,49.4118]},{"code":"OM/ZA-101","program":"sota","name":"Kamenný vrch","coordinates":[19.3025,49.3734]}]}