{"lat":49.25,"lon":-121.75,"programs":["pota","sota"],"count":24,"references":[{"code":"CA-3499","program":"pota","name":"F.H. Barber Provincial Park","coordinates":[-121.635,49.3137]},{"code":"CA-4061","program":"pota","name":"Sasquatch Provincial Park","coordinates":[-121.747,49.3433]},{"code":"VE7/FV-030","program":"sota","name":"Mount Ludwig","coordinates":[-121.6515,49.2658]},{"code":"VE7/FV-032","program":"sota","name":"Lookout Peak","coordinates":[-121.7354,49.4412]},{"code":"VE7/FV-034","program":"sota","name":"Slollicum Peak","coordinates":[-121.7168,49.4083]},{"code":"VE7/FV-375","program":"sota","name":"Sowerby Peak","coordinates":[-121.5277,49.2593]},{"code":"VE7/FV-421","program":"sota","name":"Hunter Peak","coordinates":[-121.5073,49.292]},{"code":"VE7/FV-438","program":"sota","name":"Mount Baird","coordinates":[-121.5607,49.4901]},{"code":"VE7/FV-453","program":"sota","name":"Mount McNair","coordinates":[-121.662,49.4668]},{"code":"VE7/FV-469","program":"sota","name":"Emory Peak","coordinates":[-121.5978,49.4838]},{"code":"VE7/FV-484","program":"sota","name":"Mount Parker","coordinates":[-121.6487,49.455]},{"code":"VE7/FV-514","program":"sota","name":"VE7/FV-514","coordinates":[-121.7015,49.4053]},{"code":"VE7/FV-516","program":"sota","name":"Field Peak","coordinates":[-121.7243,49.4862]},{"code":"VE7/FV-523","program":"sota","name":"Chawuthen Peak","coordinates":[-121.5173,49.3393]},{"code":"VE7/FV-527","program":"sota","name":"VE7/FV-527","coordinates":[-121.6813,49.48]},{"code":"VE7/FV-534","program":"sota","name":"Arcade Peak","coordinates":[-121.5589,49.41]},{"code":"VE7/FV-538","program":"sota","name":"VE7/FV-538","coordinates":[-121.5843,49.4568]},{"code":"VE7/FV-547","program":"sota","name":"Mount Devoy","coordinates":[-121.5713,49.319]},{"code":"VE7/FV-555","program":"sota","name":"Dog NW1","coordinates":[-121.5096,49.4055]},{"code":"VE7/FV-568","program":"sota","name":"Bear Mountain","coordinates":[-121.7406,49.3006]},{"code":"VE7/FV-572","program":"sota","name":"Sasquatch Peak","coordinates":[-121.6665,49.358]},{"code":"VE7/FV-573","program":"sota","name":"Sasquatch S3","coordinates":[-121.6707,49.3295]},{"code":"VE7/FV-574","program":"sota","name":"Mount Hicks","coordinates":[-121.6574,49.3436]},{"code":"VE7/FV-594","program":"sota","name":"VE7/FV-594","coordinates":[-121.6959,49.3581]}]}