{"lat":49.25,"lon":11,"programs":["gma","pota","wwbota"],"count":9,"references":[{"code":"DA/BM-584","program":"gma","name":"Schweinauer Buck","coordinates":[11.04595,49.42193]},{"code":"DA/BM-585","program":"gma","name":"Silberbuck","coordinates":[11.11426,49.42042]},{"code":"DA/BM-586","program":"gma","name":"Foehrenbuck","coordinates":[11.07016,49.39439]},{"code":"DE-0596","program":"pota","name":"Jakobsweg Nürnberg & Ansbach bis Konstanz National Historic Trail","coordinates":[11.0696,49.4495]},{"code":"DE-0159","program":"pota","name":"Volkspark Marienberg Recreation Park","coordinates":[11.0927,49.4817]},{"code":"DE-0571","program":"pota","name":"Dutzendteich Nature Reserve","coordinates":[11.114,49.4268]},{"code":"DE-0687","program":"pota","name":"Lorenzer Reichswald National Recreation Area","coordinates":[11.2072,49.438]},{"code":"B/DL-0227","program":"wwbota","name":"Bunker Wodanstraße","coordinates":[11.095303,49.437461]},{"code":"B/DL-0228","program":"wwbota","name":"Palmenhofbunker","coordinates":[11.068642,49.451306]}]}