{"lat":49.25,"lon":-1.75,"programs":["pota"],"count":27,"references":[{"code":"FR-2769","program":"pota","name":"LITTORAL OUEST DU COTENTIN DE SAINT GERMAIN SUR AY AU ROZEL FR2500082  NATURA 2000 Natura 2000","coordinates":[-1.70028,49.3236]},{"code":"FR-3951","program":"pota","name":"Sangsuriere et de l adriennerie National Nature Reserve","coordinates":[-1.54935,49.3449]},{"code":"FR-8865","program":"pota","name":"MARAIS DE LA VALLEE DU GORGET Biological Reserve","coordinates":[-1.52824,49.3486]},{"code":"FR-8873","program":"pota","name":"Marais De Sangsurière ; Seuil Du Fil Du Gorget Biological Reserve","coordinates":[-1.53309,49.3512]},{"code":"FR-9124","program":"pota","name":"PLATIERS ROCHEUX DE CARTERET A ST-GERMAIN-S/-AY Biological Reserve","coordinates":[-1.70787,49.2903]},{"code":"FR-9125","program":"pota","name":"Schistes et calcaires cambriens de Saint-Jean-de-la-Riviere Conservation Area","coordinates":[-1.7,49.3]},{"code":"FR-9126","program":"pota","name":"DUNES DE PORTBAIL Biological Reserve","coordinates":[-1.741,49.3449]},{"code":"FR-9127","program":"pota","name":"HAVRE ET DUNES DE PORTBAIL Biological Reserve","coordinates":[-1.70247,49.3257]},{"code":"FR-9128","program":"pota","name":"ESTUAIRE DE PORTBAIL Biological Reserve","coordinates":[-1.70435,49.3326]},{"code":"FR-9129","program":"pota","name":"Havre de Portbail Conservation Area","coordinates":[-1.70435,49.3326]},{"code":"FR-9130","program":"pota","name":"DUNES DE VARREVILLE Biological Reserve","coordinates":[-1.7,49.3113]},{"code":"FR-9131","program":"pota","name":"HAVRE DE SURVILLE Biological Reserve","coordinates":[-1.67497,49.2833]},{"code":"FR-9132","program":"pota","name":"DUNES DE LINDBERGH Biological Reserve","coordinates":[-1.69836,49.3217]},{"code":"FR-9267","program":"pota","name":"LES PETITE ET GROSSE ROCHES Biological Reserve","coordinates":[-1.59141,49.4934]},{"code":"FR-9268","program":"pota","name":"BOIS A L'OUEST DE BRICQUEBEC Biological Reserve","coordinates":[-1.7091,49.4625]},{"code":"FR-9270","program":"pota","name":"SECTEUR TOURBEUX DE SAINT-MAURICE-EN-COTENTIN Biological Reserve","coordinates":[-1.69237,49.407]},{"code":"FR-9271","program":"pota","name":"FORET DE SAINT-SAUVEUR ET LANDES DU MONT DE BESNEVILLE Biological Reserve","coordinates":[-1.5895,49.3861]},{"code":"FR-9272","program":"pota","name":"SOMMETS GRESEUX DU COTENTIN Biological Reserve","coordinates":[-1.50304,49.3032]},{"code":"FR-9273","program":"pota","name":"LANDES D'ETENCLIN Biological Reserve","coordinates":[-1.52428,49.3318]},{"code":"FR-9450","program":"pota","name":"Gres armoricain a Bricquebec Conservation Area","coordinates":[-1.7,49.465]},{"code":"FR-9455","program":"pota","name":"Gres ordovicien a Fierville-les-Mines Conservation Area","coordinates":[-1.7,49.407]},{"code":"FR-9456","program":"pota","name":"Faluns cretaces et tertiaires a Nehou Conservation Area","coordinates":[-1.57,49.395]},{"code":"FR-9457","program":"pota","name":"Calcaires fossiliferes eocenes a Hautteville-Bocage Conservation Area","coordinates":[-1.57,49.4]},{"code":"FR-9461","program":"pota","name":"Gres ordovicien a Rauville-la-Place Conservation Area","coordinates":[-1.592,49.389]},{"code":"FR-9462","program":"pota","name":"Butte de gres ordovicien du Mont de Besneville Conservation Area","coordinates":[-1.59,49.39]},{"code":"FR-9463","program":"pota","name":"Marnes pleistocenes de Saint-Nicolas-de-Pierrepont Biological Reserve","coordinates":[-1.507,49.31]},{"code":"FR-9464","program":"pota","name":"Gres ordovicien au Mont de Doville Conservation Area","coordinates":[-1.502,49.298]}]}