{"lat":49.25,"lon":-2.75,"programs":["pota","sota","wwbota"],"count":14,"references":[{"code":"GG-0001","program":"pota","name":"Sausmarez Park","coordinates":[-2.57931,49.4696]},{"code":"GG-0002","program":"pota","name":"Delancey Park","coordinates":[-2.52602,49.4784]},{"code":"GG-0003","program":"pota","name":"Cambridge Park","coordinates":[-2.54111,49.4607]},{"code":"GG-0004","program":"pota","name":"St Germain Nature Reserve","coordinates":[-2.59407,49.4669]},{"code":"GG-0005","program":"pota","name":"Lihou Island Nature Reserve","coordinates":[-2.66822,49.4608]},{"code":"GG-0006","program":"pota","name":"Le Grande Pré Nature Reserve","coordinates":[-2.51261,49.4977]},{"code":"GG-0007","program":"pota","name":"Bordeaux Nature Reserve","coordinates":[-2.50529,49.4919]},{"code":"GG-0008","program":"pota","name":"Port Soif/Portinfer Dunes Nature Reserve Nature Reserve","coordinates":[-2.58421,49.488]},{"code":"GU/GU-002","program":"sota","name":"Guernsey Airport","coordinates":[-2.5977,49.4309]},{"code":"B/GU-0001","program":"wwbota","name":"Guernsey Civil Defence HQ","coordinates":[-2.556523,49.447067]},{"code":"B/GU-0002","program":"wwbota","name":"St Martin Monitoring Post","coordinates":[-2.534543,49.428205]},{"code":"B/GU-0003","program":"wwbota","name":"Torteval Monitoring Post","coordinates":[-2.657925,49.432611]},{"code":"B/GU-0004","program":"wwbota","name":"Vale Monitoring Post","coordinates":[-2.520698,49.493842]},{"code":"B/GU-0006","program":"wwbota","name":"East Coast Command Bunker, Beau Sejour, Guernsey","coordinates":[-2.54103,49.46336]}]}