{"lat":49.25,"lon":13,"programs":["gma","pota","sota","wwbota"],"count":96,"references":[{"code":"DA/BM-199","program":"gma","name":"Auf der Schanz","coordinates":[13.04948425,49.25355148]},{"code":"OL/PL-093","program":"gma","name":"Želivský vrch <Zelivsky vrch>","coordinates":[13.2122221,49.28035355]},{"code":"OL/PL-098","program":"gma","name":"Hora","coordinates":[13.07678223,49.40814972]},{"code":"OL/PL-107","program":"gma","name":"Kameňák <Kamenak>","coordinates":[13.05221462,49.27078629]},{"code":"OL/PL-110","program":"gma","name":"Čertův vrch <Certuv vrch>","coordinates":[13.09202099,49.38774872]},{"code":"OL/PL-119","program":"gma","name":"Černá skála <Cerna skala>","coordinates":[13.11500263,49.38064194]},{"code":"OL/PL-131","program":"gma","name":"Orlovická hora <Orlovicka hora>","coordinates":[13.08523273,49.32696915]},{"code":"OL/PL-139","program":"gma","name":"Malá Doubrava <mala Doubrava>","coordinates":[13.20786572,49.42767334]},{"code":"OL/PL-149","program":"gma","name":"Velký Bí­tov <Velky Bitov>","coordinates":[13.17866135,49.39994431]},{"code":"OL/PL-154","program":"gma","name":"Lišák <Lisak>","coordinates":[13.06263638,49.30234146]},{"code":"OL/PL-181","program":"gma","name":"Kravař <Kravar>","coordinates":[13.05045986,49.41001511]},{"code":"OL/PL-182","program":"gma","name":"Kněžská hora <Knezska hora>","coordinates":[13.06675529,49.38265228]},{"code":"OL/PL-185","program":"gma","name":"Malý Bí­tov <Maly Bitov>","coordinates":[13.19423962,49.41414642]},{"code":"OL/PL-195","program":"gma","name":"Nový Herštejn - ruins <Novy Herstejn - Ruins>","coordinates":[13.06504822,49.41486359]},{"code":"OL/PL-198","program":"gma","name":"Škarman <Skarman>","coordinates":[13.04163933,49.40439606]},{"code":"OL/PL-229","program":"gma","name":"Malý Kouřim <Maly Kourim>","coordinates":[13.11983871,49.43008804]},{"code":"OL/PL-231","program":"gma","name":"Bezný <Bezny>","coordinates":[13.03441238,49.37548447]},{"code":"OL/PL-234","program":"gma","name":"U Vlčí­ jámy <U Vlci jamy>","coordinates":[13.07351017,49.45228577]},{"code":"OL/PL-250","program":"gma","name":"Dubovka","coordinates":[13.10336018,49.41975021]},{"code":"OL/PL-251","program":"gma","name":"U Linharta","coordinates":[13.10406971,49.42565918]},{"code":"OL/PL-263","program":"gma","name":"Čepice <Cepice>","coordinates":[13.02849293,49.37192917]},{"code":"OL/PL-264","program":"gma","name":"Chlumek","coordinates":[13.06871319,49.35519409]},{"code":"OL/PL-265","program":"gma","name":"Svatá Markéta <Svata Marketa>","coordinates":[13.15636539,49.36223984]},{"code":"OL/PL-266","program":"gma","name":"Velký Kouřim <Velky Kourim>","coordinates":[13.11513329,49.43483353]},{"code":"OL/PL-268","program":"gma","name":"Dobrá hora <Dobra hora>","coordinates":[13.07512665,49.36587906]},{"code":"OL/PL-274","program":"gma","name":"Na Porovnání­ <Na Porovnani>","coordinates":[13.19600773,49.3116951]},{"code":"OL/PL-277","program":"gma","name":"Suchá hora <Sucha hora>","coordinates":[13.09293747,49.41532898]},{"code":"OL/PL-306","program":"gma","name":"Vyhlí­dka <Vyhlidka>","coordinates":[13.13125992,49.43793869]},{"code":"OL/PL-320","program":"gma","name":"Medvědí­ vrch <Medvedi vrch>","coordinates":[13.05946541,49.31301117]},{"code":"OL/PL-336","program":"gma","name":"Ráj <Raj>","coordinates":[13.02738953,49.36367035]},{"code":"OL/PL-337","program":"gma","name":"Na Kamejkách <Na Kamejkach>","coordinates":[13.13640022,49.44839096]},{"code":"OL/PL-338","program":"gma","name":"Rackův vrch <Rackuv vrch>","coordinates":[13.17986393,49.30172729]},{"code":"OL/PL-347","program":"gma","name":"Dlažovská hůrka <Dlazovska hurka>","coordinates":[13.15181541,49.37778091]},{"code":"OL/PL-362","program":"gma","name":"Holý vrch <Holy vrch>","coordinates":[13.10132027,49.33810043]},{"code":"OL/PL-368","program":"gma","name":"Radlice","coordinates":[13.1302166,49.4821434]},{"code":"OL/PL-383","program":"gma","name":"Slupný <Slupny>","coordinates":[13.02871704,49.41864014]},{"code":"OL/PL-384","program":"gma","name":"Libkovská hůrka <Libkovska hurka>","coordinates":[13.13135719,49.3621254]},{"code":"OL/PL-391","program":"gma","name":"Javorovice","coordinates":[13.08317947,49.35147476]},{"code":"OL/PL-392","program":"gma","name":"Na Skále <Na Skale>","coordinates":[13.14593983,49.45761871]},{"code":"OL/PL-409","program":"gma","name":"Ostrý vrch <Ostry vrch>","coordinates":[13.06344986,49.34906006]},{"code":"OL/PL-420","program":"gma","name":"V Luhu","coordinates":[13.05476093,49.4239769]},{"code":"OL/PL-427","program":"gma","name":"Zadní­ Javorovice <Zadni Javorovice>","coordinates":[13.08643532,49.34706879]},{"code":"OL/PL-451","program":"gma","name":"Malá Křížová <Mala Krizova>","coordinates":[13.09773445,49.34826279]},{"code":"OL/PL-465","program":"gma","name":"Na Pušperské skále <Na Pusperske skale>","coordinates":[13.15077591,49.43483353]},{"code":"OL/PL-466","program":"gma","name":"Bezí <Bezi>","coordinates":[13.21138,49.40993118]},{"code":"OL/PL-475","program":"gma","name":"Buková hora <Bukova hora>","coordinates":[13.14424515,49.49381256]},{"code":"OL/PL-478","program":"gma","name":"Vrch Páně <Vrch Pane>","coordinates":[13.04899979,49.35990143]},{"code":"OL/PL-503","program":"gma","name":"Rovenská hora <Rovenska hora>","coordinates":[13.2452116,49.32094574]},{"code":"OL/PL-557","program":"gma","name":"Klepný <Klepny>","coordinates":[13.00309753,49.38941574]},{"code":"OL/PL-559","program":"gma","name":"Kněžská hora <Knezska hora>","coordinates":[13.22579575,49.44140625]},{"code":"OL/PL-570","program":"gma","name":"Hlásný vrch <Hlasny vrch>","coordinates":[13.0432539,49.32489777]},{"code":"OL/PL-571","program":"gma","name":"Hrčoven <Hrcoven>","coordinates":[13.06692028,49.33911896]},{"code":"OL/PL-572","program":"gma","name":"Kramoly","coordinates":[13.19517994,49.46367645]},{"code":"OL/PL-590","program":"gma","name":"Holec","coordinates":[13.13049984,49.49790955]},{"code":"OL/PL-602","program":"gma","name":"Úborská hůrka <Uborska hurka>","coordinates":[13.15308666,49.3350563]},{"code":"OL/PL-628","program":"gma","name":"Na Skalicích <Na Skalicich>","coordinates":[13.03059006,49.34973145]},{"code":"OL/PL-632","program":"gma","name":"Hůrka <Hurka>","coordinates":[13.14955521,49.34111404]},{"code":"OL/PL-633","program":"gma","name":"Vinný vrch <Vinny vrch>","coordinates":[13.24845028,49.30852127]},{"code":"OL/PL-634","program":"gma","name":"Soustov","coordinates":[13.19398689,49.37895203]},{"code":"OL/PL-649","program":"gma","name":"Na Vápenici <Na Vapenici>","coordinates":[13.24293041,49.29238129]},{"code":"OL/PL-667","program":"gma","name":"Bílý kámen <Bily kamen>","coordinates":[13.11393547,49.47756195]},{"code":"OL/PL-668","program":"gma","name":"Kamenná hůrka <Kamenna hurka>","coordinates":[13.1248703,49.47106934]},{"code":"OL/PL-680","program":"gma","name":"Holý vrch <Holy vrch>","coordinates":[13.10256004,49.46319962]},{"code":"OL/PL-684","program":"gma","name":"Dobrochovec","coordinates":[13.22936058,49.41289139]},{"code":"OL/PL-688","program":"gma","name":"Pleš <Ples>","coordinates":[13.2334671,49.42446899]},{"code":"OL/PL-692","program":"gma","name":"Hůrka <Hurka>","coordinates":[13.02831745,49.4313736]},{"code":"OL/PL-693","program":"gma","name":"Ostrý vrch <Ostry vrch>","coordinates":[13.24169922,49.4935379]},{"code":"OL/PL-731","program":"gma","name":"Velký Kozlí­k <Velky Kozlik>","coordinates":[13.10372353,49.49603271]},{"code":"OL/PL-738","program":"gma","name":"Ježovská hůrka <Jezovska hurka>","coordinates":[13.22203255,49.48136139]},{"code":"OL/PL-743","program":"gma","name":"Skleněný vrch <Skleneny vrch>","coordinates":[13.22170353,49.39586258]},{"code":"OL/PL-757","program":"gma","name":"Miškovec <Miskovec>","coordinates":[13.19967747,49.48857117]},{"code":"OL/PL-759","program":"gma","name":"Hora","coordinates":[13.2292099,49.39875031]},{"code":"OL/PL-767","program":"gma","name":"Na Kří­dle <Na Kridle>","coordinates":[13.02352047,49.45185089]},{"code":"OL/PL-775","program":"gma","name":"Babylón <Babylon>","coordinates":[13.21444988,49.39604187]},{"code":"OL/PL-781","program":"gma","name":"Malý Kozlí­k <maly Kozlik>","coordinates":[13.10608673,49.49204254]},{"code":"OL/PL-792","program":"gma","name":"Hůrka <Hurka>","coordinates":[13.1716013,49.49201965]},{"code":"OL/PL-793","program":"gma","name":"Hrádek <Hradek>","coordinates":[13.20683861,49.49515915]},{"code":"OL/PL-816","program":"gma","name":"Kotrbov","coordinates":[13.06873035,49.4840126]},{"code":"OL/PL-817","program":"gma","name":"Holý vrch <Holy vrch>","coordinates":[13.18634033,49.48929977]},{"code":"OL/PL-823","program":"gma","name":"Vrch","coordinates":[13.23735046,49.40383911]},{"code":"OL/PL-843","program":"gma","name":"Kobylany","coordinates":[13.08382225,49.49354935]},{"code":"OL/PL-873","program":"gma","name":"Husí­n <Husin>","coordinates":[13.24972343,49.40787888]},{"code":"OL/PL-874","program":"gma","name":"Na Borku","coordinates":[13.18196011,49.44202042]},{"code":"OL/PL-881","program":"gma","name":"Oulí­k <Oulik>","coordinates":[13.19487953,49.49443054]},{"code":"OL/PL-895","program":"gma","name":"Hůrka <Hurka>","coordinates":[13.03663254,49.47735596]},{"code":"OL/PL-970","program":"gma","name":"Hraničář <Hranicar>","coordinates":[13.11999989,49.26200104]},{"code":"OL/PL-985","program":"gma","name":"Rýzmberk <Ryzmberk>","coordinates":[13.02999973,49.40800095]},{"code":"OL/PL-991","program":"gma","name":"Havranice","coordinates":[13.09799957,49.33399963]},{"code":"CZ-0133","program":"pota","name":"Netreb Conservation Area","coordinates":[13.0783,49.4641]},{"code":"CZ-0143","program":"pota","name":"Americká zahrada National Monument","coordinates":[13.158,49.461]},{"code":"OK/PL-028","program":"sota","name":"Koráb","coordinates":[13.0827,49.3916]},{"code":"OK/PL-032","program":"sota","name":"Jezvinec","coordinates":[13.0698,49.3224]},{"code":"OK/PL-034","program":"sota","name":"Doubrava","coordinates":[13.2029,49.432]},{"code":"OK/PL-036","program":"sota","name":"Běleč","coordinates":[13.2409,49.4772]},{"code":"OK/PL-093","program":"sota","name":"Ulíkovská hora","coordinates":[13.0538,49.4387]},{"code":"B/OK-0374","program":"wwbota","name":"175/60/A-200Z Jezovy","coordinates":[13.23252,49.4925]}]}