{"lat":49.25,"lon":-114.75,"programs":["sota"],"count":14,"references":[{"code":"VE6/BK-004","program":"sota","name":"Mount Darrah","coordinates":[-114.59354,49.47267]},{"code":"VE6/BK-013","program":"sota","name":"Darrah SE4","coordinates":[-114.57032,49.43682]},{"code":"VE6/BK-021","program":"sota","name":"Darrah S2","coordinates":[-114.60324,49.451836]},{"code":"VE6/BK-028","program":"sota","name":"Darrah N2","coordinates":[-114.59749,49.491074]},{"code":"VE6/BK-031","program":"sota","name":"Darrah SW1","coordinates":[-114.59942,49.46666]},{"code":"VE6/BK-036","program":"sota","name":"Centre N1","coordinates":[-114.60143,49.424683]},{"code":"VE6/BK-038","program":"sota","name":"Darrah N1","coordinates":[-114.59485,49.48434]},{"code":"VE6/BK-055","program":"sota","name":"Centre E3","coordinates":[-114.565384,49.40818]},{"code":"VE6/BK-057","program":"sota","name":"Hollebeke Mountain","coordinates":[-114.56706,49.377594]},{"code":"VE6/BK-064","program":"sota","name":"Mount McCarty","coordinates":[-114.5006,49.384453]},{"code":"VE6/BK-077","program":"sota","name":"Centre SE1","coordinates":[-114.593,49.4045]},{"code":"VE6/BK-086","program":"sota","name":"McCarty SW1","coordinates":[-114.5268,49.3753]},{"code":"VE6/BK-087","program":"sota","name":"St Eloi NW1","coordinates":[-114.5064,49.3563]},{"code":"VE6/BK-090","program":"sota","name":"Hollebeke NW1","coordinates":[-114.5778,49.3911]}]}