{"lat":49.25,"lon":13.25,"programs":["gma","pota","sota"],"count":129,"references":[{"code":"OL/PL-054","program":"gma","name":"Teleček <Telecek>","coordinates":[13.33815765,49.25136185]},{"code":"OL/PL-072","program":"gma","name":"Dobřemilický vrch <Dobremilicky vrch>","coordinates":[13.32812023,49.2556076]},{"code":"OL/PL-074","program":"gma","name":"Hvězdní­k <Hvezdnik>","coordinates":[13.28257847,49.26580429]},{"code":"OL/PL-076","program":"gma","name":"Zahrádka <Zahradka>","coordinates":[13.32234287,49.26710892]},{"code":"OL/PL-090","program":"gma","name":"Háj <Haj>","coordinates":[13.36728954,49.27651978]},{"code":"OL/PL-096","program":"gma","name":"Křížovka <Krizovka>","coordinates":[13.43474579,49.25976563]},{"code":"OL/PL-1030","program":"gma","name":"Kamýcká skála <Kamycka skala>","coordinates":[13.3101539,49.4670764]},{"code":"OL/PL-1033","program":"gma","name":"Hůrka <Hurka>","coordinates":[13.2722419,49.3948603]},{"code":"OL/PL-128","program":"gma","name":"Na Vrchu","coordinates":[13.35276985,49.28798676]},{"code":"OL/PL-130","program":"gma","name":"Rovná <Rovna>","coordinates":[13.40165806,49.36833954]},{"code":"OL/PL-143","program":"gma","name":"Na Skále <Na Skale>","coordinates":[13.37703323,49.3297081]},{"code":"OL/PL-145","program":"gma","name":"Stráž <Straz>","coordinates":[13.4860487,49.31154251]},{"code":"OL/PL-158","program":"gma","name":"Bruskov","coordinates":[13.31904697,49.28318405]},{"code":"OL/PL-159","program":"gma","name":"Barák <Barak>","coordinates":[13.39569187,49.38236237]},{"code":"OL/PL-161","program":"gma","name":"Přenýř <Prenyr>","coordinates":[13.44696426,49.25582886]},{"code":"OL/PL-163","program":"gma","name":"Boušový <Bousovy>","coordinates":[13.40842438,49.34648132]},{"code":"OL/PL-170","program":"gma","name":"Hostidráž <Hostidraz>","coordinates":[13.46863556,49.29807281]},{"code":"OL/PL-172","program":"gma","name":"Na Skále <Na Skale>","coordinates":[13.34930038,49.27000046]},{"code":"OL/PL-179","program":"gma","name":"Jedlový kopec <Jedlovy kopec>","coordinates":[13.41993523,49.33786011]},{"code":"OL/PL-184","program":"gma","name":"Úliště <Uliste>","coordinates":[13.28067493,49.32687759]},{"code":"OL/PL-202","program":"gma","name":"Karkule","coordinates":[13.40069962,49.38938904]},{"code":"OL/PL-204","program":"gma","name":"Hůrka <Hurka>","coordinates":[13.39504051,49.32449341]},{"code":"OL/PL-208","program":"gma","name":"Straží­n <Strazin>","coordinates":[13.4569006,49.33555222]},{"code":"OL/PL-211","program":"gma","name":"Křemešná <Kremesna>","coordinates":[13.46286678,49.33138657]},{"code":"OL/PL-215","program":"gma","name":"Okrouhlí­k <Okrouhlik>","coordinates":[13.44892025,49.33008957]},{"code":"OL/PL-217","program":"gma","name":"Škalice <Skalice>","coordinates":[13.42473984,49.35116959]},{"code":"OL/PL-232","program":"gma","name":"Vracovská hora <Vracovska hora>","coordinates":[13.45108223,49.38757706]},{"code":"OL/PL-240","program":"gma","name":"Ježek <Jezek>","coordinates":[13.42990303,49.39837646]},{"code":"OL/PL-241","program":"gma","name":"Jelení­ vrch <Jeleni vrch>","coordinates":[13.42540359,49.38392258]},{"code":"OL/PL-243","program":"gma","name":"Skalka","coordinates":[13.46524239,49.32228088]},{"code":"OL/PL-244","program":"gma","name":"Křížovická hora <Krizovicka hora>","coordinates":[13.45099926,49.36217499]},{"code":"OL/PL-254","program":"gma","name":"Rendlí­ky <Rendliky>","coordinates":[13.45098877,49.29934692]},{"code":"OL/PL-260","program":"gma","name":"Ostrá <Ostra>","coordinates":[13.41500092,49.30634308]},{"code":"OL/PL-261","program":"gma","name":"Zbudov","coordinates":[13.49433231,49.36835861]},{"code":"OL/PL-269","program":"gma","name":"Buzrakov","coordinates":[13.49127483,49.41423416]},{"code":"OL/PL-271","program":"gma","name":"Hora","coordinates":[13.36830997,49.3237915]},{"code":"OL/PL-272","program":"gma","name":"Brda","coordinates":[13.46925735,49.33125687]},{"code":"OL/PL-275","program":"gma","name":"Hora","coordinates":[13.28664589,49.28170013]},{"code":"OL/PL-280","program":"gma","name":"Háj <Haj>","coordinates":[13.37972832,49.31132507]},{"code":"OL/PL-284","program":"gma","name":"Přemětí­n <Premetin>","coordinates":[13.49318409,49.29774857]},{"code":"OL/PL-288","program":"gma","name":"Skalka","coordinates":[13.4667902,49.35475922]},{"code":"OL/PL-289","program":"gma","name":"Pavlí­nova hora <Pavlinova hora>","coordinates":[13.44504547,49.27141953]},{"code":"OL/PL-294","program":"gma","name":"Chvojová hora <Chvojova hora>","coordinates":[13.26585579,49.31305313]},{"code":"OL/PL-295","program":"gma","name":"Vrchy","coordinates":[13.36975288,49.31010437]},{"code":"OL/PL-299","program":"gma","name":"Smrková hora <Smrkova hora>","coordinates":[13.27138042,49.30018997]},{"code":"OL/PL-317","program":"gma","name":"Pahorky","coordinates":[13.3551569,49.3021965]},{"code":"OL/PL-318","program":"gma","name":"Buková <Bukova>","coordinates":[13.48939991,49.28834152]},{"code":"OL/PL-321","program":"gma","name":"Lí­skovec <Liskovec>","coordinates":[13.39996243,49.30513]},{"code":"OL/PL-322","program":"gma","name":"Na Rejdích <Na Rejdich>","coordinates":[13.41870594,49.40369034]},{"code":"OL/PL-328","program":"gma","name":"Kolinecká hůrka <Kolinecka hurka>","coordinates":[13.42693233,49.30838013]},{"code":"OL/PL-333","program":"gma","name":"Kvasetická hora <Kvaseticka hora>","coordinates":[13.49026012,49.4023819]},{"code":"OL/PL-339","program":"gma","name":"Na Skalici","coordinates":[13.28878021,49.30195999]},{"code":"OL/PL-340","program":"gma","name":"Na Žďáru <Na Zdaru>","coordinates":[13.28171062,49.30659866]},{"code":"OL/PL-341","program":"gma","name":"Skály <Skaly>","coordinates":[13.41022968,49.32553864]},{"code":"OL/PL-342","program":"gma","name":"Zbyná <Zbyna>","coordinates":[13.49812889,49.28348923]},{"code":"OL/PL-343","program":"gma","name":"Stříbrná <Stribrna>","coordinates":[13.40232277,49.28997803]},{"code":"OL/PL-344","program":"gma","name":"Pahorek","coordinates":[13.40635586,49.2775116]},{"code":"OL/PL-345","program":"gma","name":"Hradec","coordinates":[13.48822308,49.32323074]},{"code":"OL/PL-349","program":"gma","name":"Červ <Cerv>","coordinates":[13.32396412,49.34579086]},{"code":"OL/PL-358","program":"gma","name":"Vršek <Vrsek>","coordinates":[13.3868475,49.30566788]},{"code":"OL/PL-359","program":"gma","name":"V Obci","coordinates":[13.44535542,49.43629074]},{"code":"OL/PL-370","program":"gma","name":"Bukoveček <Bukovecek>","coordinates":[13.36304665,49.3131752]},{"code":"OL/PL-371","program":"gma","name":"Kloudova hora","coordinates":[13.48973942,49.34563065]},{"code":"OL/PL-372","program":"gma","name":"Boulí­n <Boulin>","coordinates":[13.44565964,49.41967392]},{"code":"OL/PL-385","program":"gma","name":"Tuhošť <Tuhost>","coordinates":[13.26085758,49.49224472]},{"code":"OL/PL-397","program":"gma","name":"U Remí­zku <U Remizku>","coordinates":[13.41182995,49.2833786]},{"code":"OL/PL-405","program":"gma","name":"Černý les <Cerny les>","coordinates":[13.47942162,49.25863266]},{"code":"OL/PL-406","program":"gma","name":"Na Spálencí­ch <Na Spalencich>","coordinates":[13.43327999,49.31645203]},{"code":"OL/PL-410","program":"gma","name":"Petřiny <Petriny>","coordinates":[13.41869831,49.31459808]},{"code":"OL/PL-414","program":"gma","name":"Hůrka <Hurka>","coordinates":[13.2615757,49.28139496]},{"code":"OL/PL-415","program":"gma","name":"Na Buči <Na Buci>","coordinates":[13.48473454,49.42961884]},{"code":"OL/PL-421","program":"gma","name":"Kopky","coordinates":[13.42867184,49.29868698]},{"code":"OL/PL-428","program":"gma","name":"Stará pec <Stara pec>","coordinates":[13.41320038,49.49908066]},{"code":"OL/PL-432","program":"gma","name":"Ledvina","coordinates":[13.47289753,49.47681427]},{"code":"OL/PL-442","program":"gma","name":"Beranice","coordinates":[13.43889332,49.46952438]},{"code":"OL/PL-452","program":"gma","name":"Hotín <Hotin>","coordinates":[13.4957304,49.27539825]},{"code":"OL/PL-467","program":"gma","name":"Lipovka","coordinates":[13.31986237,49.3142128]},{"code":"OL/PL-479","program":"gma","name":"Bouček <Boucek>","coordinates":[13.4689703,49.37245178]},{"code":"OL/PL-487","program":"gma","name":"Zabuza","coordinates":[13.47289085,49.26718521]},{"code":"OL/PL-494","program":"gma","name":"Ptí­n <Ptin>","coordinates":[13.37813568,49.45688629]},{"code":"OL/PL-539","program":"gma","name":"Ošupaná <Osupana>","coordinates":[13.34263897,49.46192551]},{"code":"OL/PL-556","program":"gma","name":"Křepčí­n <Krepcin>","coordinates":[13.4629364,49.28317261]},{"code":"OL/PL-563","program":"gma","name":"Lipka","coordinates":[13.31366634,49.35060883]},{"code":"OL/PL-573","program":"gma","name":"Úlehle <Ulehle>","coordinates":[13.32783985,49.45418167]},{"code":"OL/PL-584","program":"gma","name":"Hora","coordinates":[13.37556553,49.32076645]},{"code":"OL/PL-585","program":"gma","name":"V Pahorkách <V Pahorkach>","coordinates":[13.4634943,49.42437363]},{"code":"OL/PL-591","program":"gma","name":"Holý vrch <Holy vrch>","coordinates":[13.31231213,49.35476303]},{"code":"OL/PL-595","program":"gma","name":"Holinka","coordinates":[13.28485203,49.35241318]},{"code":"OL/PL-596","program":"gma","name":"Štibří­n <Stibrin>","coordinates":[13.43597984,49.45689011]},{"code":"OL/PL-600","program":"gma","name":"Struhadelský vrch <Struhadelsky vrch>","coordinates":[13.45392036,49.44591904]},{"code":"OL/PL-606","program":"gma","name":"Zálesí­ <Zalesi>","coordinates":[13.492932,49.4699535]},{"code":"OL/PL-626","program":"gma","name":"Hora","coordinates":[13.48330498,49.44377518]},{"code":"OL/PL-629","program":"gma","name":"Chlumec","coordinates":[13.3657341,49.35502625]},{"code":"OL/PL-635","program":"gma","name":"Na Čihadle <Na Cihadle>","coordinates":[13.33486652,49.49254227]},{"code":"OL/PL-636","program":"gma","name":"Bor ","coordinates":[13.38379955,49.47603989]},{"code":"OL/PL-645","program":"gma","name":"Planá hora <Plana hora>","coordinates":[13.37436962,49.47470093]},{"code":"OL/PL-669","program":"gma","name":"Lopata","coordinates":[13.36929989,49.38710022]},{"code":"OL/PL-678","program":"gma","name":"Výhořice <Vyhorice>","coordinates":[13.29068947,49.36516571]},{"code":"OL/PL-707","program":"gma","name":"Chlumec","coordinates":[13.34986687,49.38805008]},{"code":"OL/PL-714","program":"gma","name":"Matějkovna <Matejkovna>","coordinates":[13.3237133,49.49561691]},{"code":"OL/PL-732","program":"gma","name":"Třebýcinská Planá hora <Trebycinska Plana hora>","coordinates":[13.3500948,49.48318863]},{"code":"OL/PL-760","program":"gma","name":"Hůrka <Hurka>","coordinates":[13.36454964,49.39060974]},{"code":"OL/PL-776","program":"gma","name":"V Hřebenu <V Hrebenu>","coordinates":[13.26772022,49.44042969]},{"code":"OL/PL-777","program":"gma","name":"Pokrývadlo <Pokryvadlo>","coordinates":[13.29829121,49.4322052]},{"code":"OL/PL-778","program":"gma","name":"Na Vrší­ch <Na Vrsich>","coordinates":[13.37318039,49.41313553]},{"code":"OL/PL-789","program":"gma","name":"Výhořička <Vyhoricka>","coordinates":[13.28313732,49.37002182]},{"code":"OL/PL-794","program":"gma","name":"Hájek <Hajek>","coordinates":[13.27702999,49.4389801]},{"code":"OL/PL-795","program":"gma","name":"Haškovec <Haskovec>","coordinates":[13.39375973,49.45666885]},{"code":"OL/PL-815","program":"gma","name":"Hora","coordinates":[13.36645699,49.42296982]},{"code":"OL/PL-820","program":"gma","name":"Petrovka","coordinates":[13.34745216,49.36800766]},{"code":"OL/PL-821","program":"gma","name":"Šusty <Susty>","coordinates":[13.41150379,49.45598221]},{"code":"OL/PL-825","program":"gma","name":"Chlum","coordinates":[13.40003204,49.44553375]},{"code":"OL/PL-836","program":"gma","name":"Hůrka <Hurka>","coordinates":[13.40174866,49.47081757]},{"code":"OL/PL-839","program":"gma","name":"Lipová hora <lipova hora>","coordinates":[13.2658968,49.36515808]},{"code":"OL/PL-840","program":"gma","name":"Hájek <Hajek>","coordinates":[13.35858822,49.45711517]},{"code":"OL/PL-853","program":"gma","name":"Pod Ostrým <Pod Ostrym>","coordinates":[13.35988617,49.43144226]},{"code":"OL/PL-869","program":"gma","name":"Malechovská hůrka <Malechovska hurka>","coordinates":[13.26177692,49.44756699]},{"code":"OL/PL-880","program":"gma","name":"Hůrka <Hurka>","coordinates":[13.3698597,49.46514893]},{"code":"OL/PL-886","program":"gma","name":"Vicenická hůrka <Vicenicka hurka>","coordinates":[13.30121422,49.45297623]},{"code":"OL/PL-899","program":"gma","name":"Lysina","coordinates":[13.29885483,49.48604584]},{"code":"OL/PL-902","program":"gma","name":"Zámkovská hora <Zamkovska hora>","coordinates":[13.35678005,49.41822052]},{"code":"OL/PL-926","program":"gma","name":"Bůrky <Burky>","coordinates":[13.32197857,49.42355728]},{"code":"OL/PL-978","program":"gma","name":"Drkolná <Drkolna>","coordinates":[13.39299965,49.3390007]},{"code":"OL/PL-982","program":"gma","name":"Kostřáb <Kostrab>","coordinates":[13.40799999,49.39500046]},{"code":"OL/PL-998","program":"gma","name":"Chlumec","coordinates":[13.42700005,49.49200058]},{"code":"CZ-0128","program":"pota","name":"Plánický hřeben Nature Park","coordinates":[13.4591,49.4056]},{"code":"OK/PL-021","program":"sota","name":"Borek","coordinates":[13.3966,49.2509]},{"code":"OK/PL-092","program":"sota","name":"Vidhošť","coordinates":[13.469,49.3084]},{"code":"OK/PL-094","program":"sota","name":"Smrčí","coordinates":[13.2698,49.4275]}]}