{"lat":49.25,"lon":18.5,"programs":["gma","pota","sota"],"count":6,"references":[{"code":"OL/MO-125","program":"gma","name":"Čuboňov <Cubonov>","coordinates":[18.60194,49.49778]},{"code":"SK-0010","program":"pota","name":"Megonky - Natural Monument","coordinates":[18.7227,49.4966]},{"code":"SK-0034","program":"pota","name":"Rochovica - Nature Reserve","coordinates":[18.7438,49.2667]},{"code":"SK-0185","program":"pota","name":"Kysucká brána - Natural Monument","coordinates":[18.7492,49.2676]},{"code":"OM/ZA-106","program":"sota","name":"Kazícka Kýčera","coordinates":[18.6756,49.3372]},{"code":"OM/ZA-110","program":"sota","name":"Vysoká","coordinates":[18.689,49.4021]}]}