{"lat":49.25,"lon":13.75,"programs":["gma"],"count":72,"references":[{"code":"OL/JC-584","program":"gma","name":"Kůstrý vrch <Kustry vrch>","coordinates":[13.78866386,49.25164032]},{"code":"OL/JC-611","program":"gma","name":"Trubný vrch <Trubny vrch>","coordinates":[13.90950108,49.35546112]},{"code":"OL/JC-613","program":"gma","name":"Zámek <Zamek>","coordinates":[13.83535957,49.33214188]},{"code":"OL/JC-630","program":"gma","name":"Březový vrch <Brezovy vrch>","coordinates":[13.8828001,49.30635071]},{"code":"OL/JC-642","program":"gma","name":"Kněžská hora <Knezska hora>","coordinates":[13.83806038,49.49552536]},{"code":"OL/JC-650","program":"gma","name":"Holý vrch <Holy vrch>","coordinates":[13.9109602,49.35929108]},{"code":"OL/JC-651","program":"gma","name":"Chlum","coordinates":[13.97886753,49.39977646]},{"code":"OL/JC-652","program":"gma","name":"Obrň <Obrn>","coordinates":[13.85754108,49.33956146]},{"code":"OL/JC-654","program":"gma","name":"Kamenice","coordinates":[13.95154953,49.38816452]},{"code":"OL/JC-663","program":"gma","name":"Bělčická hora <Belcicka hora>","coordinates":[13.83758163,49.49240875]},{"code":"OL/JC-667","program":"gma","name":"Míšná hora <Misna hora>","coordinates":[13.82696342,49.3518486]},{"code":"OL/JC-671","program":"gma","name":"Kří­dlí­ <Kridli>","coordinates":[13.92520618,49.36777115]},{"code":"OL/JC-681","program":"gma","name":"Chlumák <Chlumak>","coordinates":[13.96236992,49.48670197]},{"code":"OL/JC-686","program":"gma","name":"Kuřidlo <Kuridlo>","coordinates":[13.87656689,49.27296448]},{"code":"OL/JC-691","program":"gma","name":"Málkovský vrch <Malkovsky vrch>","coordinates":[13.89346027,49.45959091]},{"code":"OL/JC-693","program":"gma","name":"Kobyla","coordinates":[13.80173302,49.46982193]},{"code":"OL/JC-694","program":"gma","name":"Hradiště <Hradiste>","coordinates":[13.93365002,49.40023422]},{"code":"OL/JC-698","program":"gma","name":"Střížovický vrch <Strizovicky vrch>","coordinates":[13.92872524,49.45423126]},{"code":"OL/JC-703","program":"gma","name":"Divoš <Divos>","coordinates":[13.75494957,49.27207947]},{"code":"OL/JC-708","program":"gma","name":"Hliniční­ vrch <Hlinicni vrch>","coordinates":[13.87902451,49.46512985]},{"code":"OL/JC-710","program":"gma","name":"Chocholka","coordinates":[13.9124353,49.39888382]},{"code":"OL/JC-712","program":"gma","name":"Kubátova hora <Kubatova hora>","coordinates":[13.90777493,49.47806931]},{"code":"OL/JC-714","program":"gma","name":"U Nivy","coordinates":[13.84605217,49.45401001]},{"code":"OL/JC-717","program":"gma","name":"Beranice","coordinates":[13.75108051,49.26851273]},{"code":"OL/JC-721","program":"gma","name":"Pahorek","coordinates":[13.95917511,49.4080925]},{"code":"OL/JC-723","program":"gma","name":"Dubiny","coordinates":[13.88290977,49.45211029]},{"code":"OL/JC-724","program":"gma","name":"Dubovec","coordinates":[13.99703026,49.30919266]},{"code":"OL/JC-727","program":"gma","name":"Ryšová <Rysova>","coordinates":[13.89509964,49.27793121]},{"code":"OL/JC-728","program":"gma","name":"Vysoký pahorek <Vysoky pahorek>","coordinates":[13.77205276,49.4202919]},{"code":"OL/JC-730","program":"gma","name":"Čihadla <Cihadla>","coordinates":[13.80388069,49.49042511]},{"code":"OL/JC-731","program":"gma","name":"Háj <Haj>","coordinates":[13.8269701,49.29845047]},{"code":"OL/JC-738","program":"gma","name":"Ostrý <Ostry>","coordinates":[13.92912674,49.29375839]},{"code":"OL/JC-740","program":"gma","name":"Zelený vrch <Zeleny vrch>","coordinates":[13.88401031,49.45463943]},{"code":"OL/JC-741","program":"gma","name":"Jaslov","coordinates":[13.93202305,49.28702164]},{"code":"OL/JC-749","program":"gma","name":"Jí­va <Jiva>","coordinates":[13.83570576,49.32682037]},{"code":"OL/JC-759","program":"gma","name":"Soudný <Soudny>","coordinates":[13.98868847,49.45311356]},{"code":"OL/JC-769","program":"gma","name":"Hradec","coordinates":[13.92208195,49.28887177]},{"code":"OL/JC-771","program":"gma","name":"Tišiny <Tisiny>","coordinates":[13.94279385,49.33893204]},{"code":"OL/JC-772","program":"gma","name":"Holý vrch <Holy vrch>","coordinates":[13.89618015,49.27391052]},{"code":"OL/JC-774","program":"gma","name":"Šibení­k <Sibenik>","coordinates":[13.90326977,49.2737999]},{"code":"OL/JC-776","program":"gma","name":"Brdo","coordinates":[13.99806404,49.27451324]},{"code":"OL/JC-790","program":"gma","name":"Hliničná <Hlinicna>","coordinates":[13.88453,49.27826]},{"code":"OL/JC-794","program":"gma","name":"Dominový vrch <Dominovy vrch>","coordinates":[13.9405784,49.3087605]},{"code":"OL/JC-796","program":"gma","name":"Opeřová <Operova>","coordinates":[13.87384,49.27697]},{"code":"OL/JC-801","program":"gma","name":"Křesovec <Kresovec>","coordinates":[13.93844,49.40843]},{"code":"OL/JC-802","program":"gma","name":"Ve Vrší­ch <Ve Vrsich>","coordinates":[13.99689,49.31471]},{"code":"OL/JC-808","program":"gma","name":"Droušný vrch <Drousny vrch>","coordinates":[13.814957,49.3197022]},{"code":"OL/JC-809","program":"gma","name":"Katovická hora <Katovicka hora>","coordinates":[13.8125857,49.2809616]},{"code":"OL/JC-818","program":"gma","name":"Lipová <Lipova>","coordinates":[13.849696,49.3170308]},{"code":"OL/JC-820","program":"gma","name":"Matčí­ hora <Matci hora>","coordinates":[13.9240417,49.4059727]},{"code":"OL/JC-823","program":"gma","name":"Kupcový <Kupcovy>","coordinates":[13.83873,49.42629]},{"code":"OL/JC-824","program":"gma","name":"Vraní­ vrch <Vrani vrch>","coordinates":[13.7862149,49.2573712]},{"code":"OL/JC-837","program":"gma","name":"Krčohrad <Krcohrad>","coordinates":[13.7758065,49.255894]},{"code":"OL/JC-852","program":"gma","name":"Kaliště <Kaliste>","coordinates":[13.7849736,49.3213339]},{"code":"OL/JC-856","program":"gma","name":"Zbuš <Zbus>","coordinates":[13.9457671,49.2925443]},{"code":"OL/JC-860","program":"gma","name":"Na Hájcích <Na Hajcich>","coordinates":[13.9444449,49.2720227]},{"code":"OL/JC-862","program":"gma","name":"Skovka","coordinates":[13.8000191,49.3001899]},{"code":"OL/JC-868","program":"gma","name":"Banina","coordinates":[13.853,49.27801]},{"code":"OL/JC-874","program":"gma","name":"Na Vrchu","coordinates":[13.9765466,49.2725994]},{"code":"OL/JC-877","program":"gma","name":"Na Býkovci <Na Bykovci>","coordinates":[13.9685845,49.2746875]},{"code":"OL/JC-964","program":"gma","name":"Hřeben <Hreben>","coordinates":[13.83500004,49.33599854]},{"code":"OL/JC-966","program":"gma","name":"Tisovní­k <Tisovnik>","coordinates":[13.88300037,49.29399872]},{"code":"OL/JC-968","program":"gma","name":"Jezbyně <Jezbyne>","coordinates":[13.76500034,49.4620018]},{"code":"OL/JC-971","program":"gma","name":"Mužetický vrch <Muzeticky vrch>","coordinates":[13.97900009,49.38999939]},{"code":"OL/JC-976","program":"gma","name":"Chlum","coordinates":[13.96000004,49.3030014]},{"code":"OL/PL-569","program":"gma","name":"Hřeben <Hreben>","coordinates":[13.76830482,49.3716774]},{"code":"OL/PL-609","program":"gma","name":"Kameniště <Kameniste>","coordinates":[13.76830482,49.3716774]},{"code":"OL/PL-624","program":"gma","name":"Na Americe","coordinates":[13.75331974,49.42707062]},{"code":"OL/PL-641","program":"gma","name":"Na Snadné <Na Snadne>","coordinates":[13.7632103,49.38600922]},{"code":"OL/PL-657","program":"gma","name":"Na Vrchu","coordinates":[13.75370979,49.43251038]},{"code":"OL/PL-705","program":"gma","name":"Kozdeří­ <Kozderi>","coordinates":[13.76914024,49.42964935]},{"code":"OL/PL-735","program":"gma","name":"Dědina <Dedina>","coordinates":[13.76875877,49.43730927]}]}