{"lat":49.25,"lon":6,"programs":["gma","pota","sota","wwbota"],"count":218,"references":[{"code":"FA/VO-002","program":"gma","name":"Kudertberg","coordinates":[6.09969997,49.44689941]},{"code":"FR-3271","program":"pota","name":"Vallon de Halling FR4100213 Natura 2000","coordinates":[6.24389,49.4844]},{"code":"FR-8351","program":"pota","name":"FORET DE BLETTANGE Biological Reserve","coordinates":[6.21439,49.2817]},{"code":"FR-8354","program":"pota","name":"FORET DE THIONVILLE Biological Reserve","coordinates":[6.13614,49.3816]},{"code":"FR-8356","program":"pota","name":"FORET DOMANIALE DE GARCHE A CATTENOM Biological Reserve","coordinates":[6.20407,49.4212]},{"code":"FR-8357","program":"pota","name":"Stratotype historique de l'Hettangien de la Reserve Naturelle Nationale d' Hettange-Grande Conservation Area","coordinates":[6.21,49.43]},{"code":"FR-8358","program":"pota","name":"FORET DOMANIALE DE ZOUFFTGEN Biological Reserve","coordinates":[6.14696,49.4788]},{"code":"FR-8359","program":"pota","name":"CARRIERE DE PUTTELANGE-LES-THIONVILLE Biological Reserve","coordinates":[6.24336,49.4844]},{"code":"FR-8795","program":"pota","name":"PELOUSE CALCAIRE A VOLMERANGE-LES-MINES Biological Reserve","coordinates":[6.09052,49.4513]},{"code":"FR-8796","program":"pota","name":"PELOUSE CALCAIRE AU NORD DE OTTANGE Biological Reserve","coordinates":[6.01674,49.4457]},{"code":"FR-8810","program":"pota","name":"PLATEAU D'ALGRANGE Biological Reserve","coordinates":[6.05401,49.3567]},{"code":"FR-8811","program":"pota","name":"FORET DE MOYEUVRE ET COTEAUX Biological Reserve","coordinates":[6.02463,49.2701]},{"code":"FR-8813","program":"pota","name":"PELOUSES CALCAIRES A ROSSELANGE Biological Reserve","coordinates":[6.07249,49.2611]},{"code":"FR-8814","program":"pota","name":"FRICHE INDUSTRIELLE DE ROMBAS Biological Reserve","coordinates":[6.11509,49.2532]},{"code":"FR-8817","program":"pota","name":"Les calcaires a polypiers bajociens de la carriere de Malancourt-la-Montagne Conservation Area","coordinates":[6.08,49.25]},{"code":"LU-0016","program":"pota","name":"Haard-Hesselsbierg-Staebierg Natura 2000","coordinates":[6.05832,49.4759]},{"code":"LU-0047","program":"pota","name":"Parc Ouerbett – Kayldall Natura 2000","coordinates":[6.0409,49.4844]},{"code":"FL/VO-052","program":"sota","name":"Hutberg","coordinates":[6.097,49.4523]},{"code":"B/F-1764","program":"wwbota","name":"Db1","coordinates":[6.018225,49.392992]},{"code":"B/F-1766","program":"wwbota","name":"Db103","coordinates":[6.020981,49.390563]},{"code":"B/F-1788","program":"wwbota","name":"Db134 - La KREUTZACK","coordinates":[6.001651,49.391603]},{"code":"B/F-1803","program":"wwbota","name":"Db2","coordinates":[6.013509,49.403591]},{"code":"B/F-1925","program":"wwbota","name":"FOND d'HAVANGE - C34","coordinates":[6.007504,49.40203]},{"code":"B/F-1932","program":"wwbota","name":"GROS BOIS - C35","coordinates":[6.019641,49.403678]},{"code":"B/F-1933","program":"wwbota","name":"GROS BOIS - X1","coordinates":[6.022197,49.396164]},{"code":"B/F-1974","program":"wwbota","name":"BASSE PARTHE Est - C46","coordinates":[6.217213,49.432093]},{"code":"B/F-1975","program":"wwbota","name":"BASSE PARTHE Ouest - C45","coordinates":[6.216565,49.432304]},{"code":"B/F-2063","program":"wwbota","name":"BOIS d'ESCHERANGE - X3","coordinates":[6.076954,49.403799]},{"code":"B/F-2065","program":"wwbota","name":"BOIS de KANFEN Est - C43","coordinates":[6.115347,49.427466]},{"code":"B/F-2066","program":"wwbota","name":"BOIS de KANFEN Ouest - C42","coordinates":[6.113442,49.42738]},{"code":"B/F-2069","program":"wwbota","name":"BOIS KARRE - A12","coordinates":[6.20323,49.430564]},{"code":"B/F-2070","program":"wwbota","name":"BOUST - C44","coordinates":[6.17967,49.428392]},{"code":"B/F-2071","program":"wwbota","name":"BUSCHWIESE 1","coordinates":[6.119431,49.423163]},{"code":"B/F-2075","program":"wwbota","name":"Cb10","coordinates":[6.156062,49.430543]},{"code":"B/F-2081","program":"wwbota","name":"Cb10bis - NEULAND","coordinates":[6.157321,49.430269]},{"code":"B/F-2082","program":"wwbota","name":"Cb10ter - SCHUMACHERBERG","coordinates":[6.16491,49.429388]},{"code":"B/F-2083","program":"wwbota","name":"Cb11","coordinates":[6.159305,49.426595]},{"code":"B/F-2084","program":"wwbota","name":"Cb110 - FELSEN","coordinates":[6.247779,49.421354]},{"code":"B/F-2085","program":"wwbota","name":"Cb111 - OBER INKEL","coordinates":[6.248584,49.391304]},{"code":"B/F-2086","program":"wwbota","name":"Cb112 - VOR DEM BERG","coordinates":[6.247712,49.385736]},{"code":"B/F-2091","program":"wwbota","name":"Cb117 - GALGENBERG Ouest","coordinates":[6.249977,49.42546]},{"code":"B/F-2093","program":"wwbota","name":"Cb118 - UNTERHAUSEN","coordinates":[6.246704,49.41129]},{"code":"B/F-2096","program":"wwbota","name":"Cb12","coordinates":[6.150378,49.42747]},{"code":"B/F-2098","program":"wwbota","name":"Cb122 - HASLOCH","coordinates":[6.238224,49.411073]},{"code":"B/F-2099","program":"wwbota","name":"Cb123","coordinates":[6.232284,49.411236]},{"code":"B/F-2100","program":"wwbota","name":"Cb124 - CATTENOM Ouest","coordinates":[6.234601,49.405959]},{"code":"B/F-2101","program":"wwbota","name":"Cb126","coordinates":[6.242504,49.401191]},{"code":"B/F-2102","program":"wwbota","name":"Cb127 - HUSSANGE","coordinates":[6.220933,49.401459]},{"code":"B/F-2103","program":"wwbota","name":"Cb128 - HUSSINGER RAIN","coordinates":[6.226917,49.397355]},{"code":"B/F-2104","program":"wwbota","name":"Cb129 - BRUCH","coordinates":[6.230293,49.377309]},{"code":"B/F-2105","program":"wwbota","name":"Cb13","coordinates":[6.105135,49.420455]},{"code":"B/F-2114","program":"wwbota","name":"Cb13bis - PETERSBERG","coordinates":[6.081567,49.410776]},{"code":"B/F-2115","program":"wwbota","name":"Cb14","coordinates":[6.055463,49.400301]},{"code":"B/F-2126","program":"wwbota","name":"Cb14bis","coordinates":[6.053897,49.401302]},{"code":"B/F-2142","program":"wwbota","name":"Cb17-B - HOMESCHLOCH 3","coordinates":[6.111367,49.425966]},{"code":"B/F-2143","program":"wwbota","name":"Cb17-C - HOMESCHLOCH 2","coordinates":[6.111772,49.426839]},{"code":"B/F-2146","program":"wwbota","name":"Cb174","coordinates":[6.210599,49.42107]},{"code":"B/F-2151","program":"wwbota","name":"Cb204 - LONKICH 01","coordinates":[6.249056,49.437883]},{"code":"B/F-2152","program":"wwbota","name":"Cb205 - LONKICH 02","coordinates":[6.248075,49.436996]},{"code":"B/F-2153","program":"wwbota","name":"Cb206 - KOBENBUSCH","coordinates":[6.244062,49.439262]},{"code":"B/F-2154","program":"wwbota","name":"Cb207","coordinates":[6.236894,49.438173]},{"code":"B/F-2155","program":"wwbota","name":"Cb208 - UNTERE TRAUSCH","coordinates":[6.196933,49.430424]},{"code":"B/F-2156","program":"wwbota","name":"Cb209 - UNTERE TRAUSCH","coordinates":[6.194379,49.429514]},{"code":"B/F-2157","program":"wwbota","name":"Cb213 - BATZEN","coordinates":[6.149073,49.425485]},{"code":"B/F-2158","program":"wwbota","name":"Cb217 - ROUTE du LUXEMBOURG Est","coordinates":[6.160331,49.419645]},{"code":"B/F-2159","program":"wwbota","name":"Cb219 - MEIEREI 2","coordinates":[6.167494,49.423271]},{"code":"B/F-2160","program":"wwbota","name":"Cb224 - BOIS de CATTENOM 06","coordinates":[6.230595,49.437095]},{"code":"B/F-2162","program":"wwbota","name":"Cb225 - BOIS de CATTENOM 03","coordinates":[6.22434,49.43391]},{"code":"B/F-2163","program":"wwbota","name":"Cb226 - BOIS de CATTENOM 02","coordinates":[6.222314,49.433024]},{"code":"B/F-2164","program":"wwbota","name":"Cb228 - BOIS de CATTENOM 01","coordinates":[6.221516,49.432568]},{"code":"B/F-2165","program":"wwbota","name":"Cb229","coordinates":[6.213635,49.431569]},{"code":"B/F-2166","program":"wwbota","name":"Cb232 - CARREFOUR 193","coordinates":[6.22339,49.428106]},{"code":"B/F-2167","program":"wwbota","name":"Cb234 - RIPPERT 2","coordinates":[6.207062,49.419175]},{"code":"B/F-2168","program":"wwbota","name":"Cb235 - RIPPERT 1","coordinates":[6.206273,49.418362]},{"code":"B/F-2169","program":"wwbota","name":"Cb237 - STRESSLING 2","coordinates":[6.135862,49.419821]},{"code":"B/F-2170","program":"wwbota","name":"Cb240","coordinates":[6.194464,49.426815]},{"code":"B/F-2171","program":"wwbota","name":"Cb246 - HELMREICH 1","coordinates":[6.1846,49.41331]},{"code":"B/F-2172","program":"wwbota","name":"Cb248","coordinates":[6.17558,49.415885]},{"code":"B/F-2173","program":"wwbota","name":"Cb249 - HELMREICH 2","coordinates":[6.184327,49.413079]},{"code":"B/F-2174","program":"wwbota","name":"Cb256 - BOIS de ZEITERHOLZ Sud","coordinates":[6.160302,49.407591]},{"code":"B/F-2175","program":"wwbota","name":"Cb257 - CIMETIERE D'HETTANGE","coordinates":[6.154985,49.412001]},{"code":"B/F-2176","program":"wwbota","name":"Cb259 - STRESSLING 3","coordinates":[6.138346,49.418901]},{"code":"B/F-2177","program":"wwbota","name":"Cb260 - STRESSLING 1","coordinates":[6.135451,49.42016]},{"code":"B/F-2178","program":"wwbota","name":"CB261 - OBERRULEN 1","coordinates":[6.144101,49.417435]},{"code":"B/F-2179","program":"wwbota","name":"Cb263","coordinates":[6.149254,49.400843]},{"code":"B/F-2180","program":"wwbota","name":"Cb264","coordinates":[6.140757,49.396487]},{"code":"B/F-2181","program":"wwbota","name":"Cb265","coordinates":[6.142642,49.409005]},{"code":"B/F-2182","program":"wwbota","name":"Cb266","coordinates":[6.14464,49.427862]},{"code":"B/F-2183","program":"wwbota","name":"Cb268 - STOLBUCH","coordinates":[6.135999,49.40658]},{"code":"B/F-2184","program":"wwbota","name":"Cb269","coordinates":[6.137499,49.396342]},{"code":"B/F-2185","program":"wwbota","name":"Cb270 - KLEINE WECKINGEN","coordinates":[6.162169,49.394013]},{"code":"B/F-2186","program":"wwbota","name":"Cb271 - MOULIN DE LA GRANGE","coordinates":[6.170433,49.392004]},{"code":"B/F-2187","program":"wwbota","name":"Cb272 - GENFER 2","coordinates":[6.175294,49.390338]},{"code":"B/F-2188","program":"wwbota","name":"Cb273 - GENFER 1","coordinates":[6.180695,49.390256]},{"code":"B/F-2189","program":"wwbota","name":"Cb274 - SAINTE MARIE 2","coordinates":[6.182035,49.389921]},{"code":"B/F-2190","program":"wwbota","name":"Cb276 - DALEM Ouest","coordinates":[6.244069,49.436488]},{"code":"B/F-2191","program":"wwbota","name":"Cb277 - IDLINGEN","coordinates":[6.243357,49.429815]},{"code":"B/F-2194","program":"wwbota","name":"Cb283","coordinates":[6.228046,49.436759]},{"code":"B/F-2195","program":"wwbota","name":"Cb286 - BOIS de CATTENOM 04","coordinates":[6.225767,49.434961]},{"code":"B/F-2196","program":"wwbota","name":"Cb286 - PESCH Ouest","coordinates":[6.153986,49.42142]},{"code":"B/F-2197","program":"wwbota","name":"Cb287 - MEIEREI 3","coordinates":[6.16723,49.42299]},{"code":"B/F-2198","program":"wwbota","name":"Cb294 - PESCH Est","coordinates":[6.154421,49.42106]},{"code":"B/F-2199","program":"wwbota","name":"Cb295 - OBERRULEN","coordinates":[6.141602,49.414663]},{"code":"B/F-2200","program":"wwbota","name":"Cb296 - KUHDRECK 2","coordinates":[6.173272,49.427219]},{"code":"B/F-2201","program":"wwbota","name":"Cb297 - KUHDRECK","coordinates":[6.170634,49.427762]},{"code":"B/F-2202","program":"wwbota","name":"Cb298 - KUHDRECK 4","coordinates":[6.173866,49.426205]},{"code":"B/F-2203","program":"wwbota","name":"Cb299 - JUNGBUSCH","coordinates":[6.166489,49.420338]},{"code":"B/F-2206","program":"wwbota","name":"Cb301 - KANFENER BUSCH 7","coordinates":[6.128823,49.426869]},{"code":"B/F-2207","program":"wwbota","name":"Cb302 - KANFENER BUSCH 6","coordinates":[6.125284,49.426741]},{"code":"B/F-2208","program":"wwbota","name":"Cb303 - KANFENER BUSCH 3","coordinates":[6.121987,49.427048]},{"code":"B/F-2209","program":"wwbota","name":"Cb304 - BUSCHWIESE 2","coordinates":[6.119809,49.423562]},{"code":"B/F-2210","program":"wwbota","name":"Cb305 - HOMESCHLOCH 1","coordinates":[6.11014,49.425053]},{"code":"B/F-2211","program":"wwbota","name":"Cb306 - KANFENER BUSCH 8","coordinates":[6.128944,49.422667]},{"code":"B/F-2212","program":"wwbota","name":"Cb309 - ZEITERHOLZ Est","coordinates":[6.125217,49.410268]},{"code":"B/F-2213","program":"wwbota","name":"Cb310 - ZEITERHOLZ","coordinates":[6.119469,49.413448]},{"code":"B/F-2214","program":"wwbota","name":"Cb311 - ZEITERHOLZ 1","coordinates":[6.117748,49.41343]},{"code":"B/F-2215","program":"wwbota","name":"Cb313 - RASPICH","coordinates":[6.133536,49.404696]},{"code":"B/F-2216","program":"wwbota","name":"Cb314","coordinates":[6.115663,49.39992]},{"code":"B/F-2217","program":"wwbota","name":"Cb315 - KOLF 1","coordinates":[6.104321,49.405832]},{"code":"B/F-2218","program":"wwbota","name":"Cb316 - BROMMELSBERG Sud","coordinates":[6.097951,49.407461]},{"code":"B/F-2219","program":"wwbota","name":"Cb317 - BROMMELSBERG Nord","coordinates":[6.095759,49.409864]},{"code":"B/F-2220","program":"wwbota","name":"Cb318 - GINSKLOPP Est","coordinates":[6.08885,49.408914]},{"code":"B/F-2221","program":"wwbota","name":"Cb31bis","coordinates":[6.114065,49.400871]},{"code":"B/F-2222","program":"wwbota","name":"Cb32 - KLOPPCHEN","coordinates":[6.147579,49.418526]},{"code":"B/F-2223","program":"wwbota","name":"Cb32-C - UNTERRULEN","coordinates":[6.141007,49.413982]},{"code":"B/F-2224","program":"wwbota","name":"Cb320","coordinates":[6.09354,49.391225]},{"code":"B/F-2225","program":"wwbota","name":"Cb330 - GINSKLOPP Nord","coordinates":[6.086532,49.410127]},{"code":"B/F-2226","program":"wwbota","name":"Cb331 - GINSKLOPP Ouest","coordinates":[6.079933,49.40736]},{"code":"B/F-2227","program":"wwbota","name":"Cb332 - GINSKLOPP Sud","coordinates":[6.079489,49.404845]},{"code":"B/F-2228","program":"wwbota","name":"Cb333 - BOIS de la TIEFKEIL Nord","coordinates":[6.073074,49.405352]},{"code":"B/F-2229","program":"wwbota","name":"Cb334 - BOIS de la TIEFKEIL","coordinates":[6.071031,49.404403]},{"code":"B/F-2230","program":"wwbota","name":"Cb335 - BOIS de la FANK","coordinates":[6.06731,49.404115]},{"code":"B/F-2231","program":"wwbota","name":"Cb336 - SIEBENVIERTEL","coordinates":[6.061792,49.405046]},{"code":"B/F-2232","program":"wwbota","name":"Cb337 - GRAND LOT Nord","coordinates":[6.060591,49.403466]},{"code":"B/F-2233","program":"wwbota","name":"Cb338 - GRAND LOH","coordinates":[6.058807,49.398826]},{"code":"B/F-2234","program":"wwbota","name":"Cb339 - LOHPFAD","coordinates":[6.054608,49.397426]},{"code":"B/F-2235","program":"wwbota","name":"Cb343 - CHATEBOURG","coordinates":[6.061747,49.393468]},{"code":"B/F-2236","program":"wwbota","name":"Cb344 - BREITENBAUM","coordinates":[6.050093,49.393101]},{"code":"B/F-2237","program":"wwbota","name":"Cb345 - PUITS ARMAND","coordinates":[6.039763,49.393598]},{"code":"B/F-2238","program":"wwbota","name":"Cb346 - KUNSNUET Sud","coordinates":[6.03547,49.392481]},{"code":"B/F-2239","program":"wwbota","name":"Cb347","coordinates":[6.063455,49.386416]},{"code":"B/F-2240","program":"wwbota","name":"Cb348 - ARSWEILER FELD","coordinates":[6.059174,49.388031]},{"code":"B/F-2241","program":"wwbota","name":"Cb351","coordinates":[6.033425,49.385718]},{"code":"B/F-2242","program":"wwbota","name":"Cb352","coordinates":[6.164317,49.388763]},{"code":"B/F-2252","program":"wwbota","name":"Cb434-C - ROCKSWINGERT Est 1","coordinates":[6.236762,49.43836]},{"code":"B/F-2256","program":"wwbota","name":"Cb443 - BOIS KARRE 7","coordinates":[6.21125,49.43148]},{"code":"B/F-2257","program":"wwbota","name":"Cb443-B - BOIS KARRE 5","coordinates":[6.21048,49.43131]},{"code":"B/F-2258","program":"wwbota","name":"Cb445 - BOIS KARRE 3","coordinates":[6.207724,49.430494]},{"code":"B/F-2259","program":"wwbota","name":"Cb447 - BOIS KARRE 2","coordinates":[6.206958,49.430309]},{"code":"B/F-2260","program":"wwbota","name":"Cb447-A - BOIS KARRE 1","coordinates":[6.206541,49.430278]},{"code":"B/F-2262","program":"wwbota","name":"Cb600 - LA BRUYERE","coordinates":[6.03983,49.4371]},{"code":"B/F-2263","program":"wwbota","name":"Cb601 - SPITZ","coordinates":[6.054758,49.436567]},{"code":"B/F-2264","program":"wwbota","name":"Cb602 - ROSENBERG","coordinates":[6.058928,49.435727]},{"code":"B/F-2265","program":"wwbota","name":"Cb603 - BELLEVUE","coordinates":[6.078211,49.436906]},{"code":"B/F-2266","program":"wwbota","name":"Cb604 - BELLEVUE","coordinates":[6.078897,49.436465]},{"code":"B/F-2270","program":"wwbota","name":"Cb616","coordinates":[6.058001,49.425037]},{"code":"B/F-2272","program":"wwbota","name":"Cb617","coordinates":[6.05555,49.416001]},{"code":"B/F-2273","program":"wwbota","name":"Cb7","coordinates":[6.249475,49.409991]},{"code":"B/F-2274","program":"wwbota","name":"Cb73-B - CATTENOM Est","coordinates":[6.246368,49.406711]},{"code":"B/F-2275","program":"wwbota","name":"Cb73-C - KUHDRECK 1","coordinates":[6.172342,49.428243]},{"code":"B/F-2278","program":"wwbota","name":"Cb80-C - MEIEREI 4","coordinates":[6.167414,49.422673]},{"code":"B/F-2279","program":"wwbota","name":"Cb81-C - MEIEREI 1","coordinates":[6.167866,49.423455]},{"code":"B/F-2280","program":"wwbota","name":"Cb85-C - BARRUNGSHOFF","coordinates":[6.182978,49.420217]},{"code":"B/F-2281","program":"wwbota","name":"Cb87-A - BORNUNGSHOFF Est","coordinates":[6.1914,49.426992]},{"code":"B/F-2282","program":"wwbota","name":"Cb89 - BORNUNGSHOFF 1","coordinates":[6.183747,49.426268]},{"code":"B/F-2283","program":"wwbota","name":"Cb89-A - BORNUNGSHOFF 2","coordinates":[6.183294,49.426105]},{"code":"B/F-2284","program":"wwbota","name":"Cb89-B - BORNUNGSHOFF 3","coordinates":[6.182168,49.425825]},{"code":"B/F-2285","program":"wwbota","name":"Cb9 - ROCKSWINGERT","coordinates":[6.229338,49.43666]},{"code":"B/F-2286","program":"wwbota","name":"Cbo1","coordinates":[6.141951,49.395143]},{"code":"B/F-2287","program":"wwbota","name":"Cbo2","coordinates":[6.094301,49.388638]},{"code":"B/F-2288","program":"wwbota","name":"Cbo3","coordinates":[6.067643,49.383982]},{"code":"B/F-2291","program":"wwbota","name":"Ct36","coordinates":[6.24647,49.403717]},{"code":"B/F-2292","program":"wwbota","name":"DALEM Est","coordinates":[6.244525,49.436441]},{"code":"B/F-2293","program":"wwbota","name":"ENTRANGE - C41","coordinates":[6.100522,49.420132]},{"code":"B/F-2294","program":"wwbota","name":"ESCHERANGE Est - C38","coordinates":[6.066902,49.410009]},{"code":"B/F-2295","program":"wwbota","name":"ESCHERANGE Ouest - C37","coordinates":[6.066566,49.409238]},{"code":"B/F-2296","program":"wwbota","name":"FRONET Centre","coordinates":[6.157979,49.426107]},{"code":"B/F-2298","program":"wwbota","name":"GRAND LOT - C36","coordinates":[6.062645,49.407797]},{"code":"B/F-2299","program":"wwbota","name":"GRAND LOT - X2","coordinates":[6.064966,49.403277]},{"code":"B/F-2303","program":"wwbota","name":"HELMREICH - X10","coordinates":[6.168688,49.416942]},{"code":"B/F-2314","program":"wwbota","name":"IMMEREN 1","coordinates":[6.140039,49.426265]},{"code":"B/F-2315","program":"wwbota","name":"IMMEREN 2","coordinates":[6.140762,49.425787]},{"code":"B/F-2316","program":"wwbota","name":"IMMEREN 3","coordinates":[6.141892,49.425256]},{"code":"B/F-2317","program":"wwbota","name":"IMMEREN 4","coordinates":[6.143708,49.425787]},{"code":"B/F-2318","program":"wwbota","name":"IMMEREN 5","coordinates":[6.144135,49.425737]},{"code":"B/F-2319","program":"wwbota","name":"IMMEREN 7","coordinates":[6.146392,49.423208]},{"code":"B/F-2320","program":"wwbota","name":"IMMEREN 8","coordinates":[6.144811,49.423248]},{"code":"B/F-2321","program":"wwbota","name":"IMMERHOF - A10","coordinates":[6.135287,49.42623]},{"code":"B/F-2322","program":"wwbota","name":"KANFENER BUSCH 1","coordinates":[6.12039,49.42679]},{"code":"B/F-2323","program":"wwbota","name":"KANFENER BUSCH 2","coordinates":[6.12088,49.426922]},{"code":"B/F-2324","program":"wwbota","name":"KANFENER BUSCH 4","coordinates":[6.122936,49.427105]},{"code":"B/F-2325","program":"wwbota","name":"KANFENER BUSCH 5","coordinates":[6.124201,49.426914]},{"code":"B/F-2332","program":"wwbota","name":"KOBENBUSCH  - A13","coordinates":[6.238017,49.434088]},{"code":"B/F-2336","program":"wwbota","name":"KOLF 2","coordinates":[6.108889,49.404252]},{"code":"B/F-2337","program":"wwbota","name":"KUHDRECK 5","coordinates":[6.173722,49.425469]},{"code":"B/F-2338","program":"wwbota","name":"LONKICH (Sous Quartier Boler - 1° CM)","coordinates":[6.24953,49.434163]},{"code":"B/F-2345","program":"wwbota","name":"MIESCH","coordinates":[6.248118,49.402036]},{"code":"B/F-2346","program":"wwbota","name":"Mo-89C - BORNUNGSHOFF 4","coordinates":[6.181718,49.426136]},{"code":"B/F-2347","program":"wwbota","name":"MOLLBERG 2","coordinates":[6.201351,49.43921]},{"code":"B/F-2348","program":"wwbota","name":"MOLVANGE - A9","coordinates":[6.086715,49.407717]},{"code":"B/F-2354","program":"wwbota","name":"OBERRULEN","coordinates":[6.141636,49.414708]},{"code":"B/F-2355","program":"wwbota","name":"OBERRULEN 2","coordinates":[6.145547,49.418117]},{"code":"B/F-2356","program":"wwbota","name":"PETERSBERG - X4","coordinates":[6.082754,49.411049]},{"code":"B/F-2357","program":"wwbota","name":"PETERSBERG Est - C40","coordinates":[6.073912,49.412469]},{"code":"B/F-2358","program":"wwbota","name":"PETERSBERG Ouest - C39","coordinates":[6.072856,49.412464]},{"code":"B/F-2361","program":"wwbota","name":"ROCHONVILLERS - A8","coordinates":[6.039933,49.402474]},{"code":"B/F-2362","program":"wwbota","name":"SAINTE MARIE","coordinates":[6.181912,49.390046]},{"code":"B/F-2363","program":"wwbota","name":"SAINTE MARIE (168° RIF - 70° RAMF)","coordinates":[6.17719,49.390008]},{"code":"B/F-2364","program":"wwbota","name":"SCHAUMBURGER","coordinates":[6.140656,49.39735]},{"code":"B/F-2375","program":"wwbota","name":"STRESSLING - X7","coordinates":[6.136532,49.418546]},{"code":"B/F-2377","program":"wwbota","name":"UNTERE TRAUSCH","coordinates":[6.191607,49.429557]},{"code":"B/F-4659","program":"wwbota","name":"CT73","coordinates":[6.121396,49.427357]},{"code":"B/F-6469","program":"wwbota","name":"VV-Fort de Guentrange","coordinates":[6.133085,49.37619]},{"code":"B/F-6470","program":"wwbota","name":"VV-ROUSSY le VILLAGE Maison forte","coordinates":[6.177521,49.457861]},{"code":"B/F-6471","program":"wwbota","name":"VV-Immerhof","coordinates":[6.135739,49.424774]},{"code":"B/F-6472","program":"wwbota","name":"VV-ZEITERHOLZ - X6","coordinates":[6.117905,49.411906]},{"code":"B/F-7092","program":"wwbota","name":"Cattenom X14","coordinates":[6.234282,49.433003]},{"code":"B/F-7093","program":"wwbota","name":"Cattenom 2","coordinates":[6.241269,49.433173]}]}