{"lat":49.25,"lon":14.75,"programs":["gma"],"count":28,"references":[{"code":"OL/JC-338","program":"gma","name":"Ve Vrลกkรกch <Ve Vrskach>","coordinates":[14.8365593,49.49307632]},{"code":"OL/JC-346","program":"gma","name":"Choustnรญk <Choustnik>","coordinates":[14.85361,49.33107]},{"code":"OL/JC-363","program":"gma","name":"Jirkova skรกla <Jirkova skala>","coordinates":[14.8378568,49.4514505]},{"code":"OL/JC-373","program":"gma","name":"Na Hejsalech","coordinates":[14.90073395,49.41547012]},{"code":"OL/JC-378","program":"gma","name":"Homole","coordinates":[14.80723095,49.46464539]},{"code":"OL/JC-387","program":"gma","name":"Na Skรกle <Na Skale>","coordinates":[14.90568733,49.47800827]},{"code":"OL/JC-402","program":"gma","name":"Na Vrลกku <Na Vrsku>","coordinates":[14.89081573,49.41135788]},{"code":"OL/JC-412","program":"gma","name":"Pรกnลฏv vrch <Panuv vrch>","coordinates":[14.95745277,49.25603867]},{"code":"OL/JC-416","program":"gma","name":"Deลกtenskรก hora <Destenska hora>","coordinates":[14.93800068,49.2507782]},{"code":"OL/JC-438","program":"gma","name":"ลฝidovskรก strรกล <Zidovska stran>","coordinates":[14.89178658,49.42150497]},{"code":"OL/JC-449","program":"gma","name":"Patรกkลฏv kopec <Patakuv kopec>","coordinates":[14.80585098,49.47860336]},{"code":"OL/JC-488","program":"gma","name":"Kovanรญยญn <Kovanin>","coordinates":[14.81547356,49.48926926]},{"code":"OL/JC-492","program":"gma","name":"Hลฏrka <Hurka>","coordinates":[14.92940044,49.25019073]},{"code":"OL/JC-506","program":"gma","name":"Podustupky","coordinates":[14.90821838,49.30559158]},{"code":"OL/JC-517","program":"gma","name":"Maryลกkovskรฝ kopec <Maryskovsky kopec>","coordinates":[14.95590878,49.26201248]},{"code":"OL/JC-525","program":"gma","name":"Strรกลพiลกtฤ <Straziste>","coordinates":[14.89254475,49.32673645]},{"code":"OL/JC-534","program":"gma","name":"Ve Vrลกรญยญch <Ve Vrsich>","coordinates":[14.7948904,49.43944168]},{"code":"OL/JC-538","program":"gma","name":"Vrchy","coordinates":[14.78888035,49.43173981]},{"code":"OL/JC-586","program":"gma","name":"Snฤลพnรญk <Sneznik>","coordinates":[14.89584446,49.27614975]},{"code":"OL/JC-607","program":"gma","name":"Vrch","coordinates":[14.84977531,49.37986755]},{"code":"OL/JC-637","program":"gma","name":"Hลฏrky <Hurky>","coordinates":[14.8331089,49.41956711]},{"code":"OL/JC-659","program":"gma","name":"Budislavskรก hora <Budislavska hora>","coordinates":[14.85684872,49.2972641]},{"code":"OL/JC-666","program":"gma","name":"Ve Vrลกรญยญch <Ve Vrsich>","coordinates":[14.82126904,49.33844757]},{"code":"OL/JC-845","program":"gma","name":"U Malovce","coordinates":[14.7928059,49.2719811]},{"code":"OL/JC-939","program":"gma","name":"Batkovy","coordinates":[14.83199978,49.4640007]},{"code":"OL/JC-947","program":"gma","name":"Najdeckรฉ ฤihadlo <Najdecke Cihadlo>","coordinates":[14.97200012,49.25500107]},{"code":"OL/JC-953","program":"gma","name":"Blanรญk <Blanik>","coordinates":[14.86400032,49.37099838]},{"code":"OL/VY-173","program":"gma","name":"Svidnรญยญk <Svidnik>","coordinates":[14.95899963,49.39300156]}]}