{"lat":49.25,"lon":14.25,"programs":["gma","wwbota"],"count":36,"references":[{"code":"OL/JC-455","program":"gma","name":"Kostelí­k <Kostelik>","coordinates":[14.4410696,49.49740982]},{"code":"OL/JC-470","program":"gma","name":"Pahrbek","coordinates":[14.48132992,49.47851944]},{"code":"OL/JC-510","program":"gma","name":"Stráže <Straze>","coordinates":[14.41604328,49.47534943]},{"code":"OL/JC-513","program":"gma","name":"Bytina","coordinates":[14.25866127,49.26403046]},{"code":"OL/JC-560","program":"gma","name":"V Hoře <V Hore>","coordinates":[14.48268032,49.46841812]},{"code":"OL/JC-577","program":"gma","name":"Vitanka","coordinates":[14.42601299,49.46323776]},{"code":"OL/JC-597","program":"gma","name":"Matka","coordinates":[14.25874043,49.27338791]},{"code":"OL/JC-598","program":"gma","name":"Na Neckách <Na Neckach>","coordinates":[14.38526726,49.49029922]},{"code":"OL/JC-687","program":"gma","name":"Na Brdech","coordinates":[14.30593014,49.4864006]},{"code":"OL/JC-695","program":"gma","name":"Zvíkovec <Zvikovec>","coordinates":[14.3420105,49.44566345]},{"code":"OL/JC-713","program":"gma","name":"Mladšiny <Mladsiny>","coordinates":[14.31421757,49.39678574]},{"code":"OL/JC-725","program":"gma","name":"Na Panském vrchu <Na Panskem vrchu>","coordinates":[14.47496033,49.44781113]},{"code":"OL/JC-726","program":"gma","name":"Hladomře <Hladomre>","coordinates":[14.39070225,49.46176147]},{"code":"OL/JC-733","program":"gma","name":"Dubový vrch <Dubovy vrch>","coordinates":[14.31959152,49.3350029]},{"code":"OL/JC-750","program":"gma","name":"Lomy","coordinates":[14.37994003,49.40906143]},{"code":"OL/JC-755","program":"gma","name":"Vlčí­ vrch <Vlci vrch>","coordinates":[14.39138031,49.40279007]},{"code":"OL/JC-763","program":"gma","name":"Koška <Koska>","coordinates":[14.27313805,49.48331833]},{"code":"OL/JC-765","program":"gma","name":"U Pomní­ku <U Pomniku>","coordinates":[14.26208973,49.47246933]},{"code":"OL/JC-781","program":"gma","name":"Tábor <Tabor>","coordinates":[14.35415936,49.31886292]},{"code":"OL/JC-783","program":"gma","name":"Hájiště <Hajiste>","coordinates":[14.38362503,49.25994492]},{"code":"OL/JC-788","program":"gma","name":"Čepinec <Cepinec>","coordinates":[14.349707,49.3309288]},{"code":"OL/JC-791","program":"gma","name":"Kamenný vrch <Kamenny vrch>","coordinates":[14.3653888,49.2673297]},{"code":"OL/JC-795","program":"gma","name":"Na Kopci","coordinates":[14.36142,49.32749]},{"code":"OL/JC-806","program":"gma","name":"Kuřinec <Kurinec>","coordinates":[14.3659678,49.4706946]},{"code":"OL/JC-815","program":"gma","name":"Chumelák <Chumelak>","coordinates":[14.2634676,49.4358343]},{"code":"OL/JC-816","program":"gma","name":"Jahodinská <Jahodinska>","coordinates":[14.41312,49.32735]},{"code":"OL/JC-831","program":"gma","name":"Chrášťanská hůrka <Chrastanka hurka>","coordinates":[14.3902252,49.2864614]},{"code":"OL/JC-836","program":"gma","name":"Dubový vrch <Dubovy vrch>","coordinates":[14.415753,49.2766626]},{"code":"OL/JC-842","program":"gma","name":"Babina","coordinates":[14.4197339,49.2935937]},{"code":"OL/JC-869","program":"gma","name":"Čihadlo <Cihadlo>","coordinates":[14.3208664,49.2582972]},{"code":"OL/JC-958","program":"gma","name":"Pasecký vrch <Pasecky vrch>","coordinates":[14.26200008,49.25999832]},{"code":"OL/JC-973","program":"gma","name":"Obora","coordinates":[14.31700039,49.4070015]},{"code":"OL/JC-975","program":"gma","name":"Chlum","coordinates":[14.26200008,49.45299911]},{"code":"OL/JC-977","program":"gma","name":"Chlum","coordinates":[14.44900036,49.42100143]},{"code":"OL/JC-984","program":"gma","name":"Chlum","coordinates":[14.35999966,49.29299927]},{"code":"B/OK-0248","program":"wwbota","name":"139/28/A-180Z Pasovice","coordinates":[14.34022,49.26065]}]}