{"lat":49.25,"lon":0.5,"programs":["pota"],"count":33,"references":[{"code":"FR-0902","program":"pota","name":"Marais Vernier State Nature Preserve","coordinates":[0.533609,49.4209]},{"code":"FR-7558","program":"pota","name":"Geosite de la foret de Quintefeuille Conservation Area","coordinates":[0.55024,49.3465]},{"code":"FR-8883","program":"pota","name":"Marais Des Litieres De Quillebeuf Biological Reserve","coordinates":[0.51039,49.4328]},{"code":"FR-8884","program":"pota","name":"Grotte De L'Ecu a Vatteville La Rue Biological Reserve","coordinates":[0.712,49.411]},{"code":"FR-9047","program":"pota","name":"LE MARAIS ALLUVIAL DE QUILLEBEUF-SUR-SEINE Biological Reserve","coordinates":[0.50009,49.4765]},{"code":"FR-9050","program":"pota","name":"LES MARES PRAIRIALES A SAINTE-OPPORTUNE-LA-MARE ET SAINT-THURIEN Biological Reserve","coordinates":[0.56549,49.4107]},{"code":"FR-9051","program":"pota","name":"LE BOIS DE POURTOUR DE MARAIS-VERNIER Biological Reserve","coordinates":[0.50359,49.4134]},{"code":"FR-9052","program":"pota","name":"LES MARAIS D'AIZIER ET DE VIEUX-PORT Biological Reserve","coordinates":[0.62749,49.4332]},{"code":"FR-9053","program":"pota","name":"LE MARAIS DE LA VAQUERIE A VATTEVILLE-LA-RUE Biological Reserve","coordinates":[0.66082,49.4534]},{"code":"FR-9055","program":"pota","name":"LA CAVITE DE LA BERANGUERIE Biological Reserve","coordinates":[0.59448,49.3805]},{"code":"FR-9056","program":"pota","name":"LA CAVITE DU BOIS DE SAINT-LAURENT Biological Reserve","coordinates":[0.60154,49.3611]},{"code":"FR-9057","program":"pota","name":"LES PRAIRIES A L'EST DE PONT-AUDEMER Biological Reserve","coordinates":[0.56615,49.3426]},{"code":"FR-9058","program":"pota","name":"LES PRAIRIES DU RICQUE DES CAILLOUX ET DE LA RIVIERE DES ECHAUDES Biological Reserve","coordinates":[0.5901,49.3292]},{"code":"FR-9059","program":"pota","name":"LES PRAIRIES ET LES ETANGS DE LA MULOTIERE ET DE LA THILLAIE Biological Reserve","coordinates":[0.62405,49.3147]},{"code":"FR-9060","program":"pota","name":"LE BOIS DU VAL ACCARD Biological Reserve","coordinates":[0.62089,49.2991]},{"code":"FR-9061","program":"pota","name":"LE CHENE À LA VIERGE Biological Reserve","coordinates":[0.69634,49.335]},{"code":"FR-9062","program":"pota","name":"LE ROND DE BEUVRON Biological Reserve","coordinates":[0.6872,49.305]},{"code":"FR-9063","program":"pota","name":"LE BOIS D'AVRANCHES Biological Reserve","coordinates":[0.65007,49.2861]},{"code":"FR-9064","program":"pota","name":"LES PRES DE MORIGNY Biological Reserve","coordinates":[0.66477,49.2721]},{"code":"FR-9065","program":"pota","name":"LA PETITE VALLEE Biological Reserve","coordinates":[0.69818,49.2706]},{"code":"FR-9067","program":"pota","name":"LES PRAIRIES DE LA VERONNE AMONT Biological Reserve","coordinates":[0.52913,49.2588]},{"code":"FR-9068","program":"pota","name":"LES PRAIRIES DU BOURGOIN Biological Reserve","coordinates":[0.54902,49.2863]},{"code":"FR-9069","program":"pota","name":"LES PRAIRIES ET LES BOIS DU CALVAIRE Biological Reserve","coordinates":[0.51801,49.2882]},{"code":"FR-9070","program":"pota","name":"LE BOURG DE SELLES Biological Reserve","coordinates":[0.50524,49.3083]},{"code":"FR-9215","program":"pota","name":"L'ESTUAIRE DU COMMERCE Biological Reserve","coordinates":[0.52656,49.4835]},{"code":"FR-9223","program":"pota","name":"LA VASIERE DE LA SEINE A PETIVILLE, SAINT-MAURICE-D'ETELAN Biological Reserve","coordinates":[0.59515,49.4353]},{"code":"FR-9224","program":"pota","name":"LE MARAIS DE PETIVILLE, SAINT-MAURICE-D'ETELAN Biological Reserve","coordinates":[0.60693,49.4544]},{"code":"FR-9225","program":"pota","name":"LES CAVITES DU BOIS DE CAUMONT Biological Reserve","coordinates":[0.64481,49.498]},{"code":"FR-9228","program":"pota","name":"LA FORET DE BROTONNE Biological Reserve","coordinates":[0.70996,49.4412]},{"code":"FR-9229","program":"pota","name":"LE VALLON DE COURT VAL A TROUVILLE-LA-HAULE Biological Reserve","coordinates":[0.5801,49.4294]},{"code":"FR-9230","program":"pota","name":"LES CAVITES DE SAINTE-CROIX-SUR-AIZIER Biological Reserve","coordinates":[0.6246,49.4158]},{"code":"FR-9231","program":"pota","name":"LA MARE TONNE EN FORÊT DE BROTONNE Biological Reserve","coordinates":[0.70914,49.4675]},{"code":"FR-9232","program":"pota","name":"LA MARE DE BOURNEVILLE EN FORET DE BROTONNE Biological Reserve","coordinates":[0.68893,49.4487]}]}