{"lat":49.5,"lon":1.75,"programs":["pota"],"count":5,"references":[{"code":"FR-3050","program":"pota","name":"Reseau de coteaux et vallee du bassin de la Selle FR2200362 Natura 2000","coordinates":[1.94667,49.7206]},{"code":"FR-3052","program":"pota","name":"Reseau de coteaux crayeux du bassin de l Oise aval FR2200369 Natura 2000","coordinates":[1.98778,49.525]},{"code":"FR-6049","program":"pota","name":"La Montagne de Guizancourt Biological Reserve","coordinates":[1.9945,49.7376]},{"code":"FR-6050","program":"pota","name":"Vallee des Evoissons Biological Reserve","coordinates":[1.96512,49.7259]},{"code":"FR-10920","program":"pota","name":"Pointe de jardeheu - anse st martin Biological Reserve","coordinates":[1.84522,49.6961]}]}