{"lat":49.5,"lon":10.25,"programs":["gma","pota","sota","wwbota"],"count":10,"references":[{"code":"DA/BM-075","program":"gma","name":"Bullenheimer Berg","coordinates":[10.25249958,49.61940002]},{"code":"DA/BM-076","program":"gma","name":"Hoher Landsberg","coordinates":[10.29780006,49.59469986]},{"code":"DA/BM-077","program":"gma","name":"Schneckenberg","coordinates":[10.28170013,49.62250137]},{"code":"DA/BM-080","program":"gma","name":"Iffigheimer Berg","coordinates":[10.31719971,49.62139893]},{"code":"DA/BM-081","program":"gma","name":"Schlossberg","coordinates":[10.32250023,49.69829941]},{"code":"DA/BM-082","program":"gma","name":"Kalbberg","coordinates":[10.29360008,49.7030983]},{"code":"DA/BM-311","program":"gma","name":"Schwanberg","coordinates":[10.27439976,49.72249985]},{"code":"DE-0023","program":"pota","name":"Steigerwald Nature Park","coordinates":[10.2632,49.6221]},{"code":"DM/BM-099","program":"sota","name":"Scheinberg","coordinates":[10.2872,49.6142]},{"code":"B/DL-0743","program":"wwbota","name":"Panzerturm Mark Nordheim","coordinates":[10.308435,49.604495]}]}