{"lat":49.5,"lon":-123.5,"programs":["sota"],"count":17,"references":[{"code":"VE7/SC-007","program":"sota","name":"Mt. Gambier","coordinates":[-123.4175,49.5039]},{"code":"VE7/SC-009","program":"sota","name":"Leading Peak","coordinates":[-123.3042,49.5389]},{"code":"VE7/SC-074","program":"sota","name":"Slippery Peak (Donaldson NW)","coordinates":[-123.4687,49.7179]},{"code":"VE7/SC-082","program":"sota","name":"Mount Varley","coordinates":[-123.4735,49.6073]},{"code":"VE7/SC-084","program":"sota","name":"Nootka Peak","coordinates":[-123.3934,49.7006]},{"code":"VE7/SC-085","program":"sota","name":"Mount Wrottesley","coordinates":[-123.3575,49.6026]},{"code":"VE7/SC-087","program":"sota","name":"Henriette Peak (Sechelt Ridge)","coordinates":[-123.3739,49.6838]},{"code":"VE7/SC-089","program":"sota","name":"Mount Donaldson","coordinates":[-123.4551,49.7057]},{"code":"VE7/SC-091","program":"sota","name":"Alacia Peak","coordinates":[-123.4673,49.6478]},{"code":"VE7/SC-106","program":"sota","name":"Foulger Peak","coordinates":[-123.3412,49.6471]},{"code":"VE7/SC-107","program":"sota","name":"VE7/SC-107","coordinates":[-123.3698,49.6294]},{"code":"VE7/SC-109","program":"sota","name":"Potlatch Peak","coordinates":[-123.3771,49.6488]},{"code":"VE7/SC-111","program":"sota","name":"Thirtynine Mountain","coordinates":[-123.4053,49.6491]},{"code":"VE7/SC-112","program":"sota","name":"Box Canyon SE3","coordinates":[-123.4526,49.5665]},{"code":"VE7/SC-144","program":"sota","name":"VE7/SC-144","coordinates":[-123.4558,49.5137]},{"code":"VE7/SL-097","program":"sota","name":"Mt. Sedgwick","coordinates":[-123.3372,49.7439]},{"code":"VE7/SL-137","program":"sota","name":"Mt. Conybeare","coordinates":[-123.2758,49.7422]}]}