{"lat":49.5,"lon":-125.25,"programs":["pota","sota"],"count":17,"references":[{"code":"CA-3363","program":"pota","name":"Comox Lake Bluffs Ecological Reserve","coordinates":[-125.111,49.6398]},{"code":"CA-3623","program":"pota","name":"Wildwood Forest Recreation Site","coordinates":[-125.06,49.6973]},{"code":"CA-4304","program":"pota","name":"Wood Mountain Ski Provincial Park","coordinates":[-125.164,49.6617]},{"code":"VE7/CS-140","program":"sota","name":"VE7/CS-140","coordinates":[-125.0622,49.5071]},{"code":"VE7/CS-171","program":"sota","name":"Mount Clifton","coordinates":[-125.0687,49.524]},{"code":"VE7/CS-189","program":"sota","name":"Mount Becher","coordinates":[-125.2235,49.6499]},{"code":"VE7/CS-199","program":"sota","name":"Mount Drabble","coordinates":[-125.2401,49.6793]},{"code":"VE7/CS-227","program":"sota","name":"VE7/CS-227","coordinates":[-125.0932,49.541]},{"code":"VE7/CS-228","program":"sota","name":"Indianhead Mountain","coordinates":[-125.2493,49.6642]},{"code":"VE7/CS-237","program":"sota","name":"VE7/CS-237","coordinates":[-125.1093,49.5467]},{"code":"VE7/CS-240","program":"sota","name":"VE7/CS-240","coordinates":[-125.1979,49.6384]},{"code":"VE7/CS-258","program":"sota","name":"VE7/CS-258","coordinates":[-125.2433,49.6249]},{"code":"VE7/CS-303","program":"sota","name":"VE7/CS-303","coordinates":[-125.2299,49.6343]},{"code":"VE7/CS-332","program":"sota","name":"VE7/CS-332","coordinates":[-125.2153,49.7142]},{"code":"VE7/CS-341","program":"sota","name":"Rough and Tumble Mountain","coordinates":[-125.2251,49.5468]},{"code":"VE7/CS-421","program":"sota","name":"Alone Mountain","coordinates":[-125.2313,49.5917]},{"code":"VE7/CS-469","program":"sota","name":"Mount Hennessy","coordinates":[-125.1634,49.5173]}]}