{"lat":49.5,"lon":19,"programs":["gma","pota","sota"],"count":21,"references":[{"code":"SO/SL-041","program":"gma","name":"Rachowiec","coordinates":[19.004194,49.502917]},{"code":"SO/SL-050","program":"gma","name":"Kiczora","coordinates":[19.044278,49.518417]},{"code":"PL-1214","program":"pota","name":"Grapa Nature Reserve","coordinates":[19.2283,49.6786]},{"code":"PL-1234","program":"pota","name":"Żywiecki Landscape Park","coordinates":[19.1809,49.501]},{"code":"PL-1238","program":"pota","name":"Kuźnie Nature Reserve","coordinates":[19.0561,49.6439]},{"code":"PL-1266","program":"pota","name":"Butorza Nature Reserve","coordinates":[19.0193,49.519]},{"code":"PL-1269","program":"pota","name":"Barania Góra I Nature Reserve","coordinates":[19.0033,49.6105]},{"code":"PL-1975","program":"pota","name":"Lipowska Nature Reserve","coordinates":[19.2236,49.5336]},{"code":"PL-2016","program":"pota","name":"Beskid Żywiecki OP Natura 2000","coordinates":[19.1939,49.5417]},{"code":"PL-2118","program":"pota","name":"Beskid Śląski Natura 2000","coordinates":[19.0511,49.6347]},{"code":"PL-2146","program":"pota","name":"Pod Rysianką Nature Reserve","coordinates":[19.2483,49.5339]},{"code":"PL-2160","program":"pota","name":"Romanka Nature Reserve","coordinates":[19.2411,49.5617]},{"code":"SP/BZ-003","program":"sota","name":"Romanka","coordinates":[19.2419,49.5608]},{"code":"SP/BZ-004","program":"sota","name":"Lipowska","coordinates":[19.2186,49.5316]},{"code":"SP/BZ-008","program":"sota","name":"Skrzyczne","coordinates":[19.03,49.6844]},{"code":"SP/BZ-012","program":"sota","name":"Barania (Barania Góra)","coordinates":[19.0106,49.6114]},{"code":"SP/BZ-029","program":"sota","name":"Sucha Góra","coordinates":[19.1414,49.5269]},{"code":"SP/BZ-032","program":"sota","name":"Prusów","coordinates":[19.1456,49.5589]},{"code":"SP/BZ-040","program":"sota","name":"Rachowiec","coordinates":[19.0042,49.5031]},{"code":"SP/BZ-064","program":"sota","name":"Zabawa","coordinates":[19.0817,49.5325]},{"code":"SP/BZ-077","program":"sota","name":"Wielki Grojec","coordinates":[19.1958,49.6597]}]}