{"lat":49.5,"lon":3.25,"programs":["pota","sota","wwbota"],"count":9,"references":[{"code":"FR-2912","program":"pota","name":"Forets picardes massif de Saint-Gobain FR2212002 Natura 2000","coordinates":[3.425,49.5781]},{"code":"FR-3066","program":"pota","name":"Landes de Versigny FR2200391 Natura 2000","coordinates":[3.45806,49.6378]},{"code":"FR-3067","program":"pota","name":"Massif forestier de Saint Gobain FR2200392 Natura 2000","coordinates":[3.41583,49.5558]},{"code":"FR-11168","program":"pota","name":"bois de la queue, bois des longues tailles Biological Reserve","coordinates":[3.47872,49.651]},{"code":"FR-11169","program":"pota","name":"bois du montoir a coucy-le-chateau Biological Reserve","coordinates":[3.29576,49.5243]},{"code":"FR-11170","program":"pota","name":"Corniche de Jumencourt a Quincy Basse Biological Reserve","coordinates":[3.36575,49.5164]},{"code":"FR-11171","program":"pota","name":"bois du monthizel et marais de nogent Biological Reserve","coordinates":[3.3257,49.5047]},{"code":"FL/NO-101","program":"sota","name":"Rond de Rumigny","coordinates":[3.4209,49.56]},{"code":"B/F-6939","program":"wwbota","name":"Nouvion Le Comte","coordinates":[3.464024,49.694527]}]}