{"lat":49.5,"lon":-122.25,"programs":["sota"],"count":30,"references":[{"code":"VE7/FV-058","program":"sota","name":"Grainger Peak","coordinates":[-122.0722,49.5822]},{"code":"VE7/FV-061","program":"sota","name":"Mt. Clarke","coordinates":[-122.1028,49.5331]},{"code":"VE7/FV-072","program":"sota","name":"Nursery Peak","coordinates":[-122.0781,49.5647]},{"code":"VE7/FV-075","program":"sota","name":"Mount Thirsk","coordinates":[-122.2336,49.6747]},{"code":"VE7/FV-078","program":"sota","name":"Winslow Peak","coordinates":[-122.2478,49.5875]},{"code":"VE7/FV-081","program":"sota","name":"Tretheway Peak","coordinates":[-122.2125,49.6406]},{"code":"VE7/FV-082","program":"sota","name":"Tretheway NE2","coordinates":[-122.1989,49.6545]},{"code":"VE7/FV-083","program":"sota","name":"Doctors Peak","coordinates":[-122.0553,49.6217]},{"code":"VE7/FV-087","program":"sota","name":"Tipella E2","coordinates":[-122.2347,49.7089]},{"code":"VE7/FV-088","program":"sota","name":"Doctors Sw1","coordinates":[-122.0628,49.6133]},{"code":"VE7/FV-089","program":"sota","name":"Winslow S3","coordinates":[-122.2489,49.5622]},{"code":"VE7/FV-091","program":"sota","name":"Spanish Peak (Trio Peak)","coordinates":[-122.0231,49.5822]},{"code":"VE7/FV-092","program":"sota","name":"Coon Peak","coordinates":[-122.1203,49.6564]},{"code":"VE7/FV-093","program":"sota","name":"Tretheway NE5","coordinates":[-122.1797,49.6844]},{"code":"VE7/FV-094","program":"sota","name":"Russian Peak(Grainger E3)","coordinates":[-122.0356,49.5772]},{"code":"VE7/FV-095","program":"sota","name":"Winslow S5","coordinates":[-122.2425,49.5458]},{"code":"VE7/FV-097","program":"sota","name":"Doctors E2 (Trio Creek Spires)","coordinates":[-122.0344,49.6189]},{"code":"VE7/FV-098","program":"sota","name":"Chinese Peak (Trio S2)","coordinates":[-122.0156,49.5692]},{"code":"VE7/FV-100","program":"sota","name":"Medic Peak (Doctors SW3)","coordinates":[-122.0933,49.6075]},{"code":"VE7/FV-101","program":"sota","name":"Kessler Peak","coordinates":[-122.1981,49.5911]},{"code":"VE7/FV-103","program":"sota","name":"Bremner Peak","coordinates":[-122.1458,49.6222]},{"code":"VE7/FV-107","program":"sota","name":"Bremner S2","coordinates":[-122.1536,49.6083]},{"code":"VE7/FV-115","program":"sota","name":"Viennese E3","coordinates":[-122.05,49.54]},{"code":"VE7/FV-123","program":"sota","name":"Bremner S4","coordinates":[-122.1522,49.5847]},{"code":"VE7/FV-125","program":"sota","name":"Lanner Peak (Viennese SE3)","coordinates":[-122.0489,49.5258]},{"code":"VE7/FV-126","program":"sota","name":"Coon E2","coordinates":[-122.0972,49.6539]},{"code":"VE7/FV-310","program":"sota","name":"Mount Douglas","coordinates":[-122.0338,49.7481]},{"code":"VE7/FV-487","program":"sota","name":"FC33","coordinates":[-122.2336,49.5357]},{"code":"VE7/FV-524","program":"sota","name":"FC13","coordinates":[-122.233,49.5157]},{"code":"VE7/FV-552","program":"sota","name":"FB66","coordinates":[-122.168,49.565]}]}