{"lat":49.5,"lon":13.25,"programs":["gma","pota"],"count":56,"references":[{"code":"OL/PL-1000","program":"gma","name":"Jezevčí­ skála <Jezevci skala>","coordinates":[13.4829998,49.5379982]},{"code":"OL/PL-1007","program":"gma","name":"Radyně <Radyne>","coordinates":[13.46399975,49.68099976]},{"code":"OL/PL-1009","program":"gma","name":"Kněžská skála <Knezska skala>","coordinates":[13.43099976,49.5870018]},{"code":"OL/PL-1012","program":"gma","name":"Loupensko","coordinates":[13.34799957,49.52299881]},{"code":"OL/PL-1017","program":"gma","name":"Vysoká <Vysoka>","coordinates":[13.3739996,49.64500046]},{"code":"OL/PL-1031","program":"gma","name":"Šlovický vrch <Slovicky vrch>","coordinates":[13.3213014,49.6661722]},{"code":"OL/PL-1052","program":"gma","name":"Štěnovický vrch <Stenovicky vrch>","coordinates":[13.413631,49.6659]},{"code":"OL/PL-329","program":"gma","name":"Buč <Buc>","coordinates":[13.47682285,49.51047516]},{"code":"OL/PL-429","program":"gma","name":"Chroustov","coordinates":[13.49324322,49.5191803]},{"code":"OL/PL-433","program":"gma","name":"Hájek <Hajek>","coordinates":[13.4258709,49.55534363]},{"code":"OL/PL-457","program":"gma","name":"Kožich <Kozich>","coordinates":[13.44318104,49.57104874]},{"code":"OL/PL-504","program":"gma","name":"Nevěrná <Neverna>","coordinates":[13.41191959,49.53190994]},{"code":"OL/PL-509","program":"gma","name":"Holý vrch <Holy vrch>","coordinates":[13.404706,49.50554276]},{"code":"OL/PL-525","program":"gma","name":"Luh","coordinates":[13.38843918,49.50287247]},{"code":"OL/PL-599","program":"gma","name":"Stramchyně <Stramchyne>","coordinates":[13.28590679,49.50888062]},{"code":"OL/PL-603","program":"gma","name":"Černý les <Cerny les>","coordinates":[13.3639698,49.53236008]},{"code":"OL/PL-611","program":"gma","name":"Stří­brnice <Stribrnice>","coordinates":[13.25860977,49.51200104]},{"code":"OL/PL-612","program":"gma","name":"Pahorek","coordinates":[13.47123146,49.60114288]},{"code":"OL/PL-627","program":"gma","name":"Farská skála <Farska skala>","coordinates":[13.46173954,49.64592361]},{"code":"OL/PL-637","program":"gma","name":"Jindří­n <Jindrin>","coordinates":[13.38558006,49.54608154]},{"code":"OL/PL-673","program":"gma","name":"Vlčtejn - Ruins <Vlctejn - Ruins>","coordinates":[13.49738026,49.61494446]},{"code":"OL/PL-679","program":"gma","name":"Suš <Sus>","coordinates":[13.49282646,49.55789185]},{"code":"OL/PL-681","program":"gma","name":"Hájsko <Hajsko>","coordinates":[13.40118217,49.61019897]},{"code":"OL/PL-689","program":"gma","name":"Střížov <Strizov>","coordinates":[13.3698864,49.57565308]},{"code":"OL/PL-750","program":"gma","name":"Skočická Mýť <Skocicka Myt>","coordinates":[13.27217388,49.55674744]},{"code":"OL/PL-758","program":"gma","name":"Průhon <Pruhon>","coordinates":[13.44199657,49.63256073]},{"code":"OL/PL-764","program":"gma","name":"Lužanská hora <Luzanska hora>","coordinates":[13.32525063,49.53471756]},{"code":"OL/PL-768","program":"gma","name":"Na Pohodnici","coordinates":[13.49035549,49.7418251]},{"code":"OL/PL-790","program":"gma","name":"Na Homolce","coordinates":[13.38512993,49.59997559]},{"code":"OL/PL-798","program":"gma","name":"Hůrka <Hurka>","coordinates":[13.39472389,49.55728912]},{"code":"OL/PL-804","program":"gma","name":"Stradiště <Stradiste>","coordinates":[13.48625755,49.72007751]},{"code":"OL/PL-814","program":"gma","name":"Skalka","coordinates":[13.32016373,49.52183151]},{"code":"OL/PL-818","program":"gma","name":"Ticholovec","coordinates":[13.35721397,49.56417465]},{"code":"OL/PL-824","program":"gma","name":"Holý vrch <Holy vrch>","coordinates":[13.26422691,49.53439331]},{"code":"OL/PL-837","program":"gma","name":"Tlustá hora <Tlusta hora>","coordinates":[13.37890434,49.62744904]},{"code":"OL/PL-848","program":"gma","name":"Vinařovic vršek (Kolí­bka) <Vinarovic vrsek (Kolib","coordinates":[13.45393944,49.66477966]},{"code":"OL/PL-864","program":"gma","name":"Kluk","coordinates":[13.35706139,49.65765381]},{"code":"OL/PL-878","program":"gma","name":"Na Kocandě <Na Kocande>","coordinates":[13.47260857,49.71291733]},{"code":"OL/PL-904","program":"gma","name":"Ří­pec <Ripec>","coordinates":[13.30328274,49.5496521]},{"code":"OL/PL-909","program":"gma","name":"Háje <haje>","coordinates":[13.44092464,49.71987152]},{"code":"OL/PL-910","program":"gma","name":"Val","coordinates":[13.41239643,49.68422318]},{"code":"OL/PL-918","program":"gma","name":"Hůrka <Hurka>","coordinates":[13.48347855,49.70597076]},{"code":"OL/PL-919","program":"gma","name":"Březní­k <Breznik>","coordinates":[13.34320545,49.54656219]},{"code":"OL/PL-922","program":"gma","name":"Hůrka <Hurka>","coordinates":[13.27007008,49.60687637]},{"code":"OL/PL-923","program":"gma","name":"Ve Vrší­ch <Ve Vrsich>","coordinates":[13.31114197,49.62000275]},{"code":"OL/PL-927","program":"gma","name":"Skočický holý vrch <Skocicky holy vrch>","coordinates":[13.30506039,49.55345917]},{"code":"OL/PL-940","program":"gma","name":"Dubová hora <Dubova hora>","coordinates":[13.33973408,49.69122696]},{"code":"OL/PL-946","program":"gma","name":"Zlí­n <Zlin>","coordinates":[13.36526966,49.60709]},{"code":"OL/PL-947","program":"gma","name":"Kotlí­k <Kotlik>","coordinates":[13.36039257,49.69044113]},{"code":"OL/PL-948","program":"gma","name":"Březový vrch <Brezovy vrch>","coordinates":[13.32304668,49.67328262]},{"code":"OL/PL-949","program":"gma","name":"Kamí­nek <Kaminek>","coordinates":[13.278965,49.66241837]},{"code":"OL/PL-950","program":"gma","name":"Holý Zlí­n <Holy Zlin>","coordinates":[13.3617239,49.60461044]},{"code":"OL/PL-953","program":"gma","name":"Hůrka <Hurka>","coordinates":[13.35765648,49.70580292]},{"code":"OL/PL-955","program":"gma","name":"Homolka","coordinates":[13.39798641,49.72362137]},{"code":"CZ-0060","program":"pota","name":"Šlovický vrch Nature Monument","coordinates":[13.3153,49.6617]},{"code":"CZ-0102","program":"pota","name":"Dobrany (EVL) Natura 2000","coordinates":[13.3145,49.6611]}]}