{"lat":49.5,"lon":14,"programs":["gma","pota","wwbota"],"count":76,"references":[{"code":"OL/JC-696","program":"gma","name":"Holý vrch <Holy vrch>","coordinates":[14.12326527,49.5199852]},{"code":"OL/JC-734","program":"gma","name":"Krahulí­k <Krahulik>","coordinates":[14.12552547,49.51100922]},{"code":"OL/JC-753","program":"gma","name":"Ohařská hora <Oharska hora>","coordinates":[14.03511524,49.5508728]},{"code":"OL/JC-756","program":"gma","name":"Háj <Haj>","coordinates":[14.05789471,49.52235031]},{"code":"OL/JC-758","program":"gma","name":"Na Brejše <Na Brejse>","coordinates":[14.21617031,49.54050827]},{"code":"OL/JC-811","program":"gma","name":"Myslínek <Myslinek>","coordinates":[14.0290814,49.5372232]},{"code":"OL/JC-813","program":"gma","name":"Hanslovka","coordinates":[14.2059,49.51223]},{"code":"OL/JC-833","program":"gma","name":"Hradec","coordinates":[14.05002,49.50126]},{"code":"OL/ST-036","program":"gma","name":"Leví­n <Levin>","coordinates":[14.0456419,49.6519928]},{"code":"OL/ST-038","program":"gma","name":"Vraneč <Vranec>","coordinates":[14.04276562,49.61778641]},{"code":"OL/ST-041","program":"gma","name":"Mýto <Myto>","coordinates":[14.00657749,49.64360428]},{"code":"OL/ST-042","program":"gma","name":"Strážný <Strazny>","coordinates":[14.03350544,49.71075439]},{"code":"OL/ST-048","program":"gma","name":"Březina <Brezina>","coordinates":[14.09468651,49.55920029]},{"code":"OL/ST-050","program":"gma","name":"Vysoký <Vysoky>","coordinates":[14.07814407,49.66808701]},{"code":"OL/ST-060","program":"gma","name":"Číčová <Cicova>","coordinates":[14.07260418,49.65624237]},{"code":"OL/ST-071","program":"gma","name":"Bukovec","coordinates":[14.18704605,49.63968658]},{"code":"OL/ST-092","program":"gma","name":"Hřebeny <Hrebeny>","coordinates":[14.13599014,49.58815384]},{"code":"OL/ST-093","program":"gma","name":"Květná <Kvetna>","coordinates":[14.023736,49.70541763]},{"code":"OL/ST-094","program":"gma","name":"Houpačka <Houpacka>","coordinates":[14.12865543,49.676754]},{"code":"OL/ST-097","program":"gma","name":"Spálený vrch <Spaleny vrch>","coordinates":[14.1055088,49.66916275]},{"code":"OL/ST-111","program":"gma","name":"Vinice","coordinates":[14.13975334,49.61336899]},{"code":"OL/ST-120","program":"gma","name":"Baba","coordinates":[14.13364601,49.55805969]},{"code":"OL/ST-125","program":"gma","name":"Dráska <Draska>","coordinates":[14.03558922,49.73437119]},{"code":"OL/ST-129","program":"gma","name":"Cizí­ <Cizi>","coordinates":[14.12567043,49.60822678]},{"code":"OL/ST-138","program":"gma","name":"Ostrá <Ostra>","coordinates":[14.11955261,49.60357285]},{"code":"OL/ST-144","program":"gma","name":"Hradiště <Hradiste>","coordinates":[14.16658974,49.62421417]},{"code":"OL/ST-155","program":"gma","name":"Na Altánku <Na Altanku>","coordinates":[14.20061016,49.63006592]},{"code":"OL/ST-165","program":"gma","name":"Točný vrch <Tocny vrch>","coordinates":[14.13879871,49.68006516]},{"code":"OL/ST-166","program":"gma","name":"Mí­rovky <Mirovky>","coordinates":[14.24774837,49.59044647]},{"code":"OL/ST-170","program":"gma","name":"Nečí­nská besí­dka <Necinska besidka>","coordinates":[14.24672699,49.70701218]},{"code":"OL/ST-172","program":"gma","name":"Čistá <Cista>","coordinates":[14.16004181,49.59272003]},{"code":"OL/ST-175","program":"gma","name":"Bukovice","coordinates":[14.17225075,49.6104393]},{"code":"OL/ST-190","program":"gma","name":"Čepel <Cepel>","coordinates":[14.20528793,49.65578842]},{"code":"OL/ST-222","program":"gma","name":"Drásovský chlum <Drasovsky chlum>","coordinates":[14.10670185,49.70083618]},{"code":"OL/ST-229","program":"gma","name":"Krchov","coordinates":[14.19921875,49.60681534]},{"code":"OL/ST-243","program":"gma","name":"Černé vrchy <Cerne vrchy>","coordinates":[14.17137432,49.66864777]},{"code":"OL/ST-245","program":"gma","name":"Droužková <Drouzkova>","coordinates":[14.19400597,49.57374954]},{"code":"OL/ST-246","program":"gma","name":"Chlum","coordinates":[14.18758392,49.67394257]},{"code":"OL/ST-249","program":"gma","name":"Chlumec","coordinates":[14.13348293,49.5984993]},{"code":"OL/ST-254","program":"gma","name":"Calta","coordinates":[14.14941788,49.6243782]},{"code":"OL/ST-255","program":"gma","name":"Cholinská <Cholinska>","coordinates":[14.21605778,49.6615448]},{"code":"OL/ST-256","program":"gma","name":"Zámeček <Zamecek>","coordinates":[14.23892021,49.6882515]},{"code":"OL/ST-274","program":"gma","name":"Hořič <Horic>","coordinates":[14.15880966,49.63214493]},{"code":"OL/ST-288","program":"gma","name":"Sedlo","coordinates":[14.08024406,49.7448082]},{"code":"OL/ST-312","program":"gma","name":"Hromádky <Hromadky>","coordinates":[14.18949318,49.68582916]},{"code":"OL/ST-313","program":"gma","name":"Libický vrch <Libicky vrch>","coordinates":[14.21974468,49.74288177]},{"code":"OL/ST-324","program":"gma","name":"Na skalách <Na skalach>","coordinates":[14.24359417,49.73008728]},{"code":"OL/ST-333","program":"gma","name":"Kozinec <Kozinec>","coordinates":[14.20209026,49.73606873]},{"code":"OL/ST-334","program":"gma","name":"Varta <Varta>","coordinates":[14.21768856,49.73955917]},{"code":"OL/ST-337","program":"gma","name":"Velká hora (Žákova) <Velka hora (Zakova)>","coordinates":[14.23052597,49.67193222]},{"code":"OL/ST-377","program":"gma","name":"Požáry <Pozary>","coordinates":[14.16821575,49.5547142]},{"code":"OL/ST-378","program":"gma","name":"Jeterná <Jeterna>","coordinates":[14.22059441,49.63430405]},{"code":"OL/ST-382","program":"gma","name":"Ráj <Raj>","coordinates":[14.16743279,49.5682373]},{"code":"OL/ST-387","program":"gma","name":"Na Vrší­ch <Na Vrsich>","coordinates":[14.14291,49.73003387]},{"code":"OL/ST-388","program":"gma","name":"Ouchody <Ouchody>","coordinates":[14.21289635,49.68570328]},{"code":"OL/ST-393","program":"gma","name":"Taterův vrch <Tateruv vrch>","coordinates":[14.14711571,49.57218933]},{"code":"OL/ST-395","program":"gma","name":"Ží­kov <Zikov>","coordinates":[14.17875385,49.53967667]},{"code":"OL/ST-410","program":"gma","name":"Pí­sečná <Pisecna>","coordinates":[14.18711472,49.58895493]},{"code":"OL/ST-422","program":"gma","name":"Bohatá hora <Bohata hora>","coordinates":[14.20644188,49.67342758]},{"code":"OL/ST-450","program":"gma","name":"Perdlák <Pedrlak>","coordinates":[14.22063255,49.65272522]},{"code":"OL/ST-451","program":"gma","name":"Bořim <Borim>","coordinates":[14.17212486,49.58518219]},{"code":"OL/ST-452","program":"gma","name":"Opatovický vrch <Opatovicky vrch>","coordinates":[14.17212486,49.58518219]},{"code":"OL/ST-467","program":"gma","name":"Humna <Humna>","coordinates":[14.21994114,49.64746857]},{"code":"OL/ST-493","program":"gma","name":"Mrázov <Mrazov>","coordinates":[14.24506187,49.61388779]},{"code":"OL/ST-536","program":"gma","name":"Varta <Varta>","coordinates":[14.20185661,49.61481857]},{"code":"OL/ST-540","program":"gma","name":"Čeláková <Celakova>","coordinates":[14.24247932,49.65193558]},{"code":"OL/ST-692","program":"gma","name":"Pteč <Ptec>","coordinates":[14.10299969,49.58499908]},{"code":"OL/ST-707","program":"gma","name":"Velká skála <Velka skala>","coordinates":[14.12100029,49.68399811]},{"code":"OL/ST-708","program":"gma","name":"Maková hora <Makova hora>","coordinates":[14.14799976,49.61800003]},{"code":"OL/ST-724","program":"gma","name":"Strážný vrch <Strazny vrch>","coordinates":[14.19499969,49.71900177]},{"code":"OL/ST-731","program":"gma","name":"Velký Chlum <Velky Chlum>","coordinates":[14.09599972,49.72600174]},{"code":"OL/ST-873","program":"gma","name":"Kobyla","coordinates":[14.0301692,49.7460997]},{"code":"OL/ST-874","program":"gma","name":"Homole","coordinates":[14.01916,49.7305522]},{"code":"CZ-0052","program":"pota","name":"Jablonná - mokřad Natural Monument","coordinates":[14.1526,49.6588]},{"code":"B/OK-0246","program":"wwbota","name":"131/15/A-120Z Technice","coordinates":[14.20774,49.61088]},{"code":"B/OK-0247","program":"wwbota","name":"131/20/A-160Z Technice","coordinates":[14.20062,49.61685]}]}