{"lat":49.5,"lon":8.75,"programs":["gma","pota","sota","wwbota"],"count":28,"references":[{"code":"DA/HE-065","program":"gma","name":"Geiersberg","coordinates":[8.88669968,49.54029846]},{"code":"DA/HE-372","program":"gma","name":"Krappenbuckel","coordinates":[8.95189953,49.57920074]},{"code":"DA/HE-373","program":"gma","name":"Hoher Zorn","coordinates":[8.9218998,49.69829941]},{"code":"DA/HE-374","program":"gma","name":"Kottenberg","coordinates":[8.82940006,49.55059814]},{"code":"DA/HE-375","program":"gma","name":"Toter Mann","coordinates":[8.83749962,49.54389954]},{"code":"DA/HE-376","program":"gma","name":"Goetzenstein","coordinates":[8.76939964,49.55329895]},{"code":"DA/HE-377","program":"gma","name":"Hohberg","coordinates":[8.77859974,49.53639984]},{"code":"DA/HE-378","program":"gma","name":"Waldskopf","coordinates":[8.76970005,49.54000092]},{"code":"DA/HE-383","program":"gma","name":"Erzberg","coordinates":[8.81690025,49.65449905]},{"code":"DA/HE-384","program":"gma","name":"Hoschbachsh","coordinates":[8.89999962,49.68439865]},{"code":"DA/HE-385","program":"gma","name":"Lannertskopf","coordinates":[8.86419964,49.54970169]},{"code":"DA/HE-388","program":"gma","name":"Meisenberg","coordinates":[8.86060047,49.58029938]},{"code":"DA/HE-391","program":"gma","name":"Rinke","coordinates":[8.84560013,49.51720047]},{"code":"DA/HE-392","program":"gma","name":"Schnappgalgen","coordinates":[8.93939972,49.60749817]},{"code":"DA/HE-393","program":"gma","name":"Geisberg","coordinates":[8.95170021,49.63280106]},{"code":"DA/HE-396","program":"gma","name":"Gickelsberg","coordinates":[8.99250031,49.53749847]},{"code":"DA/HE-411","program":"gma","name":"Lärmfeuer","coordinates":[8.89500046,49.66559982]},{"code":"DA/HE-413","program":"gma","name":"Steinfirst","coordinates":[8.87419987,49.61000061]},{"code":"DA/HE-443","program":"gma","name":"Morsberg","coordinates":[8.899141,49.707573]},{"code":"DA/HE-472","program":"gma","name":"Spessartskopf","coordinates":[8.872917,49.609333]},{"code":"DA/HE-525","program":"gma","name":"Schnellerts","coordinates":[8.8953,49.74075]},{"code":"DA/HE-565","program":"gma","name":"Zindenauer Schloesschen","coordinates":[8.78529,49.74169]},{"code":"DE-0021","program":"pota","name":"Bergstrasse-Odenwald Nature Park","coordinates":[8.97605,49.5551]},{"code":"DM/HE-053","program":"sota","name":"Neunkircher Höhe","coordinates":[8.7717,49.7197]},{"code":"DM/HE-057","program":"sota","name":"Hardberg","coordinates":[8.8053,49.5383]},{"code":"DM/HE-068","program":"sota","name":"Tromm","coordinates":[8.802778,49.604443]},{"code":"DM/HE-333","program":"sota","name":"Stotz","coordinates":[8.8306,49.6769]},{"code":"B/DL-0099","program":"wwbota","name":"WK II Bunker Erbach","coordinates":[8.989294,49.658706]}]}