{"lat":49.5,"lon":14.75,"programs":["gma","pota","sota"],"count":52,"references":[{"code":"OK/ST-019","program":"gma","name":"Velký Blaní­k <Velky Blanik>","coordinates":[14.87300014,49.64300156]},{"code":"OL/JC-342","program":"gma","name":"Hůrka <Hurka>","coordinates":[14.88253689,49.55296707]},{"code":"OL/JC-361","program":"gma","name":"Skalí­ <Skali>","coordinates":[14.85591793,49.50278091]},{"code":"OL/JC-367","program":"gma","name":"Podhoří­ <Podhori>","coordinates":[14.87126064,49.55086899]},{"code":"OL/JC-372","program":"gma","name":"Bušová <Busova>","coordinates":[14.85785103,49.52206802]},{"code":"OL/JC-405","program":"gma","name":"Na Vrchu","coordinates":[14.89812374,49.50383377]},{"code":"OL/JC-546","program":"gma","name":"Větrák <Vetrak>","coordinates":[14.83091545,49.51195908]},{"code":"OL/JC-589","program":"gma","name":"Hadí­ hora <Hadi hora>","coordinates":[14.83122349,49.51893997]},{"code":"OL/JC-656","program":"gma","name":"Pahrbek","coordinates":[14.76854706,49.52030563]},{"code":"OL/JC-679","program":"gma","name":"Stehlovy","coordinates":[14.83482933,49.53117752]},{"code":"OL/JC-718","program":"gma","name":"Hrnčířská skála <Hrncirska skala>","coordinates":[14.86739922,49.58842468]},{"code":"OL/JC-719","program":"gma","name":"Husí­ hora <Husi hora>","coordinates":[14.84511089,49.56630707]},{"code":"OL/JC-742","program":"gma","name":"Štětky<Stetky>","coordinates":[14.79187965,49.59654999]},{"code":"OL/JC-744","program":"gma","name":"V Horách <V Horach>","coordinates":[14.78705025,49.58639908]},{"code":"OL/JC-777","program":"gma","name":"Vrchy","coordinates":[14.84027004,49.57350159]},{"code":"OL/JC-834","program":"gma","name":"Na Homoli","coordinates":[14.7667056,49.5820775]},{"code":"OL/ST-040","program":"gma","name":"Na skalkách <Na skalkach>","coordinates":[14.9455843,49.65073013]},{"code":"OL/ST-044","program":"gma","name":"Pravětický vrch <Praveticky vrch>","coordinates":[14.89085388,49.59291077]},{"code":"OL/ST-053","program":"gma","name":"Malý Blaní­k <Maly Blanik>","coordinates":[14.86374092,49.63008499]},{"code":"OL/ST-054","program":"gma","name":"Křížovská hůra <Krizovska hura>","coordinates":[14.89704037,49.65141678]},{"code":"OL/ST-057","program":"gma","name":"Červí­ková skála <Cervikova skala>","coordinates":[14.75014591,49.68227768]},{"code":"OL/ST-061","program":"gma","name":"Věž <Vez>","coordinates":[14.77587128,49.70708466]},{"code":"OL/ST-072","program":"gma","name":"Býkovická hůrka <Bykovicka hurka>","coordinates":[14.87561989,49.62023926]},{"code":"OL/ST-088","program":"gma","name":"Skrýšov <Skrysov>","coordinates":[14.75148964,49.65795898]},{"code":"OL/ST-100","program":"gma","name":"Hovorkova hůra <Hovorkova hura>","coordinates":[14.75435829,49.72668457]},{"code":"OL/ST-113","program":"gma","name":"Buchovský vrch <Buchovsky vrch>","coordinates":[14.78647327,49.6931076]},{"code":"OL/ST-127","program":"gma","name":"Sukovice","coordinates":[14.75382328,49.70077896]},{"code":"OL/ST-135","program":"gma","name":"Přední­ vrch <Predni vrch>","coordinates":[14.78712559,49.64529419]},{"code":"OL/ST-145","program":"gma","name":"Hří­va <Hriva>","coordinates":[14.8392868,49.65516663]},{"code":"OL/ST-146","program":"gma","name":"Bučina <Bucina>","coordinates":[14.95176697,49.67448044]},{"code":"OL/ST-150","program":"gma","name":"Vrchy","coordinates":[14.91116524,49.62415695]},{"code":"OL/ST-152","program":"gma","name":"Kalamajka","coordinates":[14.84371758,49.72518539]},{"code":"OL/ST-188","program":"gma","name":"Stráž <Straz>","coordinates":[14.80238438,49.70835495]},{"code":"OL/ST-193","program":"gma","name":"Jinišov <Jinisov>","coordinates":[14.89831924,49.67624283]},{"code":"OL/ST-204","program":"gma","name":"Křemení­ <Kremeni>","coordinates":[14.79855728,49.74835587]},{"code":"OL/ST-237","program":"gma","name":"Krasovická hůra <Krasovicka hura>","coordinates":[14.88106346,49.65866852]},{"code":"OL/ST-250","program":"gma","name":"Stolec","coordinates":[14.80779076,49.68814468]},{"code":"OL/ST-265","program":"gma","name":"V Hůrkách <V Hurkach>","coordinates":[14.77595425,49.73737717]},{"code":"OL/ST-266","program":"gma","name":"Slepičí­ skála <Slepici skala>","coordinates":[14.85189533,49.59114075]},{"code":"OL/ST-277","program":"gma","name":"Na hůrkách <Na hurkach>","coordinates":[14.83895397,49.68891144]},{"code":"OL/ST-281","program":"gma","name":"Kujanov","coordinates":[14.78674603,49.63090515]},{"code":"OL/ST-283","program":"gma","name":"Výholec <Vyholec>","coordinates":[14.85776615,49.74168015]},{"code":"OL/ST-299","program":"gma","name":"Ve vrší­ch <Ve vrsich>","coordinates":[14.83676052,49.68149948]},{"code":"OL/ST-316","program":"gma","name":"Bělčí­ hora <Belci hora>","coordinates":[14.84881496,49.62049484]},{"code":"OL/ST-353","program":"gma","name":"Hrabině <Hrabine>","coordinates":[14.83434963,49.6402626]},{"code":"OL/ST-392","program":"gma","name":"Hůra <Hura>","coordinates":[14.8107357,49.72938156]},{"code":"OL/ST-687","program":"gma","name":"Ří­snický vrch <Risnicky vrch>","coordinates":[14.9119997,49.57600021]},{"code":"OL/ST-713","program":"gma","name":"Kostelí­k <Kostelik>","coordinates":[14.95800018,49.72299957]},{"code":"OL/VY-007","program":"gma","name":"Hřeben <Hreben>","coordinates":[14.97677994,49.53704834]},{"code":"OL/VY-008","program":"gma","name":"Na Kopci","coordinates":[14.99601841,49.55331421]},{"code":"CZ-0012","program":"pota","name":"Blaník Protected Landscape Area","coordinates":[14.8677,49.6397]},{"code":"OK/ST-019","program":"sota","name":"Velký Blaník","coordinates":[14.8736,49.6418]}]}