{"lat":49.5,"lon":-1.75,"programs":["gma","iota","pota","sota","wwbota"],"count":57,"references":[{"code":"FA/NO-044","program":"gma","name":"Butte de Moncamp","coordinates":[-1.528,49.5734]},{"code":"EU-081","program":"iota","name":"BASSE-NORMANDIE","coordinates":[-1.535000025,49.60000038]},{"code":"FR-8949","program":"pota","name":"LANDES DU FORT DE BRETTEVILLE Biological Reserve","coordinates":[-1.52807,49.6501]},{"code":"FR-8950","program":"pota","name":"Poudingues et arkoses cambriens a la Pointe du Heu Conservation Area","coordinates":[-1.529,49.66]},{"code":"FR-8951","program":"pota","name":"Grande Rade de Cherbourg et baie du Becquet Biological Reserve","coordinates":[-1.57279,49.6693]},{"code":"FR-8952","program":"pota","name":"Sables fins a Spio et Apseudopsis latreilli de la Grande Rade de Cherbourg Biological Reserve","coordinates":[-1.59216,49.6626]},{"code":"FR-8953","program":"pota","name":"DUNES ET MARAIS DE COLLIGNON Biological Reserve","coordinates":[-1.55712,49.6538]},{"code":"FR-8954","program":"pota","name":"LANDES AUTOUR DE TOURLAVILLE Biological Reserve","coordinates":[-1.5524,49.6364]},{"code":"FR-8955","program":"pota","name":"LANDES DE LA MONTAGNE DU ROULE Biological Reserve","coordinates":[-1.60531,49.6269]},{"code":"FR-8956","program":"pota","name":"Schistes verts cambriens de la Glacerie Conservation Area","coordinates":[-1.6,49.63]},{"code":"FR-8957","program":"pota","name":"Gres armoricain a Cherbourg-Octeville Biological Reserve","coordinates":[-1.61,49.615]},{"code":"FR-8958","program":"pota","name":"LES ROCHES DE SIDEVILLE Biological Reserve","coordinates":[-1.67287,49.5837]},{"code":"FR-8959","program":"pota","name":"Poudingue cambrien de Hainneville Conservation Area","coordinates":[-1.74,49.64]},{"code":"FR-8960","program":"pota","name":"LA POUDRIERE DE LA VALETTE Biological Reserve","coordinates":[-1.73501,49.6696]},{"code":"FR-8961","program":"pota","name":"Anse de Querqueville Biological Reserve","coordinates":[-1.70049,49.6764]},{"code":"FR-9244","program":"pota","name":"ENSEMBLE DES BASES DE V1 DE BRIX, DU MESNIL-AU-VAL ET DE LA GLACERIE Biological Reserve","coordinates":[-1.55527,49.5819]},{"code":"FR-9245","program":"pota","name":"VALLEE DU TROTTEBEC Biological Reserve","coordinates":[-1.57248,49.5922]},{"code":"FR-9246","program":"pota","name":"BOIS ET MARAIS DU MESNIL-AU-VAL Biological Reserve","coordinates":[-1.53676,49.5951]},{"code":"FR-9247","program":"pota","name":"ANCIENNE FORET DE BRIX Biological Reserve","coordinates":[-1.52065,49.5782]},{"code":"FR-9254","program":"pota","name":"FORET DE L'ERMITAGE Biological Reserve","coordinates":[-1.52943,49.5693]},{"code":"FR-9264","program":"pota","name":"VALLEE DE LA GLOIRE Biological Reserve","coordinates":[-1.50341,49.5416]},{"code":"FR-9265","program":"pota","name":"MONT A LA QUESNE Biological Reserve","coordinates":[-1.56072,49.5484]},{"code":"FR-9266","program":"pota","name":"SECTEUR TOURBEUX DE LA PRAIRIE Biological Reserve","coordinates":[-1.54527,49.5684]},{"code":"FR-10921","program":"pota","name":"PARC DE LA ROCHE FAUCONNIERE Conservation Area","coordinates":[-1.621,49.625]},{"code":"FL/NO-142","program":"sota","name":"La Croix de la Flague","coordinates":[-1.558,49.5912]},{"code":"B/F-4451","program":"wwbota","name":"Bretteville","coordinates":[-1.527776,49.657492]},{"code":"B/F-4452","program":"wwbota","name":"Cherbourg","coordinates":[-1.662546,49.654872]},{"code":"B/F-7257","program":"wwbota","name":"Caplains 1","coordinates":[-1.55534,49.646148]},{"code":"B/F-7258","program":"wwbota","name":"Caplains 2","coordinates":[-1.55607,49.645678]},{"code":"B/F-7259","program":"wwbota","name":"Caplains 3","coordinates":[-1.55663,49.646115]},{"code":"B/F-7260","program":"wwbota","name":"Caplains 4","coordinates":[-1.55702,49.646392]},{"code":"B/F-7261","program":"wwbota","name":"Caplains 5","coordinates":[-1.55821,49.6464]},{"code":"B/F-7262","program":"wwbota","name":"Caplains 6","coordinates":[-1.55965,49.64611]},{"code":"B/F-7263","program":"wwbota","name":"Caplains 7","coordinates":[-1.56032,49.64619]},{"code":"B/F-7268","program":"wwbota","name":"Amfreville 1","coordinates":[-1.70814,49.663091]},{"code":"B/F-7269","program":"wwbota","name":"Amfreville 2","coordinates":[-1.70681,49.664377]},{"code":"B/F-7270","program":"wwbota","name":"Amfreville 3","coordinates":[-1.70784,49.664437]},{"code":"B/F-7271","program":"wwbota","name":"Amfreville 4","coordinates":[-1.70801,49.664045]},{"code":"B/F-7272","program":"wwbota","name":"Amfreville 5","coordinates":[-1.70875,49.664404]},{"code":"B/F-7273","program":"wwbota","name":"Amfreville 6","coordinates":[-1.70923,49.664191]},{"code":"B/F-7274","program":"wwbota","name":"Amfreville 7","coordinates":[-1.70987,49.664261]},{"code":"B/F-7329","program":"wwbota","name":"Querqueville 1","coordinates":[-1.708525,49.672446]},{"code":"B/F-7330","program":"wwbota","name":"Querqueville 2","coordinates":[-1.708896,49.672245]},{"code":"B/F-7331","program":"wwbota","name":"Querqueville 3","coordinates":[-1.708039,49.671763]},{"code":"B/F-7332","program":"wwbota","name":"Querqueville 4","coordinates":[-1.707268,49.671661]},{"code":"B/F-7334","program":"wwbota","name":"Digosville 4","coordinates":[-1.531864,49.630403]},{"code":"B/F-7335","program":"wwbota","name":"Digosville 3","coordinates":[-1.532275,49.630861]},{"code":"B/F-7336","program":"wwbota","name":"Digosville 2","coordinates":[-1.532975,49.631141]},{"code":"B/F-7337","program":"wwbota","name":"Digosville 1","coordinates":[-1.533923,49.631346]},{"code":"B/F-7338","program":"wwbota","name":"Collignon 2","coordinates":[-1.569839,49.656262]},{"code":"B/F-7339","program":"wwbota","name":"Collignon 1","coordinates":[-1.570842,49.656173]},{"code":"B/F-7340","program":"wwbota","name":"Batterie du Roule","coordinates":[-1.61505,49.630002]},{"code":"B/F-7341","program":"wwbota","name":"Fort du Roule","coordinates":[-1.613478,49.629729]},{"code":"B/F-7355","program":"wwbota","name":"Nacqueville 2","coordinates":[-1.720729,49.679465]},{"code":"B/F-7356","program":"wwbota","name":"Nacqueville 1","coordinates":[-1.721228,49.679765]},{"code":"B/F-7357","program":"wwbota","name":"Nacqueville 3","coordinates":[-1.738311,49.670111]},{"code":"B/F-7358","program":"wwbota","name":"Nacqueville 4","coordinates":[-1.740185,49.669816]}]}