{"lat":49.5,"lon":17.75,"programs":["gma","sota","wwbota"],"count":20,"references":[{"code":"OL/MO-001","program":"gma","name":"Veselský kopec <Veselsky kopec>","coordinates":[17.80825996,49.64609146]},{"code":"OL/MO-002","program":"gma","name":"Suchá <Sucha>","coordinates":[17.75428009,49.68392944]},{"code":"OL/MO-003","program":"gma","name":"Horní­ Buková <Horni Bukova>","coordinates":[17.77725029,49.68119049]},{"code":"OL/MO-004","program":"gma","name":"Vladař <Vladar>","coordinates":[17.84679985,49.68542862]},{"code":"OL/MO-005","program":"gma","name":"Chrastavec","coordinates":[17.8046093,49.70500183]},{"code":"OL/MO-006","program":"gma","name":"Svinec","coordinates":[17.9838295,49.56685257]},{"code":"OL/MO-008","program":"gma","name":"Dlouhý kopec <Dlouhy kopec>","coordinates":[17.97180748,49.54929352]},{"code":"OL/MO-009","program":"gma","name":"Strážnice <Straznice>","coordinates":[17.98770714,49.55515671]},{"code":"OL/MO-010","program":"gma","name":"Stranický kopec <Stranicky kopec>","coordinates":[17.99572563,49.5582695]},{"code":"OL/MO-157","program":"gma","name":"Starojický kopec <Starojicky kopec>","coordinates":[17.96299934,49.58300018]},{"code":"OL/MO-201","program":"gma","name":"Blahutovický vrch","coordinates":[17.8760622,49.5918031]},{"code":"OL/MO-202","program":"gma","name":"Pohoř","coordinates":[17.855365,49.6556042]},{"code":"OL/MO-208","program":"gma","name":"Olšová","coordinates":[17.8779083,49.6622247]},{"code":"OL/OL-005","program":"gma","name":"Hluzovský kopec <Hluzovsky kopec>","coordinates":[17.78364944,49.55187988]},{"code":"OL/OL-031","program":"gma","name":"Varta","coordinates":[17.75304031,49.66834259]},{"code":"OL/OL-123","program":"gma","name":"Skalka","coordinates":[17.7709667,49.5559456]},{"code":"OL/OL-124","program":"gma","name":"Bušlín <Buslin>","coordinates":[17.8581483,49.5413739]},{"code":"OK/MO-069","program":"sota","name":"Petřkovická hora","coordinates":[17.9656,49.5457]},{"code":"B/OK-5029","program":"wwbota","name":"Einmannbunker","coordinates":[17.93599,49.64762]},{"code":"B/OK-5054","program":"wwbota","name":"Svinec","coordinates":[17.98383,49.56685]}]}