{"lat":49.5,"lon":9,"programs":["gma"],"count":6,"references":[{"code":"DA/HE-048","program":"gma","name":"Falkenberg","coordinates":[9.02110004,49.54330063]},{"code":"DA/HE-370","program":"gma","name":"Mittelberg","coordinates":[9.04109955,49.58470154]},{"code":"DA/HE-371","program":"gma","name":"Elseberg","coordinates":[9.00689983,49.5766983]},{"code":"DA/HE-382","program":"gma","name":"Roter Buckel","coordinates":[9.07079983,49.64310074]},{"code":"DA/HE-398","program":"gma","name":"Schildenberg","coordinates":[9.09829998,49.52890015]},{"code":"DA/HE-475","program":"gma","name":"Sensberg","coordinates":[9.02038,49.51959]}]}