{"lat":49.5,"lon":-118.5,"programs":["sota"],"count":10,"references":[{"code":"VE7/KB-021","program":"sota","name":"Mt. Sloan","coordinates":[-118.40688,49.733814]},{"code":"VE7/KB-032","program":"sota","name":"Mt. Sloan S1","coordinates":[-118.419464,49.703735]},{"code":"VE7/KB-034","program":"sota","name":"Young S1","coordinates":[-118.43298,49.65063]},{"code":"VE7/KB-035","program":"sota","name":"Bluejoint NE2","coordinates":[-118.48779,49.58416]},{"code":"VE7/KB-044","program":"sota","name":"Bluejoint NE3","coordinates":[-118.465706,49.625755]},{"code":"VE7/KB-079","program":"sota","name":"Tenderloin Mountain","coordinates":[-118.33602,49.595226]},{"code":"VE7/KB-088","program":"sota","name":"Bluejoint SE1","coordinates":[-118.46339,49.52354]},{"code":"VE7/KB-100","program":"sota","name":"Young SE1","coordinates":[-118.30578,49.737473]},{"code":"VE7/KB-113","program":"sota","name":"Mt. Franklin","coordinates":[-118.37052,49.562313]},{"code":"VE7/KB-119","program":"sota","name":"Mt. McKinley","coordinates":[-118.406296,49.538074]}]}