{"lat":49.5,"lon":-122,"programs":["sota"],"count":12,"references":[{"code":"VE7/FV-024","program":"sota","name":"Hale Peak","coordinates":[-121.887,49.5022]},{"code":"VE7/FV-121","program":"sota","name":"Kirkland Peak","coordinates":[-121.9797,49.5717]},{"code":"VE7/FV-142","program":"sota","name":"Twenty Mile Peak","coordinates":[-121.987,49.5283]},{"code":"VE7/FV-204","program":"sota","name":"Mount Breakenridge","coordinates":[-121.9338,49.7197]},{"code":"VE7/FV-435","program":"sota","name":"Camchin SW3","coordinates":[-121.7568,49.7126]},{"code":"VE7/FV-500","program":"sota","name":"Prize Peak","coordinates":[-121.7713,49.5866]},{"code":"VE7/FV-505","program":"sota","name":"VE7/FV-505","coordinates":[-121.8162,49.6955]},{"code":"VE7/FV-506","program":"sota","name":"VE7/FV-506","coordinates":[-121.7997,49.7408]},{"code":"VE7/FV-508","program":"sota","name":"VE7/FV-508","coordinates":[-121.7695,49.6022]},{"code":"VE7/FV-513","program":"sota","name":"VE7/FV-513","coordinates":[-121.7814,49.7224]},{"code":"VE7/FV-548","program":"sota","name":"VE7/FV-548","coordinates":[-121.8984,49.66]},{"code":"VE7/FV-566","program":"sota","name":"VE7/FV-566","coordinates":[-121.8416,49.6837]}]}