{"lat":49.5,"lon":-123.75,"programs":["pota","sota"],"count":19,"references":[{"code":"CA-3975","program":"pota","name":"Porpoise Bay Provincial Park","coordinates":[-123.747,49.5065]},{"code":"CA-4192","program":"pota","name":"Tetrahedron Provincial Park","coordinates":[-123.603,49.595]},{"code":"VE7/SC-002","program":"sota","name":"Tetrahedron Peak","coordinates":[-123.5672,49.6075]},{"code":"VE7/SC-003","program":"sota","name":"Mt. Steele","coordinates":[-123.605,49.605]},{"code":"VE7/SC-048","program":"sota","name":"Misery Peak","coordinates":[-123.669,49.7243]},{"code":"VE7/SC-059","program":"sota","name":"Mount Gustavson","coordinates":[-123.659,49.692]},{"code":"VE7/SC-069","program":"sota","name":"VE7/SC-069","coordinates":[-123.6971,49.6874]},{"code":"VE7/SC-073","program":"sota","name":"Panther Peak","coordinates":[-123.55,49.572]},{"code":"VE7/SC-076","program":"sota","name":"Rainy Mountain","coordinates":[-123.5443,49.6084]},{"code":"VE7/SC-094","program":"sota","name":"Polytope Peak (Kate Mountain)","coordinates":[-123.5252,49.6353]},{"code":"VE7/SC-096","program":"sota","name":"VE7/SC-096","coordinates":[-123.5888,49.7332]},{"code":"VE7/SC-102","program":"sota","name":"Lynx Peak (Panther W4)","coordinates":[-123.6025,49.5659]},{"code":"VE7/SC-103","program":"sota","name":"VE7/SC-103","coordinates":[-123.7383,49.6843]},{"code":"VE7/SC-113","program":"sota","name":"Kitten Peak","coordinates":[-123.5619,49.5843]},{"code":"VE7/SC-115","program":"sota","name":"Mount Crucil","coordinates":[-123.6595,49.5691]},{"code":"VE7/SC-116","program":"sota","name":"Dakota Peak","coordinates":[-123.5838,49.5439]},{"code":"VE7/SC-117","program":"sota","name":"VE7/SC-117","coordinates":[-123.6244,49.6315]},{"code":"VE7/SC-121","program":"sota","name":"VE7/SC-121","coordinates":[-123.5707,49.7023]},{"code":"VE7/SC-125","program":"sota","name":"VE7/SC-125","coordinates":[-123.7438,49.589]}]}