{"lat":49.5,"lon":-110,"programs":["pota","sota","wwbota"],"count":6,"references":[{"code":"CA-2560","program":"pota","name":"Battle Creek Recreation Site","coordinates":[-109.88,49.5724]},{"code":"CA-4928","program":"pota","name":"Cypress Hills Massacre National Historic Site","coordinates":[-109.889,49.5505]},{"code":"CA-4933","program":"pota","name":"Fort Walsh National Historic Site","coordinates":[-109.879,49.5637]},{"code":"VE5/SP-001","program":"sota","name":"Cypress Hills Fire Lookout","coordinates":[-109.9814,49.6497]},{"code":"VE5/SP-003","program":"sota","name":"VE5/SP-003","coordinates":[-109.828,49.6455]},{"code":"B/CA-1622","program":"wwbota","name":"FRP LE22","coordinates":[-109.790161,49.60564]}]}