{"lat":49.5,"lon":-116.5,"programs":["sota"],"count":5,"references":[{"code":"VE7/EK-009","program":"sota","name":"White Grouse Mtn","coordinates":[-116.4525,49.5277]},{"code":"VE7/EK-028","program":"sota","name":"Mount Evans","coordinates":[-116.2992,49.5553]},{"code":"VE7/EK-029","program":"sota","name":"Mount Bonner","coordinates":[-116.4125,49.6825]},{"code":"VE7/EK-030","program":"sota","name":"Bonner W5","coordinates":[-116.4789,49.6886]},{"code":"VE7/EK-042","program":"sota","name":"VV Top","coordinates":[-116.428,49.6209]}]}