{"lat":49.5,"lon":0.5,"programs":["pota"],"count":30,"references":[{"code":"FR-8139","program":"pota","name":"LA CAVITE DU BOIS DE THEROULDEVILLE Biological Reserve","coordinates":[0.51798,49.7471]},{"code":"FR-8140","program":"pota","name":"LE MARAIS DU VIVIER Biological Reserve","coordinates":[0.52171,49.7397]},{"code":"FR-8141","program":"pota","name":"LE BOIS DE THEUVILLE Biological Reserve","coordinates":[0.53366,49.7415]},{"code":"FR-8143","program":"pota","name":"LE BOIS PERRIN Biological Reserve","coordinates":[0.54116,49.7248]},{"code":"FR-8156","program":"pota","name":"LA VALLEE DE LA DURDENT Biological Reserve","coordinates":[0.6777,49.7414]},{"code":"FR-8172","program":"pota","name":"LA ZONE HUMIDE DES DEUX MOULINS A GRAINVILLE-LA-TEINTURIERE Biological Reserve","coordinates":[0.62917,49.7494]},{"code":"FR-8173","program":"pota","name":"LE BOIS DE DEVANT Biological Reserve","coordinates":[0.58887,49.7484]},{"code":"FR-8174","program":"pota","name":"LE MARAIS DU HANOUARD Biological Reserve","coordinates":[0.65159,49.7375]},{"code":"FR-8175","program":"pota","name":"LA PRAIRIE HUMIDE DU FAUCARD Biological Reserve","coordinates":[0.66836,49.7293]},{"code":"FR-8176","program":"pota","name":"LES ETANGS DE OHERVILLE Biological Reserve","coordinates":[0.67139,49.7238]},{"code":"FR-8177","program":"pota","name":"LE BOIS DE LA VALLEE Biological Reserve","coordinates":[0.67786,49.7136]},{"code":"FR-8178","program":"pota","name":"LES PRAIRIES HUMIDES DES MOULINS DE ROBERTOT ET DU TROU Biological Reserve","coordinates":[0.68915,49.7079]},{"code":"FR-8179","program":"pota","name":"LES PRAIRIES HUMIDES DE GREAUME Biological Reserve","coordinates":[0.69351,49.701]},{"code":"FR-8180","program":"pota","name":"LA SOURCE DE LA DURDENT ET LA CRESSONIERE Biological Reserve","coordinates":[0.69427,49.6923]},{"code":"FR-8181","program":"pota","name":"LA SOURCE DE LA VALETTE Biological Reserve","coordinates":[0.70967,49.6945]},{"code":"FR-8182","program":"pota","name":"LA VALLEE DU VERT BUISSON Biological Reserve","coordinates":[0.68657,49.6699]},{"code":"FR-9054","program":"pota","name":"LES MARAIS DE LA BOUCLE DE BROTONNE Biological Reserve","coordinates":[0.70613,49.5022]},{"code":"FR-9212","program":"pota","name":"LE BOISEMENT DE LA VALLEE DU COMMERCE Biological Reserve","coordinates":[0.53507,49.5345]},{"code":"FR-9214","program":"pota","name":"LE MARAIS DE RADICATEL Biological Reserve","coordinates":[0.50006,49.5031]},{"code":"FR-9216","program":"pota","name":"LE BOIS D'HARCOURT Biological Reserve","coordinates":[0.51912,49.5118]},{"code":"FR-9218","program":"pota","name":"LA CAVITE DE LA FORET DU PLATON Biological Reserve","coordinates":[0.54342,49.5074]},{"code":"FR-9219","program":"pota","name":"LA CAVITE DU BOIS DU CHENE À LA BANEL Biological Reserve","coordinates":[0.57419,49.5368]},{"code":"FR-9220","program":"pota","name":"LE BOIS DU VALLON DE LA COURTE COTE Biological Reserve","coordinates":[0.52059,49.5246]},{"code":"FR-9221","program":"pota","name":"LA CAVITE DU BOIS DE BREHOUL Biological Reserve","coordinates":[0.52017,49.5286]},{"code":"FR-9222","program":"pota","name":"LE BOIS DU VALLON DE LA COURTE COTE Biological Reserve","coordinates":[0.52059,49.5246]},{"code":"FR-9226","program":"pota","name":"Systeme des pertes du Bebec - resurgence du Hannetot A Triquerville Conservation Area","coordinates":[0.65,49.5]},{"code":"FR-9227","program":"pota","name":"LE BOIS DE VILLEQUIER Biological Reserve","coordinates":[0.67465,49.5115]},{"code":"FR-9233","program":"pota","name":"LES MARAIS DE VATTEVILLE-LA-RUE, SAINT-NICOLAS-DE-BLIQUETUIT ET NOTRE-DAME-DE-BLIQUETUIT Biological Reserve","coordinates":[0.71234,49.5102]},{"code":"FR-9240","program":"pota","name":"LE MARAIS TOURBEUX DE CAUDEBEC-EN-CAUX Biological Reserve","coordinates":[0.71933,49.5328]},{"code":"FR-9241","program":"pota","name":"LES VALLEES ET LES BOISEMENTS DE LA SAINTE-GERTRUDE ET DE LA RANCON Biological Reserve","coordinates":[0.7362,49.5584]}]}