{"lat":49.75,"lon":7.75,"programs":["gma","pota","sota","wwbota"],"count":18,"references":[{"code":"DA/HE-400","program":"gma","name":"Fichtenkopf","coordinates":[7.89139986,49.98360062]},{"code":"DA/RP-171","program":"gma","name":"Salzkopf","coordinates":[7.78079987,49.99810028]},{"code":"DA/RP-176","program":"gma","name":"Auerhahnkopf","coordinates":[7.77890015,49.98249817]},{"code":"DA/RP-188","program":"gma","name":"Rossel","coordinates":[7.80310011,49.97330093]},{"code":"DA/RP-211","program":"gma","name":"Stökert","coordinates":[7.84859991,49.9632988]},{"code":"DA/RP-225","program":"gma","name":"Münsterer Kopf","coordinates":[7.8769002,49.94779968]},{"code":"DA/RP-233","program":"gma","name":"Grabenkopf","coordinates":[7.87750006,49.80810165]},{"code":"DA/RP-235","program":"gma","name":"Horn","coordinates":[7.93499994,49.7942009]},{"code":"DA/RP-236","program":"gma","name":"Schlossberg","coordinates":[7.86000013,49.78749847]},{"code":"DA/RP-412","program":"gma","name":"Schanzenkopf","coordinates":[7.83330011,49.8266983]},{"code":"DA/RP-470","program":"gma","name":"Harsten","coordinates":[7.76690006,49.80189896]},{"code":"DA/RP-486","program":"gma","name":"Rochusberg (Bingen)","coordinates":[7.90250015,49.95920181]},{"code":"DA/RP-500","program":"gma","name":"Bosenberg","coordinates":[7.93060017,49.85609818]},{"code":"DA/RP-503","program":"gma","name":"Römerberg","coordinates":[7.8313,49.912]},{"code":"DE-1133","program":"pota","name":"Salinental Recreation Park","coordinates":[7.85291,49.8244]},{"code":"DM/RP-262","program":"sota","name":"Lemberg","coordinates":[7.7675,49.7817]},{"code":"B/DL-0324","program":"wwbota","name":"Warnamt VII (Zivilschutz)","coordinates":[7.758333,49.8275]},{"code":"B/DL-0332","program":"wwbota","name":"GSVBw 42","coordinates":[7.809707,49.840784]}]}