{"lat":49.75,"lon":9.25,"programs":["gma","pota","sota"],"count":7,"references":[{"code":"DA/BM-413","program":"gma","name":"Geishoehe","coordinates":[9.32199,49.84095]},{"code":"DA/BM-533","program":"gma","name":"Geiersberg","coordinates":[9.29006,49.78413]},{"code":"DA/BW-566","program":"gma","name":"Oberer Berg","coordinates":[9.45639992,49.7621994]},{"code":"DA/BW-567","program":"gma","name":"Unterer Berg","coordinates":[9.42580032,49.77249908]},{"code":"DA/BW-568","program":"gma","name":"Grosser Wald","coordinates":[9.36060047,49.75719833]},{"code":"DE-0028","program":"pota","name":"Bayerischer Spessart Nature Park","coordinates":[9.42236,49.9176]},{"code":"DM/BM-377","program":"sota","name":"Geiersberg","coordinates":[9.43,49.906]}]}