{"lat":49.75,"lon":10.5,"programs":["gma","sota"],"count":7,"references":[{"code":"DA/BM-084","program":"gma","name":"Knetzberg","coordinates":[10.51690006,49.95940018]},{"code":"DA/BM-085","program":"gma","name":"Hirschberg","coordinates":[10.63080025,49.84420013]},{"code":"DA/BM-086","program":"gma","name":"Schmerber Berg","coordinates":[10.50940037,49.85390091]},{"code":"DA/BM-289","program":"gma","name":"Spitzberg","coordinates":[10.609722,49.982722]},{"code":"DA/BM-313","program":"gma","name":"Ebersberg","coordinates":[10.57279968,49.96609879]},{"code":"DA/BM-441","program":"gma","name":"Spitzelberg","coordinates":[10.7359166,49.9616111]},{"code":"DM/BM-369","program":"sota","name":"Euerberg","coordinates":[10.5397,49.9314]}]}