{"lat":49.75,"lon":12.25,"programs":["gma","sota"],"count":14,"references":[{"code":"DA/BM-073","program":"gma","name":"Poppenreuther Berg","coordinates":[12.4968996,49.90530014]},{"code":"DA/BM-249","program":"gma","name":"Hohenstein Kogeri","coordinates":[12.34133,49.75255]},{"code":"DA/BM-253","program":"gma","name":"Am großen Stein","coordinates":[12.357,49.75077]},{"code":"DA/BM-254","program":"gma","name":"Haselstein","coordinates":[12.32341,49.75144]},{"code":"DA/BM-255","program":"gma","name":"Schwarzbeerberg","coordinates":[12.35714,49.75581]},{"code":"DA/BM-256","program":"gma","name":"Pfarrbühl","coordinates":[12.31307,49.78047]},{"code":"OL/KA-121","program":"gma","name":"Na Kopci","coordinates":[12.44329071,49.99569321]},{"code":"OL/KA-411","program":"gma","name":"Čupřina <Cuprina>","coordinates":[12.48600006,49.95299911]},{"code":"OL/PL-078","program":"gma","name":"Tetřeví vrch <Tetrevi vrch>","coordinates":[12.44874859,49.77145386]},{"code":"OL/PL-079","program":"gma","name":"Mraveniště <Mraveniste>","coordinates":[12.41881466,49.76179504]},{"code":"OL/PL-094","program":"gma","name":"Na Skalkách - Šelmberk ruins <Na Skalkach Selmberk","coordinates":[12.45606041,49.75524902]},{"code":"OL/PL-120","program":"gma","name":"Javořina <Javorina>","coordinates":[12.49599838,49.8140831]},{"code":"OL/PL-971","program":"gma","name":"Knížecí­ strom <Knizeci strom>","coordinates":[12.47700024,49.76599884]},{"code":"DM/BM-323","program":"sota","name":"Entenbühl","coordinates":[12.3983,49.7578]}]}