{"lat":49.75,"lon":16.5,"programs":["gma","sota","wwbota"],"count":29,"references":[{"code":"OL/PA-014","program":"gma","name":"Špičák <Spicak>","coordinates":[16.71462,49.9854]},{"code":"OL/PA-029","program":"gma","name":"Na Vrší­ch <Na Vrsich>","coordinates":[16.6927192,49.9909369]},{"code":"OL/PA-041","program":"gma","name":"Výprachtický vrch <Vyprachticky vrch>","coordinates":[16.6755397,49.9928053]},{"code":"OL/PA-052","program":"gma","name":"Na Skalce","coordinates":[16.7063438,49.9674947]},{"code":"OL/PA-056","program":"gma","name":"Stráně <Strane>","coordinates":[16.7294152,49.9279715]},{"code":"OL/PA-057","program":"gma","name":"Mirand","coordinates":[16.5714472,49.829694]},{"code":"OL/PA-061","program":"gma","name":"Hřebcov <Hrebcov>","coordinates":[16.5803694,49.7706378]},{"code":"OL/PA-064","program":"gma","name":"Hřebečov <Hrebecov>","coordinates":[16.5825259,49.753266]},{"code":"OL/PA-066","program":"gma","name":"Varta","coordinates":[16.6559357,49.9623069]},{"code":"OL/PA-068","program":"gma","name":"Strážný vrch <Strazny vrch>","coordinates":[16.5807837,49.7867871]},{"code":"OL/PA-074","program":"gma","name":"Mladějovské hradisko <Mladejovske hradisko>","coordinates":[16.5770298,49.8217746]},{"code":"OL/PA-082","program":"gma","name":"Velká pláň <Velka plan>","coordinates":[16.5458545,49.8573825]},{"code":"OL/PA-086","program":"gma","name":"Obora","coordinates":[16.6603827,49.9707883]},{"code":"OL/PA-110","program":"gma","name":"Pastvina","coordinates":[16.6569164,49.9266915]},{"code":"OL/PA-122","program":"gma","name":"Okolní­k <Okolnik>","coordinates":[16.6334642,49.955052]},{"code":"OL/PA-126","program":"gma","name":"Varta","coordinates":[16.5439941,49.9839812]},{"code":"OL/PA-146","program":"gma","name":"Strážný <Strazny>","coordinates":[16.6905614,49.7523153]},{"code":"OL/PA-147","program":"gma","name":"Velká Huba <Velka Huba>","coordinates":[16.7325614,49.8547958]},{"code":"OL/PA-154","program":"gma","name":"Kypuš <Kypus>","coordinates":[16.5737982,49.9226325]},{"code":"OL/PA-163","program":"gma","name":"Zlatník <Zlatnik>","coordinates":[16.6627858,49.787762]},{"code":"OL/PA-165","program":"gma","name":"Křížový vrch <Krizovy vrch>","coordinates":[16.674758,49.757834]},{"code":"OL/PA-186","program":"gma","name":"Lázek <Lazek>","coordinates":[16.70499992,49.92599869]},{"code":"OL/PA-188","program":"gma","name":"Mladějovský vrch <Mladejovsky vrch>","coordinates":[16.57999992,49.81100082]},{"code":"OL/PA-196","program":"gma","name":"Cukrová bouda <Cukrova bouda>","coordinates":[16.72999954,49.88399887]},{"code":"OL/PA-199","program":"gma","name":"Rychnovský vrch <Rychnovsky vrch>","coordinates":[16.65999985,49.83000183]},{"code":"OL/PA-200","program":"gma","name":"Hůra <Hura>","coordinates":[16.54599953,49.99599838]},{"code":"OK/PA-016","program":"sota","name":"Palice","coordinates":[16.5157,49.9116]},{"code":"OK/PA-043","program":"sota","name":"Dubina","coordinates":[16.681,49.7754]},{"code":"B/OK-5052","program":"wwbota","name":"Stare Mesto","coordinates":[16.66299,49.78786]}]}