{"lat":49.75,"lon":-121.75,"programs":["sota"],"count":22,"references":[{"code":"VE7/FV-052","program":"sota","name":"The Nipple","coordinates":[-121.5849,49.945]},{"code":"VE7/FV-234","program":"sota","name":"Mount Laughlan","coordinates":[-121.5857,49.936]},{"code":"VE7/FV-251","program":"sota","name":"Scuzzy Mountain","coordinates":[-121.6322,49.8546]},{"code":"VE7/FV-278","program":"sota","name":"VE7/FV-278","coordinates":[-121.6077,49.8857]},{"code":"VE7/FV-280","program":"sota","name":"Kootomin Peak","coordinates":[-121.6494,49.9303]},{"code":"VE7/FV-282","program":"sota","name":"Fraser Peak","coordinates":[-121.6746,49.8537]},{"code":"VE7/FV-293","program":"sota","name":"Mount Snyder","coordinates":[-121.7359,49.8157]},{"code":"VE7/FV-298","program":"sota","name":"Mount Ichor","coordinates":[-121.7265,49.9269]},{"code":"VE7/FV-309","program":"sota","name":"Mount Nesbitt","coordinates":[-121.6964,49.8181]},{"code":"VE7/FV-313","program":"sota","name":"Cam's Peak","coordinates":[-121.6433,49.8375]},{"code":"VE7/FV-322","program":"sota","name":"Kookipi Peak (Snyder N3)","coordinates":[-121.7285,49.8377]},{"code":"VE7/FV-325","program":"sota","name":"Mount McEwen","coordinates":[-121.6658,49.8782]},{"code":"VE7/FV-327","program":"sota","name":"VE7/FV-327","coordinates":[-121.7133,49.8214]},{"code":"VE7/FV-359","program":"sota","name":"VE7/FV-359","coordinates":[-121.6356,49.944]},{"code":"VE7/FV-382","program":"sota","name":"Skuppah Peak","coordinates":[-121.73,49.7603]},{"code":"VE7/FV-413","program":"sota","name":"Orange Peak (Peak 6230)","coordinates":[-121.71,49.7935]},{"code":"VE7/FV-420","program":"sota","name":"HF84","coordinates":[-121.5476,49.7882]},{"code":"VE7/FV-426","program":"sota","name":"VE7/FV-426","coordinates":[-121.5463,49.7722]},{"code":"VE7/FV-427","program":"sota","name":"VE7/FV-427","coordinates":[-121.5048,49.7867]},{"code":"VE7/FV-432","program":"sota","name":"VE7/FV-432","coordinates":[-121.7081,49.7797]},{"code":"VE7/FV-441","program":"sota","name":"VE7/FV-441","coordinates":[-121.5422,49.8995]},{"code":"VE7/FV-478","program":"sota","name":"VE7/FV-478","coordinates":[-121.611,49.7953]}]}