{"lat":49.75,"lon":-122.5,"programs":["sota"],"count":14,"references":[{"code":"VE7/FV-065","program":"sota","name":"Candle Peak","coordinates":[-122.3803,49.7897]},{"code":"VE7/FV-198","program":"sota","name":"Livingston Peak","coordinates":[-122.269,49.9714]},{"code":"VE7/FV-239","program":"sota","name":"Moffat Peak","coordinates":[-122.2515,49.9217]},{"code":"VE7/FV-241","program":"sota","name":"Ember Mountain","coordinates":[-122.4271,49.758]},{"code":"VE7/FV-290","program":"sota","name":"Fire Mountain","coordinates":[-122.3645,49.8598]},{"code":"VE7/FV-329","program":"sota","name":"VE7/FV-329","coordinates":[-122.4466,49.7822]},{"code":"VE7/FV-344","program":"sota","name":"VE7/FV-344","coordinates":[-122.4709,49.7541]},{"code":"VE7/FV-354","program":"sota","name":"Stanford Peak","coordinates":[-122.3921,49.7717]},{"code":"VE7/FV-361","program":"sota","name":"VE7/FV-361","coordinates":[-122.4359,49.7887]},{"code":"VE7/FV-394","program":"sota","name":"Flame Peak","coordinates":[-122.4366,49.8319]},{"code":"VE7/FV-458","program":"sota","name":"Lone Knoll","coordinates":[-122.4834,49.9253]},{"code":"VE7/FV-481","program":"sota","name":"Ash Peak","coordinates":[-122.3185,49.7869]},{"code":"VE7/FV-489","program":"sota","name":"Flue Peak","coordinates":[-122.3024,49.7759]},{"code":"VE7/FV-567","program":"sota","name":"VE7/FV-567","coordinates":[-122.4892,49.9814]}]}