{"lat":49.75,"lon":-114.75,"programs":["pota","sota"],"count":19,"references":[{"code":"CA-3039","program":"pota","name":"High Rock Wildland Provincial Park","coordinates":[-114.646,49.9923]},{"code":"VE6/RA-035","program":"sota","name":"Tornado Mountain","coordinates":[-114.65495,49.966652]},{"code":"VE6/RA-044","program":"sota","name":"Gould Dome","coordinates":[-114.63708,49.922688]},{"code":"VE6/RA-052","program":"sota","name":"Mount Erris","coordinates":[-114.68771,49.888428]},{"code":"VE6/RA-056","program":"sota","name":"Peak 48-38","coordinates":[-114.64122,49.80739]},{"code":"VE6/RA-058","program":"sota","name":"Funnel N3","coordinates":[-114.68795,49.966473]},{"code":"VE6/RA-065","program":"sota","name":"Mount Secord","coordinates":[-114.66259,49.854393]},{"code":"VE6/RA-102","program":"sota","name":"Hidden Peak","coordinates":[-114.6544,49.9863]},{"code":"VE6/RA-104","program":"sota","name":"Battleship Peak","coordinates":[-114.6376,49.9364]},{"code":"VE6/RA-108","program":"sota","name":"HG94","coordinates":[-114.6423,49.7981]},{"code":"VE6/RA-109","program":"sota","name":"Funnel S1","coordinates":[-114.6907,49.9326]},{"code":"VE6/RA-110","program":"sota","name":"Race Horse Peak","coordinates":[-114.6364,49.7847]},{"code":"VE6/RA-112","program":"sota","name":"Mount Erris N1","coordinates":[-114.688,49.9018]},{"code":"VE6/RA-116","program":"sota","name":"Sugarloaf Fire Lookout","coordinates":[-114.5393,49.9489]},{"code":"VE6/RA-121","program":"sota","name":"Vicary Peak","coordinates":[-114.5126,49.7755]},{"code":"VE6/RA-125","program":"sota","name":"Oldcache Peak","coordinates":[-114.5557,49.997]},{"code":"VE6/RA-128","program":"sota","name":"Wintering Peak","coordinates":[-114.5178,49.8647]},{"code":"VE6/RA-138","program":"sota","name":"Grassy Ridge","coordinates":[-114.5618,49.9249]},{"code":"VE6/RA-147","program":"sota","name":"VE6/RA-147","coordinates":[-114.5489,49.8159]}]}