{"lat":49.75,"lon":-114.25,"programs":["pota","sota"],"count":5,"references":[{"code":"CA-6125","program":"pota","name":"Porcupine Hills Public Land Use Zone Other Conservation Area","coordinates":[-114.119,49.9682]},{"code":"VE6/RA-033","program":"sota","name":"Black Mountain","coordinates":[-114.17595,49.96247]},{"code":"VE6/RA-089","program":"sota","name":"Porcupine Hills Fire lookout (IA80)","coordinates":[-114.00444,49.88687]},{"code":"VE6/RA-161","program":"sota","name":"Beaverdam Hill","coordinates":[-114.2363,49.9188]},{"code":"VE6/RA-165","program":"sota","name":"Antelope Butte","coordinates":[-114.2087,49.7703]}]}