{"lat":49.75,"lon":-122,"programs":["pota","sota"],"count":17,"references":[{"code":"CA-3868","program":"pota","name":"Nahatlatch Provincial Park","coordinates":[-121.788,49.9798]},{"code":"VE7/FV-046","program":"sota","name":"Traverse Peak","coordinates":[-121.9489,49.7547]},{"code":"VE7/FV-228","program":"sota","name":"Surprise Peak","coordinates":[-121.9801,49.8121]},{"code":"VE7/FV-229","program":"sota","name":"Cairn Needle","coordinates":[-121.993,49.8187]},{"code":"VE7/FV-240","program":"sota","name":"Badger Peak","coordinates":[-121.9732,49.8483]},{"code":"VE7/FV-265","program":"sota","name":"Vista Peak","coordinates":[-121.9805,49.7901]},{"code":"VE7/FV-276","program":"sota","name":"VE7/FV-276","coordinates":[-121.949,49.9768]},{"code":"VE7/FV-299","program":"sota","name":"Nlaka Peak","coordinates":[-121.7832,49.9132]},{"code":"VE7/FV-315","program":"sota","name":"JH36","coordinates":[-121.7694,49.9345]},{"code":"VE7/FV-353","program":"sota","name":"Mount Whistlepig","coordinates":[-121.9327,49.885]},{"code":"VE7/FV-363","program":"sota","name":"Nlaka S2","coordinates":[-121.7835,49.8976]},{"code":"VE7/FV-368","program":"sota","name":"JI95 (Nahatlatch Needle NE)","coordinates":[-121.8542,49.9953]},{"code":"VE7/FV-393","program":"sota","name":"II24 (Kookipi SW)","coordinates":[-121.8458,49.8248]},{"code":"VE7/FV-412","program":"sota","name":"Groundhog Peak","coordinates":[-121.8602,49.907]},{"code":"VE7/FV-439","program":"sota","name":"VE7/FV-439","coordinates":[-121.7736,49.7842]},{"code":"VE7/FV-442","program":"sota","name":"VE7/FV-442","coordinates":[-121.7972,49.841]},{"code":"VE7/FV-477","program":"sota","name":"II64","coordinates":[-121.8447,49.8607]}]}