{"lat":49.75,"lon":16.25,"programs":["gma","pota"],"count":19,"references":[{"code":"OL/PA-078","program":"gma","name":"Strážný <Strazny>","coordinates":[16.4760664,49.9796486]},{"code":"OL/PA-083","program":"gma","name":"Sněžní­k <Sneznik>","coordinates":[16.3953334,49.7918045]},{"code":"OL/PA-090","program":"gma","name":"Javorní­k <Javornik>","coordinates":[16.4106016,49.9121761]},{"code":"OL/PA-093","program":"gma","name":"Řetová <Retova>","coordinates":[16.3660571,49.9348362]},{"code":"OL/PA-095","program":"gma","name":"Kamenný vrch <Kamenny vrch>","coordinates":[16.4340037,49.8708912]},{"code":"OL/PA-111","program":"gma","name":"Zlatá hora <Zlata hora>","coordinates":[16.4749702,49.963868]},{"code":"OL/PA-115","program":"gma","name":"Podhoří­ <Podhori>","coordinates":[16.3634971,49.9863152]},{"code":"OL/PA-116","program":"gma","name":"Kopaniny","coordinates":[16.4692783,49.9930827]},{"code":"OL/PA-117","program":"gma","name":"Psí kuchyně <Psi kuchyne>","coordinates":[16.4476249,49.8433059]},{"code":"OL/PA-127","program":"gma","name":"Vilamovský kopec <Vilamovsky kopec>","coordinates":[16.3428914,49.9436696]},{"code":"OL/PA-130","program":"gma","name":"Lysina","coordinates":[16.3317603,49.9686229]},{"code":"OL/PA-139","program":"gma","name":"Kubincův kopec <Kubincuv kopec>","coordinates":[16.3746603,49.978592]},{"code":"OL/PA-164","program":"gma","name":"Hůra <Hura>","coordinates":[16.4203086,49.9334649]},{"code":"OL/PA-169","program":"gma","name":"Roveň <Roven>","coordinates":[16.3332447,49.9940783]},{"code":"OL/PA-195","program":"gma","name":"Kozlovský kopec <Kozlovsky kopec>","coordinates":[16.42700005,49.88199997]},{"code":"OL/PA-197","program":"gma","name":"Na stráni <Na strani>","coordinates":[16.40800095,49.77899933]},{"code":"OL/PA-198","program":"gma","name":"Andrlův Chlum <Andrluv Chlum>","coordinates":[16.37299919,49.95999908]},{"code":"OL/PA-202","program":"gma","name":"Haryška <Haryska>","coordinates":[16.32299995,49.79499817]},{"code":"CZ-0178","program":"pota","name":"Brandýs (EVL) Natura 2000","coordinates":[16.296,49.997]}]}