{"lat":49.75,"lon":6,"programs":["pota","sota"],"count":7,"references":[{"code":"LU-0037","program":"pota","name":"Parc de Housen Natura 2000","coordinates":[6.09878,49.9952]},{"code":"LU-0050","program":"pota","name":"Akescht Natura 2000","coordinates":[6.13818,49.9792]},{"code":"LU-0001","program":"pota","name":"Schoofsbësch Natura 2000","coordinates":[6.20536,49.8635]},{"code":"LU-0003","program":"pota","name":"Fensterdall Natura 2000","coordinates":[6.03634,49.7559]},{"code":"LU-0030","program":"pota","name":"Pettener Besch Natura 2000","coordinates":[6.0974,49.7751]},{"code":"LU-0053","program":"pota","name":"Ourdall Promenade Natura 2000","coordinates":[6.19017,49.9616]},{"code":"LX/LX-003","program":"sota","name":"Kiirchbësch","coordinates":[6.2177,49.8914]}]}