{"lat":49.75,"lon":-115.75,"programs":["pota","sota","wwbota"],"count":6,"references":[{"code":"CA-3981","program":"pota","name":"Premier Lake Provincial Park","coordinates":[-115.646,49.9177]},{"code":"CA-4272","program":"pota","name":"Wasa Lake Provincial Park","coordinates":[-115.737,49.7915]},{"code":"VE7/EK-011","program":"sota","name":"TeePee","coordinates":[-115.575,49.8533]},{"code":"VE7/EK-012","program":"sota","name":"Mt. Bill Nye","coordinates":[-115.6,49.7589]},{"code":"VE7/EK-027","program":"sota","name":"Rockbluff Peak","coordinates":[-115.6594,49.8964]},{"code":"B/CA-0358","program":"wwbota","name":"FRP EE1","coordinates":[-115.733706,49.91248103]}]}