{"lat":49.75,"lon":8.75,"programs":["gma","wwbota"],"count":9,"references":[{"code":"DA/HE-121","program":"gma","name":"Klingelskopf","coordinates":[8.92889977,49.80390167]},{"code":"DA/HE-123","program":"gma","name":"Alte Hoehe","coordinates":[8.97995,49.85424]},{"code":"DA/HE-394","program":"gma","name":"Veste Otzberg","coordinates":[8.91110039,49.81940079]},{"code":"DA/HE-397","program":"gma","name":"Altscheuer","coordinates":[8.79220009,49.76449966]},{"code":"DA/HE-503","program":"gma","name":"Klotzeberg","coordinates":[8.991902,49.86411]},{"code":"DA/HE-575","program":"gma","name":"Mainzer Berg","coordinates":[8.771759,49.903847]},{"code":"DA/HE-593","program":"gma","name":"Rödersberg","coordinates":[8.765,49.837073]},{"code":"B/DL-0897","program":"wwbota","name":"Einmannbunker Groß-Umstadt","coordinates":[8.937711,49.882257]},{"code":"B/DL-1065","program":"wwbota","name":"VrSt Rödermark","coordinates":[8.786244,49.983092]}]}