{"lat":49.75,"lon":14.25,"programs":["gma","pota","wwbota"],"count":92,"references":[{"code":"OL/ST-081","program":"gma","name":"Skalka","coordinates":[14.25161457,49.87973785]},{"code":"OL/ST-156","program":"gma","name":"Pánův vrch <Panuv vrch>","coordinates":[14.25891113,49.76667023]},{"code":"OL/ST-157","program":"gma","name":"Holý <Holy>","coordinates":[14.48418713,49.81027222]},{"code":"OL/ST-176","program":"gma","name":"Kateřinka <Katerinka>","coordinates":[14.26999474,49.76839447]},{"code":"OL/ST-202","program":"gma","name":"Hájek <Hajek>","coordinates":[14.49683285,49.75952911]},{"code":"OL/ST-206","program":"gma","name":"Besedná <Besedna>","coordinates":[14.37680531,49.76470184]},{"code":"OL/ST-224","program":"gma","name":"Na Včelní­ku <Na Vcelniku>","coordinates":[14.27690315,49.84910202]},{"code":"OL/ST-235","program":"gma","name":"Maršovka <Marsovka>","coordinates":[14.49947739,49.79393387]},{"code":"OL/ST-239","program":"gma","name":"Červená hora <Cervena hora>","coordinates":[14.40636253,49.82767487]},{"code":"OL/ST-244","program":"gma","name":"Holý vrch <Holy vrch>","coordinates":[14.49165916,49.78692245]},{"code":"OL/ST-260","program":"gma","name":"Bukovec","coordinates":[14.45039463,49.77011108]},{"code":"OL/ST-264","program":"gma","name":"Řezáky <Rezaky>","coordinates":[14.48985481,49.76820374]},{"code":"OL/ST-280","program":"gma","name":"Tetřevní­k <Tetrevnik>","coordinates":[14.3764267,49.75959015]},{"code":"OL/ST-291","program":"gma","name":"Ostrá <Ostra>","coordinates":[14.49108124,49.79958344]},{"code":"OL/ST-302","program":"gma","name":"Červená hlí­na <Cervena hlina>","coordinates":[14.29807854,49.91600418]},{"code":"OL/ST-305","program":"gma","name":"Ostrý vrch <Ostry vrch>","coordinates":[14.38825417,49.77296448]},{"code":"OL/ST-306","program":"gma","name":"Štětinec <Stetinec>","coordinates":[14.3335886,49.77309418]},{"code":"OL/ST-321","program":"gma","name":"Hora <Hora>","coordinates":[14.47711182,49.77548599]},{"code":"OL/ST-330","program":"gma","name":"Podleský vrch <Podlesky vrch>","coordinates":[14.2615509,49.77575302]},{"code":"OL/ST-343","program":"gma","name":"Zlatý vrch <Zlaty vrch>","coordinates":[14.25168228,49.8609581]},{"code":"OL/ST-351","program":"gma","name":"Homolka <Homolka>","coordinates":[14.44289494,49.80411148]},{"code":"OL/ST-357","program":"gma","name":"Okrouhlí­k <Okrouhlik>","coordinates":[14.33171749,49.77985001]},{"code":"OL/ST-364","program":"gma","name":"Chlum <Chlum>","coordinates":[14.46382236,49.75131989]},{"code":"OL/ST-366","program":"gma","name":"Tetří­vek <Tetrivek>","coordinates":[14.35110283,49.80104065]},{"code":"OL/ST-367","program":"gma","name":"Pepř <Pepr>","coordinates":[14.48223877,49.88862228]},{"code":"OL/ST-369","program":"gma","name":"Hora <Hora>","coordinates":[14.29713058,49.85857773]},{"code":"OL/ST-370","program":"gma","name":"Chlum <Chlum>","coordinates":[14.41434097,49.83937073]},{"code":"OL/ST-371","program":"gma","name":"Máj <Maj>","coordinates":[14.45693302,49.83123016]},{"code":"OL/ST-374","program":"gma","name":"Chlum <Chlum>","coordinates":[14.4444561,49.86196899]},{"code":"OL/ST-383","program":"gma","name":"Chlum <Chlum>","coordinates":[14.28104496,49.91496658]},{"code":"OL/ST-397","program":"gma","name":"Horní­ vrch <Horni vrch>","coordinates":[14.33452415,49.85077667]},{"code":"OL/ST-399","program":"gma","name":"Vyhlí­dka <Vyhlidka>","coordinates":[14.39241886,49.82199097]},{"code":"OL/ST-402","program":"gma","name":"Kordův vrch <Korduv vrch>","coordinates":[14.46339035,49.80053711]},{"code":"OL/ST-416","program":"gma","name":"Kočičí­ vrch <Kocici vrch>","coordinates":[14.3979845,49.75884247]},{"code":"OL/ST-421","program":"gma","name":"Lounský vrch <Lounsky vrch>","coordinates":[14.43958855,49.78229141]},{"code":"OL/ST-425","program":"gma","name":"Michnův vrch <Michnuv vrch>","coordinates":[14.43439293,49.83716965]},{"code":"OL/ST-429","program":"gma","name":"Želná (SW fm Chotilsko) <Zelna>","coordinates":[14.34271049,49.76400757]},{"code":"OL/ST-432","program":"gma","name":"Spálený vrch <Spaleny vrch>","coordinates":[14.3976965,49.77308655]},{"code":"OL/ST-433","program":"gma","name":"Ponětov <Ponetov>","coordinates":[14.49302483,49.82643127]},{"code":"OL/ST-438","program":"gma","name":"Hůrka <Hurka>","coordinates":[14.34238338,49.78818512]},{"code":"OL/ST-443","program":"gma","name":"Pří­košov <Prikosov>","coordinates":[14.43887138,49.76739502]},{"code":"OL/ST-444","program":"gma","name":"Kolátov <Kolatov>","coordinates":[14.45964432,49.83750534]},{"code":"OL/ST-454","program":"gma","name":"Nevada","coordinates":[14.32998943,49.80847549]},{"code":"OL/ST-461","program":"gma","name":"Želná (SE fm Chotilsko) <Zelna>","coordinates":[14.36110592,49.76742172]},{"code":"OL/ST-462","program":"gma","name":"Střeblov <Streblov>","coordinates":[14.44897842,49.81658554]},{"code":"OL/ST-468","program":"gma","name":"Mední­k <Mednik>","coordinates":[14.4433527,49.8707428]},{"code":"OL/ST-475","program":"gma","name":"Kozí­ hůrka <Kozi hurka>","coordinates":[14.46394825,49.8808403]},{"code":"OL/ST-479","program":"gma","name":"Kámen <Kamen>","coordinates":[14.31602287,49.92366791]},{"code":"OL/ST-483","program":"gma","name":"Přední­ homole <Predni homole>","coordinates":[14.46502781,49.77298737]},{"code":"OL/ST-484","program":"gma","name":"Zahrádka <Zahradka>","coordinates":[14.45245457,49.88301849]},{"code":"OL/ST-494","program":"gma","name":"Hladomor <Hladomor>","coordinates":[14.28949928,49.77168274]},{"code":"OL/ST-501","program":"gma","name":"Chlumka <Chlumka>","coordinates":[14.37623119,49.86133575]},{"code":"OL/ST-509","program":"gma","name":"Na Komáru <Na Komaru>","coordinates":[14.48610783,49.84935379]},{"code":"OL/ST-521","program":"gma","name":"Holousná <Holousna>","coordinates":[14.39791393,49.782444]},{"code":"OL/ST-522","program":"gma","name":"Ďábel <Dabel>","coordinates":[14.43443489,49.89084625]},{"code":"OL/ST-525","program":"gma","name":"Babka <Babka>","coordinates":[14.35557938,49.87417221]},{"code":"OL/ST-533","program":"gma","name":"Homole <Homole>","coordinates":[14.39089298,49.8372345]},{"code":"OL/ST-537","program":"gma","name":"Vondrův vrch <Vondruv vrch>","coordinates":[14.28444004,49.77575302]},{"code":"OL/ST-541","program":"gma","name":"Slepičkův vrch <Slepickuv vrch>","coordinates":[14.44104767,49.8390007]},{"code":"OL/ST-542","program":"gma","name":"Strhaný <Strhany>","coordinates":[14.36096954,49.83692932]},{"code":"OL/ST-551","program":"gma","name":"Čihadlo <Cihadlo>","coordinates":[14.42261314,49.97612381]},{"code":"OL/ST-555","program":"gma","name":"Žižkův vrch <Zizkuv vrch>","coordinates":[14.38682461,49.86858749]},{"code":"OL/ST-556","program":"gma","name":"Homole <Homole>","coordinates":[14.42917633,49.75101089]},{"code":"OL/ST-558","program":"gma","name":"Sakařův vrch <Sakaruv vrch>","coordinates":[14.35974216,49.82879257]},{"code":"OL/ST-559","program":"gma","name":"Suchý vrch <Suchy vrch>","coordinates":[14.37876034,49.88106537]},{"code":"OL/ST-564","program":"gma","name":"Na Belvederu <Na Belvederu>","coordinates":[14.40398407,49.77679062]},{"code":"OL/ST-575","program":"gma","name":"Chlomek <Chlomek>","coordinates":[14.42046833,49.88523865]},{"code":"OL/ST-576","program":"gma","name":"Babka <Babka>","coordinates":[14.30866909,49.96247864]},{"code":"OL/ST-577","program":"gma","name":"Šedivý vrch <Sedivy vrch>","coordinates":[14.36859703,49.83214951]},{"code":"OL/ST-580","program":"gma","name":"Kněžoles <Knezoles>","coordinates":[14.47510719,49.8581543]},{"code":"OL/ST-585","program":"gma","name":"Rabyňská hora <Rabynska hora>","coordinates":[14.4168663,49.8052063]},{"code":"OL/ST-591","program":"gma","name":"Klapice <Klapice>","coordinates":[14.34022903,49.98741531]},{"code":"OL/ST-594","program":"gma","name":"Jedlina <Jedlina>","coordinates":[14.41851139,49.77923584]},{"code":"OL/ST-717","program":"gma","name":"Čihadlo <Cihadlo>","coordinates":[14.25899982,49.75400162]},{"code":"OL/ST-727","program":"gma","name":"Pleš <Ples>","coordinates":[14.28899956,49.83800125]},{"code":"OL/ST-733","program":"gma","name":"Hvíždinec <Hvizdinec>","coordinates":[14.26200008,49.90399933]},{"code":"OL/ST-737","program":"gma","name":"Lí­pový vrch <Lipovy vrch>","coordinates":[14.48600006,49.9109993]},{"code":"OL/ST-743","program":"gma","name":"Cukrák <Cukrak>","coordinates":[14.35499954,49.93799973]},{"code":"OL/ST-746","program":"gma","name":"Žďanská hora <Zdanska hora>","coordinates":[14.4071347,49.7913475]},{"code":"OL/ST-803","program":"gma","name":"Šance <Sance>","coordinates":[14.4171592,49.9713217]},{"code":"OL/ST-808","program":"gma","name":"Hradiště <Hradiste>","coordinates":[14.4076922,49.9622983]},{"code":"OL/ST-829","program":"gma","name":"Bukovka","coordinates":[14.2648158,49.9449458]},{"code":"OL/ST-830","program":"gma","name":"Čabrak <Cabrak>","coordinates":[14.2569708,49.9490853]},{"code":"OL/ST-835","program":"gma","name":"Škrábek <Skrabek>","coordinates":[14.2752933,49.9912367]},{"code":"OL/ST-846","program":"gma","name":"Rudloště <Rudloste>","coordinates":[14.2544667,49.9831592]},{"code":"OL/ST-853","program":"gma","name":"Homole","coordinates":[14.3963281,49.9395792]},{"code":"OL/ST-862","program":"gma","name":"Dobřich <Dobrich>","coordinates":[14.2677006,49.8993783]},{"code":"CZ-0054","program":"pota","name":"Šance Nature Reserve","coordinates":[14.4141,49.9699]},{"code":"CZ-0150","program":"pota","name":"Černé rokle National Monument","coordinates":[14.338,49.989]},{"code":"CZ-0151","program":"pota","name":"Lochkovský profil National Monument","coordinates":[14.335,49.999]},{"code":"CZ-0070","program":"pota","name":"Teletínský lom Nature Monument","coordinates":[14.4755,49.8264]},{"code":"B/OK-0241","program":"wwbota","name":"122/20/A-120Z Moran","coordinates":[14.42773,49.75564]}]}