{"lat":49.75,"lon":16.75,"programs":["gma","sota","wwbota"],"count":12,"references":[{"code":"OK/OL-031","program":"gma","name":"Kančí­ vrch <Kanci vrch>","coordinates":[16.78000069,49.8390007]},{"code":"OK/OL-064","program":"gma","name":"Háj <Haj>","coordinates":[16.93400002,49.97090149]},{"code":"OL/OL-026","program":"gma","name":"Sklenný vrch  <Sklenny vrch>","coordinates":[16.9062748,49.98758698]},{"code":"OL/OL-027","program":"gma","name":"Michalův vrch (Michalův kopec) <Michaluv","coordinates":[16.78490829,49.91993332]},{"code":"OL/OL-028","program":"gma","name":"Dražní­k <Draznik>","coordinates":[16.98398399,49.92857361]},{"code":"OL/OL-099","program":"gma","name":"Vysoký vrch <Vysoky vrch>","coordinates":[16.76199913,49.80699921]},{"code":"OL/OL-138","program":"gma","name":"Bílý kámen <Bily kamen>","coordinates":[16.97299957,49.87099838]},{"code":"OL/PA-106","program":"gma","name":"Kozinec","coordinates":[16.7642581,49.757027]},{"code":"OL/PA-151","program":"gma","name":"Homole","coordinates":[16.7553148,49.8722455]},{"code":"OK/OL-031","program":"sota","name":"Kančí vrch","coordinates":[16.7808,49.8393]},{"code":"OK/OL-064","program":"sota","name":"Háj","coordinates":[16.934,49.9709]},{"code":"B/OK-5064","program":"wwbota","name":"Partyzansky bunkr Drozdov","coordinates":[16.8007,49.89984]}]}