{"lat":5,"lon":95.75,"programs":["sota"],"count":9,"references":[{"code":"YBS/AC-194","program":"sota","name":"Gle Singgah Mata","coordinates":[95.8264,5.0139]},{"code":"YBS/AC-231","program":"sota","name":"Gle Suku","coordinates":[95.8016,5.1438]},{"code":"YBS/AC-307","program":"sota","name":"YBS/AC-307","coordinates":[95.9528,5.0631]},{"code":"YBS/AC-350","program":"sota","name":"YBS/AC-350","coordinates":[95.9431,5.0871]},{"code":"YBS/AC-371","program":"sota","name":"Gunung Bateehitam","coordinates":[95.7586,5.2408]},{"code":"YBS/AC-437","program":"sota","name":"Cot Mancang","coordinates":[95.7903,5.21]},{"code":"YBS/AC-439","program":"sota","name":"YBS/AC-439","coordinates":[95.8128,5.2019]},{"code":"YBS/AC-489","program":"sota","name":"Cot Sutui","coordinates":[95.957,5.1436]},{"code":"YBS/AC-596","program":"sota","name":"Cot Mupayong","coordinates":[95.9203,5.1875]}]}