{"lat":5,"lon":-74,"programs":["gma","pota"],"count":7,"references":[{"code":"HK/3-004","program":"gma","name":"Cerro Tres Viejas","coordinates":[-73.77446,5.03479]},{"code":"CO-0115","program":"pota","name":"Páramo de Guargua y Laguna Verde State Conservation Area","coordinates":[-73.902,5.20425]},{"code":"CO-0371","program":"pota","name":"Paramo de Guargua y Laguna Verde State Forest","coordinates":[-73.9768,5.22415]},{"code":"CO-0415","program":"pota","name":"Embalse del Neusa State Natural Reserve","coordinates":[-73.9496,5.16853]},{"code":"CO-0420","program":"pota","name":"Rio Neusa State Natural Reserve","coordinates":[-73.9689,5.10879]},{"code":"CO-0431","program":"pota","name":"Rocas de Suesca State Natural Reserve","coordinates":[-73.7893,5.09623]},{"code":"CO-0510","program":"pota","name":"Laguna de Suesca Biological Reserve","coordinates":[-73.7826,5.18771]}]}