{"lat":5,"lon":96.25,"programs":["sota"],"count":7,"references":[{"code":"YBS/AC-112","program":"sota","name":"YBS/AC-112","coordinates":[96.2967,5.0139]},{"code":"YBS/AC-169","program":"sota","name":"Gunung Gamut","coordinates":[96.27,5.0546]},{"code":"YBS/AC-267","program":"sota","name":"Gunung Singgah Mata","coordinates":[96.3908,5.0631]},{"code":"YBS/AC-469","program":"sota","name":"YBS/AC-469","coordinates":[96.4858,5.0444]},{"code":"YBS/AC-561","program":"sota","name":"Gunung Teurawah Ciko","coordinates":[96.4497,5.1317]},{"code":"YBS/AC-609","program":"sota","name":"YBS/AC-609","coordinates":[96.4406,5.1667]},{"code":"YBS/AC-617","program":"sota","name":"Gunung Banggalang","coordinates":[96.4704,5.1464]}]}