{"lat":50,"lon":14.5,"programs":["gma","pota"],"count":11,"references":[{"code":"OL/ST-617","program":"gma","name":"Zabitý kopec <Zabity kopec>","coordinates":[14.55325699,50.15751648]},{"code":"OL/ST-620","program":"gma","name":"Kuchyňka <Kuchynka>","coordinates":[14.59482765,50.18148422]},{"code":"OL/ST-625","program":"gma","name":"Kobylí hlava <Kobyli hlava>","coordinates":[14.71679497,50.22868729]},{"code":"OL/ST-804","program":"gma","name":"Vinice","coordinates":[14.7354053,50.0780603]},{"code":"OL/ST-833","program":"gma","name":"Kozice","coordinates":[14.5044164,50.2311172]},{"code":"OL/ST-834","program":"gma","name":"Na Plachtě <Na Plachte>","coordinates":[14.7268394,50.0310183]},{"code":"OL/ST-836","program":"gma","name":"Milíčovský vrch <Milicovsky vrch>","coordinates":[14.5284639,50.0232083]},{"code":"CZ-0112","program":"pota","name":"Xaverovsky haj Nature Monument","coordinates":[14.614,50.0946]},{"code":"CZ-0113","program":"pota","name":"Obora v Uhrinevsi Nature Monument","coordinates":[14.5996,50.0365]},{"code":"CZ-0115","program":"pota","name":"Hostivar-Zabehlice Nature Park","coordinates":[14.529,50.0438]},{"code":"CZ-0111","program":"pota","name":"Klanovicky les Nature Reserve","coordinates":[14.6409,50.0929]}]}