{"lat":50,"lon":18.25,"programs":["pota"],"count":7,"references":[{"code":"PL-1365","program":"pota","name":"Cysterskie Kompozycje Krajobrazowe Rud Wielkich Landscape Park","coordinates":[18.4683,50.2141]},{"code":"PL-1446","program":"pota","name":"Stawy Wielikąt i Las Tworkowski Natura 2000","coordinates":[18.3003,50.0176]},{"code":"PL-1449","program":"pota","name":"Łężczok Nature Reserve","coordinates":[18.2775,50.1392]},{"code":"PL-1454","program":"pota","name":"Las koło Tworkowa Natura 2000","coordinates":[18.2657,50.016]},{"code":"PL-2177","program":"pota","name":"Bociek Nature and Landscape Complex","coordinates":[18.3075,50.0592]},{"code":"PL-2631","program":"pota","name":"Stawy Łężczok Natura 2000","coordinates":[18.2706,50.1375]},{"code":"PL-2632","program":"pota","name":"Wielikąt Nature and Landscape Complex","coordinates":[18.3111,50.0195]}]}