{"lat":50,"lon":10.5,"programs":["gma","pota","sota","wwbota"],"count":21,"references":[{"code":"DA/BM-096","program":"gma","name":"Tonberg","coordinates":[10.73309994,50.05220032]},{"code":"DA/BM-097","program":"gma","name":"Stachel","coordinates":[10.70419979,50.06499863]},{"code":"DA/BM-098","program":"gma","name":"Hühnerberg","coordinates":[10.71940041,50.07830048]},{"code":"DA/BM-099","program":"gma","name":"Eichelberg","coordinates":[10.64780045,50.12720108]},{"code":"DA/BM-100","program":"gma","name":"Schrottenberg","coordinates":[10.66940022,50.16579819]},{"code":"DA/BM-101","program":"gma","name":"Roter Bühl","coordinates":[10.68719959,50.06809998]},{"code":"DA/BM-102","program":"gma","name":"Haubeberg","coordinates":[10.7361002,50.10889816]},{"code":"DA/BM-103","program":"gma","name":"Kleiner Haßberg","coordinates":[10.50829983,50.23500061]},{"code":"DA/BM-201","program":"gma","name":"Schwedenschanze","coordinates":[10.51822376,50.17404175]},{"code":"DA/BM-314","program":"gma","name":"Zeilberg","coordinates":[10.67920017,50.19580078]},{"code":"DA/BM-316","program":"gma","name":"Büchelberg","coordinates":[10.61830044,50.16500092]},{"code":"DA/BM-404","program":"gma","name":"Hohe Wann","coordinates":[10.572722,50.036083]},{"code":"DA/BM-522","program":"gma","name":"Schleifberg","coordinates":[10.599918,50.01837]},{"code":"DA/TH-833","program":"gma","name":"Großer Pfadelsberg","coordinates":[10.67749977,50.22700119]},{"code":"DA/TH-835","program":"gma","name":"Lehnberg","coordinates":[10.61229992,50.22900009]},{"code":"DE-0032","program":"pota","name":"Hassberge Nature Park","coordinates":[10.6093,50.1111]},{"code":"DE-0581","program":"pota","name":"Hohe Wann Nature Reserve","coordinates":[10.5747,50.0366]},{"code":"DE-0589","program":"pota","name":"Mainaue bei Augsfeld Nature Recreation Reserve","coordinates":[10.5341,50.0122]},{"code":"DE-0990","program":"pota","name":"Kelten-Erlebnisweg National Recreation Trail","coordinates":[10.5737,50.0363]},{"code":"DM/BM-133","program":"sota","name":"Bramberg","coordinates":[10.6348,50.1083]},{"code":"B/DL-1015","program":"wwbota","name":"Sperrmittelhaus Königsberg","coordinates":[10.594864,50.097149]}]}