{"lat":50,"lon":10.75,"programs":["gma","pota","sota"],"count":9,"references":[{"code":"DA/BM-095","program":"gma","name":"Eichelberg","coordinates":[10.78079987,50.0705986]},{"code":"DA/BM-315","program":"gma","name":"Lußberg","coordinates":[10.75969982,50.01689911]},{"code":"DA/BM-398","program":"gma","name":"Eierberge","coordinates":[10.94190025,50.10359955]},{"code":"DA/BM-517","program":"gma","name":"Banzberge","coordinates":[10.98894,50.15246]},{"code":"DA/TH-830","program":"gma","name":"M","coordinates":[10.82289982,50.24209976]},{"code":"DA/TH-831","program":"gma","name":"Eichenbühl","coordinates":[10.80580044,50.2492981]},{"code":"DA/TH-832","program":"gma","name":"Wartberg","coordinates":[10.75189972,50.24739838]},{"code":"DE-1160","program":"pota","name":"Itz-, Rodach- und Baunachaue Bird Sanctuary","coordinates":[10.8739,50.1323]},{"code":"DM/BM-361","program":"sota","name":"Kulch","coordinates":[10.9769,50.1619]}]}