{"lat":50,"lon":14.75,"programs":["gma"],"count":11,"references":[{"code":"OL/ST-606","program":"gma","name":"Srnčí­ kopec <Srnci kopec>","coordinates":[14.82498646,50.02563858]},{"code":"OL/ST-613","program":"gma","name":"Velká Stráž <Velka Straz>","coordinates":[14.98636532,50.05771637]},{"code":"OL/ST-622","program":"gma","name":"Přerovská hůra <Prerovska hura>","coordinates":[14.83927345,50.16207886]},{"code":"OL/ST-624","program":"gma","name":"Semická hůra <Semicka hura>","coordinates":[14.86459255,50.16002274]},{"code":"OL/ST-658","program":"gma","name":"Klepec","coordinates":[14.7792992,50.0492886]},{"code":"OL/ST-739","program":"gma","name":"Horka","coordinates":[14.75,50.00600052]},{"code":"OL/ST-748","program":"gma","name":"Na hrádku <Na hradku>","coordinates":[14.93799973,50.01200104]},{"code":"OL/ST-758","program":"gma","name":"Zálužní­k <Zaluznik>","coordinates":[14.875,50.10100174]},{"code":"OL/ST-769","program":"gma","name":"Skřivánek <Skrivanek>","coordinates":[14.78800011,50.12900162]},{"code":"OL/ST-798","program":"gma","name":"Bří­stevská hůra <Bristevska hura>","coordinates":[14.852,50.137]},{"code":"OL/ST-799","program":"gma","name":"Na horeckých vrší­ch <Na horeckych vrsich>","coordinates":[14.855,50.132]}]}