{"lat":50,"lon":11.25,"programs":["gma","pota","sota"],"count":14,"references":[{"code":"DA/BM-381","program":"gma","name":"Geuserberg","coordinates":[11.46420002,50.24860001]},{"code":"DA/BM-382","program":"gma","name":"Rainberg","coordinates":[11.32330036,50.16279984]},{"code":"DA/BM-431","program":"gma","name":"Patersberg","coordinates":[11.3909,50.1296]},{"code":"DA/BM-432","program":"gma","name":"Rotstein","coordinates":[11.336887,50.133291]},{"code":"DA/BM-433","program":"gma","name":"Bohlenberg","coordinates":[11.33534,50.13567]},{"code":"DA/BM-434","program":"gma","name":"Spitzberg","coordinates":[11.33894,50.15789]},{"code":"DA/BM-435","program":"gma","name":"Knock","coordinates":[11.37035,50.17033]},{"code":"DA/BM-436","program":"gma","name":"Gr","coordinates":[11.33899,50.12295]},{"code":"DA/BM-437","program":"gma","name":"Turmberg","coordinates":[11.35219,50.03179]},{"code":"DA/BM-546","program":"gma","name":"Radspitze","coordinates":[11.435313,50.235105]},{"code":"DA/BM-595","program":"gma","name":"Rehberg","coordinates":[11.469782,50.100434]},{"code":"DE-0992","program":"pota","name":"FrankenwaldSteig National Historic Trail","coordinates":[11.3229,50.245]},{"code":"DM/BM-330","program":"sota","name":"Oberer roter Bühl","coordinates":[11.2533,50.2303]},{"code":"DM/BM-334","program":"sota","name":"Kesselleite","coordinates":[11.4808,50.0894]}]}