{"lat":50,"lon":-121.5,"programs":["sota"],"count":9,"references":[{"code":"VE7/TN-378","program":"sota","name":"Mount Hewitt Bostock","coordinates":[-121.288,50.0094]},{"code":"VE7/TN-397","program":"sota","name":"Gilda Peak","coordinates":[-121.2584,50.023]},{"code":"VE7/TN-411","program":"sota","name":"Alfie Peak","coordinates":[-121.2878,50.0328]},{"code":"VE7/TN-430","program":"sota","name":"Mount Lytton","coordinates":[-121.4379,50.1647]},{"code":"VE7/TN-433","program":"sota","name":"Zakwaski Mountain","coordinates":[-121.2995,50.1519]},{"code":"VE7/TN-434","program":"sota","name":"Suspect Peak","coordinates":[-121.3083,50.104]},{"code":"VE7/TN-445","program":"sota","name":"Mowhokam Peak","coordinates":[-121.375,50.0737]},{"code":"VE7/TN-450","program":"sota","name":"Jackass Mountain","coordinates":[-121.4724,50.0896]},{"code":"VE7/TN-492","program":"sota","name":"Kanaka Mountain (Kanaka Bar Mountain)","coordinates":[-121.4864,50.1158]}]}