{"lat":50,"lon":12,"programs":["gma","pota","sota"],"count":16,"references":[{"code":"DA/BM-118","program":"gma","name":"Kohlberg","coordinates":[12.18669987,50.04190063]},{"code":"DA/BM-120","program":"gma","name":"Wartberg","coordinates":[12.11859989,50.06110001]},{"code":"DA/BM-596","program":"gma","name":"Großer Hengstberg","coordinates":[12.187714,50.131458]},{"code":"OL/KA-074","program":"gma","name":"Skřivánčí vrch <Skrivanci vrch>","coordinates":[12.21441269,50.22103119]},{"code":"OL/KA-118","program":"gma","name":"Jelení­ vrch <Jeleni vrch>","coordinates":[12.22535038,50.15818024]},{"code":"OL/KA-127","program":"gma","name":"Mezný vrch <Mezny vrch>","coordinates":[12.20341015,50.1329689]},{"code":"OL/KA-155","program":"gma","name":"Háj <Haj>","coordinates":[12.20199966,50.23400116]},{"code":"OL/KA-295","program":"gma","name":"Vyhlídka <Vyhlidka>","coordinates":[12.23689,50.24816]},{"code":"OL/KA-304","program":"gma","name":"Za Valihorou","coordinates":[12.23442,50.2087]},{"code":"OL/KA-360","program":"gma","name":"Tři díry <Tri diry>","coordinates":[12.22714,50.14619]},{"code":"OL/KA-362","program":"gma","name":"Stráně <Strane>","coordinates":[12.2129501,50.1094501]},{"code":"OL/KA-429","program":"gma","name":"Štítarský vrch <Stitarsky vrch>","coordinates":[12.13099957,50.23699951]},{"code":"OL/KA-438","program":"gma","name":"Kozina","coordinates":[12.22200012,50.18099976]},{"code":"OL/KA-439","program":"gma","name":"Blatná <Blatna>","coordinates":[12.22099972,50.12400055]},{"code":"DE-0972","program":"pota","name":"Jean Paul Weg National Historic Trail","coordinates":[12.0029,50.0374]},{"code":"DM/BM-153","program":"sota","name":"Großer Kornberg","coordinates":[12.0203,50.1825]}]}