{"lat":50,"lon":9,"programs":["gma","sota","wwbota"],"count":9,"references":[{"code":"DA/BM-532","program":"gma","name":"Koenigsstein","coordinates":[9.1145,50.03317]},{"code":"DA/HE-067","program":"gma","name":"Franzosenkopf","coordinates":[9.22539,50.14734]},{"code":"DA/HE-103","program":"gma","name":"Vier Fichten","coordinates":[9.23970032,50.24969864]},{"code":"DA/HE-112","program":"gma","name":"Galgenberg","coordinates":[9.24969959,50.18809891]},{"code":"DA/HE-507","program":"gma","name":"Rauenberg","coordinates":[9.16045,50.171451]},{"code":"DA/HE-556","program":"gma","name":"Großer Buchberg","coordinates":[9.05364,50.153022]},{"code":"DA/HE-559","program":"gma","name":"Weinberg","coordinates":[9.06393,50.18461]},{"code":"DM/BM-379","program":"sota","name":"Hahnenkamm","coordinates":[9.1095,50.0783]},{"code":"B/DL-0896","program":"wwbota","name":"Bunkerruine Wetterau-Main-Tauberstellung","coordinates":[9.152508,50.240863]}]}