{"lat":50,"lon":7.5,"programs":["gma","pota"],"count":10,"references":[{"code":"DA/RP-177","program":"gma","name":"Luftekopf","coordinates":[7.62220001,50.08670044]},{"code":"DA/RP-180","program":"gma","name":"Güllheck","coordinates":[7.60750008,50.17610168]},{"code":"DA/RP-182","program":"gma","name":"Fleckertshöhe","coordinates":[7.60500002,50.18640137]},{"code":"DA/RP-185","program":"gma","name":"Hoher Stein","coordinates":[7.64359999,50.12279892]},{"code":"DA/RP-186","program":"gma","name":"Graskopf","coordinates":[7.59469986,50.1935997]},{"code":"DA/RP-193","program":"gma","name":"Horstkopf","coordinates":[7.51609993,50.24029922]},{"code":"DA/RP-195","program":"gma","name":"Eichenberg","coordinates":[7.58419991,50.16640091]},{"code":"DA/RP-205","program":"gma","name":"Spitzenstein","coordinates":[7.69469976,50.12829971]},{"code":"DA/RP-465","program":"gma","name":"Dachsköpfe","coordinates":[7.70060015,50.23500061]},{"code":"DE-0354","program":"pota","name":"Rheinhänge von Burg Gutenfels bis zur Loreley Nature Reserve","coordinates":[7.73927,50.1199]}]}