{"lat":50,"lon":-126.5,"programs":["pota","sota"],"count":32,"references":[{"code":"CA-3895","program":"pota","name":"Nimpkish River Ecological Reserve","coordinates":[-126.464,50.0837]},{"code":"CA-4063","program":"pota","name":"Schoen Lake Provincial Park","coordinates":[-126.258,50.1882]},{"code":"VE7/NI-001","program":"sota","name":"Mount Cain","coordinates":[-126.3261,50.2286]},{"code":"VE7/NI-002","program":"sota","name":"Vernon Peak","coordinates":[-126.3972,50.0175]},{"code":"VE7/NI-005","program":"sota","name":"Mt. Abel","coordinates":[-126.3205,50.212]},{"code":"VE7/NI-006","program":"sota","name":"Maquilla Peak","coordinates":[-126.3396,50.1123]},{"code":"VE7/NI-011","program":"sota","name":"Hapush Mountain","coordinates":[-126.3336,50.243]},{"code":"VE7/NI-014","program":"sota","name":"Sutton NW","coordinates":[-126.2505,50.0476]},{"code":"VE7/NI-019","program":"sota","name":"Mt. Abraham","coordinates":[-126.2837,50.1822]},{"code":"VE7/NI-021","program":"sota","name":"Peak 1737","coordinates":[-126.3049,50.1081]},{"code":"VE7/NI-023","program":"sota","name":"Perseus Peak","coordinates":[-126.2875,50.0998]},{"code":"VE7/NI-029","program":"sota","name":"Mount Sarai","coordinates":[-126.3059,50.2002]},{"code":"VE7/NI-031","program":"sota","name":"VE7/NI-031","coordinates":[-126.2727,50.0514]},{"code":"VE7/NI-033","program":"sota","name":"Auriga Peak","coordinates":[-126.2511,50.0672]},{"code":"VE7/NI-035","program":"sota","name":"VE7/NI-035","coordinates":[-126.3268,50.1258]},{"code":"VE7/NI-037","program":"sota","name":"Finn Peak","coordinates":[-126.2962,50.2137]},{"code":"VE7/NI-038","program":"sota","name":"Peak 1590","coordinates":[-126.3309,50.0827]},{"code":"VE7/NI-039","program":"sota","name":"VE7/NI-039","coordinates":[-126.3574,50.1193]},{"code":"VE7/NI-045","program":"sota","name":"Cassiopeia Peak","coordinates":[-126.2824,50.0803]},{"code":"VE7/NI-049","program":"sota","name":"VE7/NI-049","coordinates":[-126.3251,50.0802]},{"code":"VE7/NI-051","program":"sota","name":"Taurus Peak","coordinates":[-126.2809,50.1271]},{"code":"VE7/NI-056","program":"sota","name":"VE7/NI-056","coordinates":[-126.2539,50.2304]},{"code":"VE7/NI-059","program":"sota","name":"Camelopardalis Peak","coordinates":[-126.2682,50.0785]},{"code":"VE7/NI-060","program":"sota","name":"Aries Peak","coordinates":[-126.2825,50.1141]},{"code":"VE7/NI-065","program":"sota","name":"VE7/NI-065","coordinates":[-126.2953,50.0759]},{"code":"VE7/NI-129","program":"sota","name":"VE7/NI-129","coordinates":[-126.4775,50.2171]},{"code":"VE7/NI-131","program":"sota","name":"VE7/NI-131","coordinates":[-126.4808,50.0364]},{"code":"VE7/NI-171","program":"sota","name":"Klalakama Peak","coordinates":[-126.4959,50.1688]},{"code":"VE7/NI-185","program":"sota","name":"VE7/NI-185","coordinates":[-126.4148,50.203]},{"code":"VE7/NI-194","program":"sota","name":"VE7/NI-194","coordinates":[-126.3615,50.0612]},{"code":"VE7/NI-208","program":"sota","name":"VE7/NI-208","coordinates":[-126.4384,50.1008]},{"code":"VE7/NI-213","program":"sota","name":"VE7/NI-213","coordinates":[-126.4332,50.155]}]}