{"lat":50,"lon":-125,"programs":["pota","sota","wwbota"],"count":22,"references":[{"code":"CA-3366","program":"pota","name":"Copeland Islands Marine Provincial Park","coordinates":[-124.812,50.0088]},{"code":"CA-3590","program":"pota","name":"Háthayim [a.k.a. Von Donop] Marine Park","coordinates":[-124.953,50.1645]},{"code":"CA-3769","program":"pota","name":"Malaspina Provincial Park","coordinates":[-124.762,50.0257]},{"code":"CA-3771","program":"pota","name":"Mansons Landing Provincial Park","coordinates":[-124.981,50.0644]},{"code":"CA-4036","program":"pota","name":"Roscoe Bay Provincial Park","coordinates":[-124.767,50.1603]},{"code":"CA-4111","program":"pota","name":"Smelt Bay Provincial Park","coordinates":[-124.994,50.0313]},{"code":"CA-4188","program":"pota","name":"Teakerne Arm Provincial Park","coordinates":[-124.843,50.2013]},{"code":"VE7/CS-360","program":"sota","name":"Ellis Peak","coordinates":[-124.9099,50.2213]},{"code":"VE7/CS-363","program":"sota","name":"VE7/CS-363","coordinates":[-124.9417,50.2346]},{"code":"VE7/CS-396","program":"sota","name":"VE7/CS-396","coordinates":[-124.9126,50.2318]},{"code":"VE7/CS-416","program":"sota","name":"Nipple Summit","coordinates":[-124.9078,50.1983]},{"code":"VE7/CS-481","program":"sota","name":"Llanover Mountain","coordinates":[-124.7907,50.179]},{"code":"VE7/CS-491","program":"sota","name":"VE7/CS-491","coordinates":[-124.851,50.2225]},{"code":"VE7/CS-546","program":"sota","name":"VE7/CS-546","coordinates":[-124.9429,50.1827]},{"code":"VE7/CS-565","program":"sota","name":"VE7/CS-565","coordinates":[-124.9878,50.2256]},{"code":"VE7/CS-578","program":"sota","name":"VE7/CS-578","coordinates":[-124.9339,50.091]},{"code":"VE7/CS-583","program":"sota","name":"VE7/CS-583","coordinates":[-124.7893,50.1475]},{"code":"VE7/CS-587","program":"sota","name":"VE7/CS-587","coordinates":[-124.8642,50.1577]},{"code":"VE7/CS-592","program":"sota","name":"VE7/CS-592","coordinates":[-124.8107,50.1328]},{"code":"VE7/CS-597","program":"sota","name":"VE7/CS-597","coordinates":[-124.8605,50.1404]},{"code":"VE7/CS-610","program":"sota","name":"VE7/CS-610","coordinates":[-124.9391,50.0367]},{"code":"B/CA-0235","program":"wwbota","name":"FRP LF3","coordinates":[-124.8390156,50.12374873]}]}