{"lat":50,"lon":-123.75,"programs":["sota"],"count":7,"references":[{"code":"VE7/SC-019","program":"sota","name":"Ponor N3 (Deserted-Elaho)","coordinates":[-123.5911,50.1259]},{"code":"VE7/SC-020","program":"sota","name":"Deserted Peak","coordinates":[-123.6144,50.1671]},{"code":"VE7/SC-021","program":"sota","name":"Mount Pearkes","coordinates":[-123.736,50.1552]},{"code":"VE7/SC-022","program":"sota","name":"Saar Peak","coordinates":[-123.6243,50.066]},{"code":"VE7/SC-035","program":"sota","name":"Tsuahdi Peak","coordinates":[-123.6664,50.0439]},{"code":"VE7/SC-104","program":"sota","name":"VE7/SC-104","coordinates":[-123.6594,50.1535]},{"code":"VE7/SL-050","program":"sota","name":"Mt. Ashlu","coordinates":[-123.5492,50.0761]}]}