{"lat":50,"lon":-125.5,"programs":["pota","sota","wwbota"],"count":15,"references":[{"code":"CA-3465","program":"pota","name":"Elk Falls Provincial Park","coordinates":[-125.299,50.0357]},{"code":"CA-3466","program":"pota","name":"Elk Falls Protected Area","coordinates":[-125.33,50.0383]},{"code":"CA-3753","program":"pota","name":"Loveland Bay Provincial Park","coordinates":[-125.449,50.0504]},{"code":"CA-3828","program":"pota","name":"Morton Lake Provincial Park","coordinates":[-125.485,50.1253]},{"code":"VE7/CS-246","program":"sota","name":"Mount Menzies","coordinates":[-125.4969,50.2304]},{"code":"VE7/CS-466","program":"sota","name":"VE7/CS-466","coordinates":[-125.4484,50.1771]},{"code":"VE7/CS-494","program":"sota","name":"Mount Seymour","coordinates":[-125.2972,50.1789]},{"code":"VE7/CS-515","program":"sota","name":"VE7/CS-515","coordinates":[-125.3312,50.1986]},{"code":"VE7/CS-519","program":"sota","name":"VE7/CS-519","coordinates":[-125.4165,50.1768]},{"code":"VE7/CS-526","program":"sota","name":"VE7/CS-526","coordinates":[-125.3196,50.2142]},{"code":"VE7/CS-545","program":"sota","name":"VE7/CS-545","coordinates":[-125.3537,50.2282]},{"code":"VE7/CS-564","program":"sota","name":"VE7/CS-564","coordinates":[-125.265,50.2406]},{"code":"VE7/CS-598","program":"sota","name":"VE7/CS-598","coordinates":[-125.2862,50.1233]},{"code":"VE7/CS-607","program":"sota","name":"Mount Lolo","coordinates":[-125.3444,50.1479]},{"code":"B/CA-0234","program":"wwbota","name":"FRP KF42","coordinates":[-125.2733353,50.03312263]}]}