{"lat":50,"lon":-97,"programs":["pota","wwbota"],"count":13,"references":[{"code":"CA-0529","program":"pota","name":"Birds Hill Provincial Park","coordinates":[-96.887,50.0276]},{"code":"CA-0550","program":"pota","name":"Lockport Provincial Park","coordinates":[-96.9369,50.0857]},{"code":"CA-0564","program":"pota","name":"River Road Provincial Park","coordinates":[-96.9908,50.0476]},{"code":"CA-1055","program":"pota","name":"Lower Fort Garry National Historic Site","coordinates":[-96.9316,50.1121]},{"code":"CA-4805","program":"pota","name":"St. Andrews Rectory National Historic Site","coordinates":[-96.9774,50.0661]},{"code":"CA-6026","program":"pota","name":"Miss Davis' School Residence / Twin Oaks National Historic Site","coordinates":[-96.9877,50.0556]},{"code":"CA-6032","program":"pota","name":"Red River Floodway National Historic Site","coordinates":[-96.9348,50.0901]},{"code":"CA-6036","program":"pota","name":"St. Andrew's Anglican Church National Historic Site","coordinates":[-96.9765,50.0667]},{"code":"CA-6037","program":"pota","name":"St. Andrews Caméré Curtain Bridge Dam National Historic Site","coordinates":[-96.9419,50.0824]},{"code":"CA-6042","program":"pota","name":"Ukrainian Catholic Church of the Immaculate Conception National Historic Site","coordinates":[-96.7729,50.0038]},{"code":"B/CA-0543","program":"wwbota","name":"FRP GF4","coordinates":[-96.974947,50.242466]},{"code":"B/CA-0553","program":"wwbota","name":"FRP JF32","coordinates":[-96.8754295,50.1435276]},{"code":"B/CA-0555","program":"wwbota","name":"FRP JF34","coordinates":[-96.85138889,50.13416667]}]}