{"lat":50,"lon":7.25,"programs":["gma","pota","wwbota"],"count":15,"references":[{"code":"DA/RP-189","program":"gma","name":"Hohe Buch","coordinates":[7.44080019,50.05830002]},{"code":"DA/RP-194","program":"gma","name":"Thonhügel","coordinates":[7.31890011,50.06499863]},{"code":"DA/RP-197","program":"gma","name":"Auf der Hütte","coordinates":[7.30219984,50.0469017]},{"code":"DA/RP-200","program":"gma","name":"Waldeck","coordinates":[7.27279997,50.06219864]},{"code":"DA/RP-215","program":"gma","name":"Hurtskopf","coordinates":[7.3046999,50.15219879]},{"code":"DA/RP-216","program":"gma","name":"Schafberg","coordinates":[7.45809984,50.23830032]},{"code":"DA/RP-219","program":"gma","name":"Kalkberg","coordinates":[7.25500011,50.10329819]},{"code":"DA/RP-223","program":"gma","name":"Beierberg","coordinates":[7.40920019,50.20999908]},{"code":"DA/RP-227","program":"gma","name":"Felcheskopf","coordinates":[7.31780005,50.18030167]},{"code":"DA/RP-347","program":"gma","name":"Martberg","coordinates":[7.2887001,50.17921829]},{"code":"DA/RP-362","program":"gma","name":"Zillesberg","coordinates":[7.30444384,50.17753601]},{"code":"DA/RP-398","program":"gma","name":"Kallenberg","coordinates":[7.383477,50.162181]},{"code":"DA/RP-411","program":"gma","name":"Treiser Schock","coordinates":[7.32140017,50.16109848]},{"code":"DE-1170","program":"pota","name":"Moselhänge und Nebentäler der unteren Mosel Flora and Fauna Reserve","coordinates":[7.27789,50.1808]},{"code":"B/DL-0399","program":"wwbota","name":"Bunker Gosberg","coordinates":[7.42222,50.019239]}]}