{"lat":50,"lon":15.25,"programs":["gma","pota","wwbota"],"count":9,"references":[{"code":"OL/KR-182","program":"gma","name":"Tátrum <Tatrum>","coordinates":[15.4897606,50.1210917]},{"code":"OL/PA-205","program":"gma","name":"Oklika","coordinates":[15.42199993,50.02000046]},{"code":"OL/ST-621","program":"gma","name":"Šibení­k <Sibenik>","coordinates":[15.37388039,50.04840851]},{"code":"OL/ST-623","program":"gma","name":"U Borku <U Borku>","coordinates":[15.25950527,50.24320221]},{"code":"OL/ST-757","program":"gma","name":"Na pí­skách <Na piskach>","coordinates":[15.36600018,50.2480011]},{"code":"OL/ST-761","program":"gma","name":"Homole","coordinates":[15.30000019,50.07099915]},{"code":"OL/ST-762","program":"gma","name":"Kozí­ hůra <Kozi hura>","coordinates":[15.29500008,50.12599945]},{"code":"CZ-0164","program":"pota","name":"Kněžičky National Nature Reserve","coordinates":[15.329,50.147]},{"code":"B/OK-5050","program":"wwbota","name":"Hradcany","coordinates":[15.2678,50.16119]}]}