{"lat":50,"lon":10.25,"programs":["gma","sota"],"count":5,"references":[{"code":"DA/BM-091","program":"gma","name":"Rosenberg","coordinates":[10.44309998,50.24969864]},{"code":"DA/BM-092","program":"gma","name":"Großer Breitenberg","coordinates":[10.43939972,50.23809814]},{"code":"DA/BM-093","program":"gma","name":"Laubhügel","coordinates":[10.41889954,50.22219849]},{"code":"DA/BM-247","program":"gma","name":"Bucher Hoehe","coordinates":[10.41197222,50.04833333]},{"code":"DM/BM-362","program":"sota","name":"Nassacher Höhe","coordinates":[10.4911,50.1869]}]}