{"lat":50,"lon":-124.25,"programs":["sota"],"count":8,"references":[{"code":"VE7/SC-013","program":"sota","name":"Mount Alfred","coordinates":[-124.0764,50.2061]},{"code":"VE7/SC-023","program":"sota","name":"VE7/SC-023","coordinates":[-124.0894,50.2292]},{"code":"VE7/SC-052","program":"sota","name":"Snowy Peak","coordinates":[-124.146,50.1119]},{"code":"VE7/SC-058","program":"sota","name":"Slane Peak","coordinates":[-124.0192,50.1289]},{"code":"VE7/SC-064","program":"sota","name":"Mount Alice","coordinates":[-124.0379,50.1694]},{"code":"VE7/SC-068","program":"sota","name":"Burh Peak","coordinates":[-124.0813,50.1686]},{"code":"VE7/SC-086","program":"sota","name":"Crossroads Peak","coordinates":[-124.1381,50.1369]},{"code":"VE7/SC-101","program":"sota","name":"Mount Cambridge","coordinates":[-124.0133,50.0378]}]}