{"lat":50.25,"lon":-125.5,"programs":["pota","sota","wwbota"],"count":16,"references":[{"code":"CA-3316","program":"pota","name":"Cetan/Thurston Bay Conservancy Protected Area","coordinates":[-125.311,50.3672]},{"code":"CA-4032","program":"pota","name":"Rock Bay Marine Park Protected Area","coordinates":[-125.445,50.3238]},{"code":"CA-4109","program":"pota","name":"Small Inlet Marine Provincial Park","coordinates":[-125.309,50.2523]},{"code":"CA-4201","program":"pota","name":"Thurston Bay Marine Provincial Park","coordinates":[-125.327,50.3592]},{"code":"VE7/CS-417","program":"sota","name":"Mount Tucker","coordinates":[-125.274,50.4171]},{"code":"VE7/CS-479","program":"sota","name":"Mount Turnbull","coordinates":[-125.2802,50.364]},{"code":"VE7/CS-485","program":"sota","name":"VE7/CS-485","coordinates":[-125.2523,50.3567]},{"code":"VE7/CS-489","program":"sota","name":"Discovery Mountain","coordinates":[-125.3726,50.3236]},{"code":"VE7/CS-520","program":"sota","name":"Ashlar Peak","coordinates":[-125.3001,50.2728]},{"code":"VE7/CS-531","program":"sota","name":"VE7/CS-531","coordinates":[-125.2627,50.3876]},{"code":"VE7/CS-536","program":"sota","name":"VE7/CS-536","coordinates":[-125.4897,50.3013]},{"code":"VE7/CS-553","program":"sota","name":"VE7/CS-553","coordinates":[-125.3118,50.2848]},{"code":"VE7/CS-567","program":"sota","name":"VE7/CS-567","coordinates":[-125.2546,50.2553]},{"code":"VE7/CS-570","program":"sota","name":"VE7/CS-570","coordinates":[-125.2893,50.2511]},{"code":"VE7/CS-579","program":"sota","name":"VE7/CS-579","coordinates":[-125.3542,50.2989]},{"code":"B/CA-0233","program":"wwbota","name":"FRP KF4","coordinates":[-125.4461111,50.33361113]}]}