{"lat":50.25,"lon":14.5,"programs":["gma","pota","sota","wwbota"],"count":21,"references":[{"code":"OK/ST-052","program":"gma","name":"Vrátenská hora <Vratenska hora>","coordinates":[14.65100002,50.47900009]},{"code":"OL/LI-260","program":"gma","name":"Drnclí­k <Drnclik>","coordinates":[14.6264213,50.4831281]},{"code":"OL/LI-307","program":"gma","name":"Zámecký vrch <Zamecky vrch>","coordinates":[14.6199548,50.4879995]},{"code":"OL/LI-394","program":"gma","name":"Kluka","coordinates":[14.6925252,50.4965596]},{"code":"OL/LI-395","program":"gma","name":"Mlýnský vrch <Mlynsky vrch>","coordinates":[14.6066264,50.4905453]},{"code":"OL/ST-449","program":"gma","name":"Supí­ hora <Supi hora>","coordinates":[14.52756977,50.49039459]},{"code":"OL/ST-497","program":"gma","name":"Bukový vrch (Dobřeňský vrch) <Bukovy vrch>","coordinates":[14.53999424,50.47677612]},{"code":"OL/ST-543","program":"gma","name":"Špičák <Spicak>","coordinates":[14.56704617,50.48997498]},{"code":"OL/ST-562","program":"gma","name":"Špičák <Spicak>","coordinates":[14.56767559,50.47040558]},{"code":"OL/ST-569","program":"gma","name":"Hřebenáč <Hrebenac>","coordinates":[14.51892757,50.47517776]},{"code":"OL/ST-632","program":"gma","name":"Cecemí­n <Cecemin>","coordinates":[14.6091603,50.2752117]},{"code":"OL/ST-756","program":"gma","name":"Libeňský vrch <Libensky vrch>","coordinates":[14.66300011,50.34899902]},{"code":"OL/ST-770","program":"gma","name":"Záboří­ <Zabori>","coordinates":[14.54300022,50.29800034]},{"code":"OL/ST-832","program":"gma","name":"Vršina <Vrsina>","coordinates":[14.5278506,50.4828492]},{"code":"CZ-0018","program":"pota","name":"Kokořínsko - Máchův kraj Protected Landscape Area","coordinates":[14.5595,50.4854]},{"code":"OK/ST-052","program":"sota","name":"Vrátenská hora","coordinates":[14.6512,50.4787]},{"code":"B/OK-2679","program":"wwbota","name":"P3/84/A-140 Medonosy","coordinates":[14.50009,50.48669]},{"code":"B/OK-2680","program":"wwbota","name":"P3/85/A-160 Medonosy","coordinates":[14.50002,50.48766]},{"code":"B/OK-2681","program":"wwbota","name":"P3/86/A-160 Medonosy","coordinates":[14.50059,50.48925]},{"code":"B/OK-2682","program":"wwbota","name":"P3/87/E Medonosy","coordinates":[14.50118,50.49014]},{"code":"B/OK-2683","program":"wwbota","name":"P3/88/A-160 Medonosy","coordinates":[14.50124,50.49094]}]}