{"lat":50.25,"lon":10.25,"programs":["gma","pota","sota"],"count":17,"references":[{"code":"DA/BM-089","program":"gma","name":"Hoehberg","coordinates":[10.42389965,50.26720047]},{"code":"DA/BM-090","program":"gma","name":"Ochsenhügel","coordinates":[10.43690014,50.25640106]},{"code":"DA/BM-400","program":"gma","name":"Hohe Schule","coordinates":[10.30280018,50.48529816]},{"code":"DA/TH-391","program":"gma","name":"Honigsberg","coordinates":[10.47669983,50.4803009]},{"code":"DA/TH-414","program":"gma","name":"Queienberg","coordinates":[10.47360039,50.45029831]},{"code":"DA/TH-433","program":"gma","name":"Ahlberg","coordinates":[10.45219994,50.48830032]},{"code":"DA/TH-442","program":"gma","name":"Schlotberg","coordinates":[10.48719978,50.46580124]},{"code":"DA/TH-667","program":"gma","name":"Heiliger Berg","coordinates":[10.36559963,50.49670029]},{"code":"DA/TH-671","program":"gma","name":"Burg Henneberg","coordinates":[10.36139965,50.49140167]},{"code":"DA/TH-686","program":"gma","name":"Ransberg","coordinates":[10.40139961,50.47579956]},{"code":"DA/TH-698","program":"gma","name":"Wolfsberg","coordinates":[10.35439968,50.48419952]},{"code":"DA/TH-699","program":"gma","name":"Hausberg","coordinates":[10.39220047,50.47610092]},{"code":"DA/TH-762","program":"gma","name":"Arnsberg","coordinates":[10.42500019,50.4681015]},{"code":"DA/TH-840","program":"gma","name":"Rothberg","coordinates":[10.44110012,50.41159821]},{"code":"DA/TH-889","program":"gma","name":"Großkopf","coordinates":[10.49720001,50.44779968]},{"code":"DE-0623","program":"pota","name":"Fernwanderweg E3 State Trail","coordinates":[10.3037,50.404]},{"code":"DM/TH-414","program":"sota","name":"Dietrichsberg","coordinates":[10.4639,50.4853]}]}