{"lat":50.25,"lon":12,"programs":["gma","pota"],"count":15,"references":[{"code":"DA/SX-091","program":"gma","name":"Wartberg","coordinates":[12.00220013,50.46139908]},{"code":"DA/SX-173","program":"gma","name":"Bärenloher Höhe","coordinates":[12.20359993,50.2881012]},{"code":"DA/SX-175","program":"gma","name":"Culmberg","coordinates":[12.16829967,50.44689941]},{"code":"DA/SX-324","program":"gma","name":"Kemmler","coordinates":[12.1570338,50.4733943]},{"code":"DA/SX-567","program":"gma","name":"Hoher Stein bei Bad Elster","coordinates":[12.2025461,50.3000731]},{"code":"DA/SX-576","program":"gma","name":"Assenberg","coordinates":[12.028194,50.356978]},{"code":"DA/SX-577","program":"gma","name":"Wachthübel","coordinates":[12.005197,50.38158]},{"code":"DA/SX-597","program":"gma","name":"Platzerberg","coordinates":[12.106242,50.346727]},{"code":"OL/KA-088","program":"gma","name":"U Lomu","coordinates":[12.17010975,50.25508118]},{"code":"OL/KA-126","program":"gma","name":"Smolnice","coordinates":[12.13605309,50.28950882]},{"code":"OL/KA-274","program":"gma","name":"Studánecký vrch <Studanecky vrch>","coordinates":[12.1961426,50.2685928]},{"code":"OL/KA-282","program":"gma","name":"Smrkovec","coordinates":[12.1269226,50.2583372]},{"code":"OL/KA-321","program":"gma","name":"Kopaninský vrch <Kopaninsky vrch>","coordinates":[12.2178741,50.2675322]},{"code":"DE-0838","program":"pota","name":"Das Grüne Band National Historic Trail","coordinates":[12.1003,50.3205]},{"code":"DE-0855","program":"pota","name":"Vogtländische Pöhle und Täler Natura 2000","coordinates":[12.0571,50.4516]}]}