{"lat":50.25,"lon":6.25,"programs":["gma","pota","sota"],"count":29,"references":[{"code":"DA/NW-153","program":"gma","name":"Höhenberg","coordinates":[6.45669985,50.37060165]},{"code":"DA/NW-325","program":"gma","name":"Weißer Stein","coordinates":[6.37109995,50.40779877]},{"code":"DA/RP-005","program":"gma","name":"Goldberg","coordinates":[6.45940018,50.33470154]},{"code":"DA/RP-010","program":"gma","name":"Auf dem Gericht","coordinates":[6.40749979,50.34000015]},{"code":"DA/RP-016","program":"gma","name":"Weidenhöchst ","coordinates":[6.42080021,50.33720016]},{"code":"DA/RP-018","program":"gma","name":"Hohlscheid","coordinates":[6.4842,50.26309967]},{"code":"DA/RP-021","program":"gma","name":"Schlehnenheck","coordinates":[6.44999981,50.30139923]},{"code":"DA/RP-023","program":"gma","name":"Glasfeld","coordinates":[6.49170017,50.30250168]},{"code":"DA/RP-026","program":"gma","name":"Wilpert","coordinates":[6.40030003,50.31140137]},{"code":"DA/RP-027","program":"gma","name":"Huscheid","coordinates":[6.37440014,50.29079819]},{"code":"DA/RP-034","program":"gma","name":"Bodert","coordinates":[6.49560022,50.27529907]},{"code":"DA/RP-036","program":"gma","name":"Steinberg","coordinates":[6.3906002,50.31330109]},{"code":"DA/RP-043","program":"gma","name":"Auf dem Hardt","coordinates":[6.43970013,50.33330154]},{"code":"DA/RP-044","program":"gma","name":"Kalberberg","coordinates":[6.46829987,50.2696991]},{"code":"DA/RP-051","program":"gma","name":"Otzert","coordinates":[6.36439991,50.29669952]},{"code":"DA/RP-057","program":"gma","name":"Kantenkopf","coordinates":[6.36889982,50.30360031]},{"code":"DA/RP-058","program":"gma","name":"Radsberg","coordinates":[6.3439002,50.29249954]},{"code":"DA/RP-062","program":"gma","name":"Deichelsberg","coordinates":[6.41690016,50.3689003]},{"code":"DA/RP-065","program":"gma","name":"Kopnig","coordinates":[6.45970011,50.26499939]},{"code":"DA/RP-069","program":"gma","name":"Schnapert","coordinates":[6.36189985,50.30920029]},{"code":"DA/RP-087","program":"gma","name":"Bremelichenberg","coordinates":[6.44420004,50.36220169]},{"code":"DA/RP-098","program":"gma","name":"Verschneiderberg","coordinates":[6.34000015,50.31000137]},{"code":"ON/ON-009","program":"gma","name":"Iverst","coordinates":[6.36810017,50.40779877]},{"code":"BE-0394","program":"pota","name":"Holzwarche Nature Reserve","coordinates":[6.2519,50.4295]},{"code":"BE-0397","program":"pota","name":"Kolverbach Park","coordinates":[6.26866,50.3266]},{"code":"BE-0406","program":"pota","name":"Das Schwalmtal Nature Park","coordinates":[6.29377,50.4793]},{"code":"BE-0408","program":"pota","name":"Vallée de l'Olefbach Nature Park","coordinates":[6.34927,50.4482]},{"code":"DM/RP-003","program":"sota","name":"Schwarzer Mann","coordinates":[6.3594,50.2569]},{"code":"ON/ON-009","program":"sota","name":"Iverst","coordinates":[6.3697,50.4083]}]}