{"lat":50.25,"lon":-122.25,"programs":["pota","sota"],"count":14,"references":[{"code":"CA-4145","program":"pota","name":"Stein Valley Nlaka'pamux Heritage Park Protected Area","coordinates":[-122.056,50.2588]},{"code":"VE7/TN-148","program":"sota","name":"Blue Jay Peak","coordinates":[-122.0615,50.4258]},{"code":"VE7/TN-166","program":"sota","name":"VE7/TN-166","coordinates":[-122.016,50.4147]},{"code":"VE7/TN-178","program":"sota","name":"Walrus Peak","coordinates":[-122.1389,50.3942]},{"code":"VE7/TN-206","program":"sota","name":"Cog Peak","coordinates":[-122.1916,50.31]},{"code":"VE7/TN-239","program":"sota","name":"Michelle Peak","coordinates":[-122.0854,50.4312]},{"code":"VE7/TN-263","program":"sota","name":"CB55","coordinates":[-122.1509,50.2592]},{"code":"VE7/TN-272","program":"sota","name":"CB75","coordinates":[-122.1534,50.2708]},{"code":"VE7/TN-275","program":"sota","name":"VE7/TN-275","coordinates":[-122.0123,50.4048]},{"code":"VE7/TN-284","program":"sota","name":"Cottonwood Peak","coordinates":[-122.0928,50.3699]},{"code":"VE7/TN-290","program":"sota","name":"Elf Peak","coordinates":[-122.2311,50.2737]},{"code":"VE7/TN-307","program":"sota","name":"Sad Peak","coordinates":[-122.1124,50.2984]},{"code":"VE7/TN-379","program":"sota","name":"VE7/TN-379","coordinates":[-122.1021,50.2575]},{"code":"VE7/TN-386","program":"sota","name":"Silver Queen Mountain","coordinates":[-122.0475,50.3355]}]}