{"lat":50.25,"lon":15.5,"programs":["gma","sota"],"count":13,"references":[{"code":"OL/KR-140","program":"gma","name":"Krkonošská vyhlídka <Krkonosska vyhlidka>","coordinates":[15.6054117,50.4661053]},{"code":"OL/KR-145","program":"gma","name":"Jeruzalém<Jeruzalem>","coordinates":[15.5921189,50.4974672]},{"code":"OL/KR-146","program":"gma","name":"Kazabrud <Kazabrud>","coordinates":[15.6186103,50.4971297]},{"code":"OL/KR-162","program":"gma","name":"Valy <Valy>","coordinates":[15.6269393,50.4478282]},{"code":"OL/KR-172","program":"gma","name":"Chlum <Chlum>","coordinates":[15.5744297,50.3940258]},{"code":"OL/KR-175","program":"gma","name":"Na Kamenici <Na Kamenici>","coordinates":[15.5730145,50.4786389]},{"code":"OL/KR-180","program":"gma","name":"Svíb <Svib>","coordinates":[15.7375875,50.2976408]},{"code":"OL/KR-183","program":"gma","name":"Čihadlo <Cihadlo>","coordinates":[15.6026006,50.4540111]},{"code":"OL/KR-224","program":"gma","name":"Maxinec <Maxinec>","coordinates":[15.5235247,50.3998931]},{"code":"OL/KR-227","program":"gma","name":"Vřešťovský chlum <Vrestovsky chlum>","coordinates":[15.6845242,50.3720553]},{"code":"OL/KR-234","program":"gma","name":"Bukvice <Bukvice>","coordinates":[15.6720683,50.3087622]},{"code":"OL/KR-236","program":"gma","name":"Pí­skovka (Pískovna) <Piskovka (Piskovna)>","coordinates":[15.5949339,50.3082525]},{"code":"OK/KR-026","program":"sota","name":"Zvičina","coordinates":[15.6958,50.4547]}]}