{"lat":50.25,"lon":8.5,"programs":["gma","pota","sota","wwbota"],"count":15,"references":[{"code":"DA/HE-025","program":"gma","name":"Herzberg","coordinates":[8.54419,50.25553]},{"code":"DA/HE-064","program":"gma","name":"Hausberg","coordinates":[8.61610031,50.41249847]},{"code":"DA/HE-066","program":"gma","name":"Winterstein","coordinates":[8.66745,50.33354]},{"code":"DA/HE-094","program":"gma","name":"Koehlerberg","coordinates":[8.52280045,50.46829987]},{"code":"DA/HE-493","program":"gma","name":"Hesselberg","coordinates":[8.56830025,50.39920044]},{"code":"DA/HE-547","program":"gma","name":"Gaulskopf","coordinates":[8.64308,50.3392]},{"code":"DA/HE-555","program":"gma","name":"Graueberg","coordinates":[8.60392,50.28888]},{"code":"DA/HE-582","program":"gma","name":"Roßkopf","coordinates":[8.5274772,50.2583431]},{"code":"DE-0522","program":"pota","name":"Historischer Kurpark Bad Nauheim Recreation Park","coordinates":[8.73963,50.3677]},{"code":"DE-0531","program":"pota","name":"Schlosspark Butzbach Nature Recreation Area","coordinates":[8.67617,50.4333]},{"code":"DM/HE-097","program":"sota","name":"Steinkopf","coordinates":[8.6617,50.3278]},{"code":"B/DL-0323","program":"wwbota","name":"Warnamt VI (Zivilschutz),","coordinates":[8.546256,50.39578]},{"code":"B/DL-0347","program":"wwbota","name":"Bunkerhaus VII FHQ Adlerhorst","coordinates":[8.624642,50.370526]},{"code":"B/DL-0348","program":"wwbota","name":"Luftschutzbunker FHQ Adlerhorst","coordinates":[8.625796,50.367183]},{"code":"B/DL-0349","program":"wwbota","name":"Sendebunker Adlerhorst","coordinates":[8.638735,50.355874]}]}