{"lat":50.25,"lon":9,"programs":["gma","wwbota"],"count":8,"references":[{"code":"DA/HE-029","program":"gma","name":"Bilstein","coordinates":[9.2029,50.496]},{"code":"DA/HE-113","program":"gma","name":"Eichelkopf","coordinates":[9.18999958,50.25439835]},{"code":"DA/HE-116","program":"gma","name":"Steinroede","coordinates":[9.15190029,50.31529999]},{"code":"DA/HE-226","program":"gma","name":"Rehberg","coordinates":[9.24890041,50.49420166]},{"code":"DA/HE-228","program":"gma","name":"Mühlberg","coordinates":[9.23639965,50.48559952]},{"code":"DA/HE-484","program":"gma","name":"Glauberg","coordinates":[9.014999,50.311386]},{"code":"DA/HE-551","program":"gma","name":"Burgruine Hardeck","coordinates":[9.07074,50.27394]},{"code":"B/DL-0135","program":"wwbota","name":"Bunker 13","coordinates":[9.128211,50.295075]}]}