{"lat":50.25,"lon":-127.5,"programs":["sota","wwbota"],"count":20,"references":[{"code":"VE7/CS-212","program":"sota","name":"Snowsaddle NW5","coordinates":[-127.2539,50.278]},{"code":"VE7/CS-285","program":"sota","name":"Power Peak","coordinates":[-127.4899,50.2714]},{"code":"VE7/NI-090","program":"sota","name":"Merry Widow Mountain","coordinates":[-127.2849,50.3396]},{"code":"VE7/NI-108","program":"sota","name":"Yootook Peak","coordinates":[-127.3226,50.3589]},{"code":"VE7/NI-119","program":"sota","name":"Kathleen Peak","coordinates":[-127.2979,50.3723]},{"code":"VE7/NI-133","program":"sota","name":"Wady Peak","coordinates":[-127.2694,50.4377]},{"code":"VE7/NI-134","program":"sota","name":"Andante Peak","coordinates":[-127.2983,50.2615]},{"code":"VE7/NI-151","program":"sota","name":"Kashutl Peak","coordinates":[-127.3815,50.2607]},{"code":"VE7/NI-154","program":"sota","name":"VE7/NI-154","coordinates":[-127.2762,50.49]},{"code":"VE7/NI-157","program":"sota","name":"VE7/NI-157","coordinates":[-127.4194,50.2573]},{"code":"VE7/NI-159","program":"sota","name":"VE7/NI-159","coordinates":[-127.3695,50.2707]},{"code":"VE7/NI-170","program":"sota","name":"CE86","coordinates":[-127.4612,50.286]},{"code":"VE7/NI-182","program":"sota","name":"Gentile Peak","coordinates":[-127.4907,50.475]},{"code":"VE7/NI-187","program":"sota","name":"Alto Peak","coordinates":[-127.4435,50.4058]},{"code":"VE7/NI-195","program":"sota","name":"Cadenza Peak","coordinates":[-127.4045,50.343]},{"code":"VE7/NI-196","program":"sota","name":"CE99","coordinates":[-127.4988,50.299]},{"code":"VE7/NI-263","program":"sota","name":"VE7/NI-263","coordinates":[-127.3951,50.423]},{"code":"VE7/NI-281","program":"sota","name":"VE7/NI-281","coordinates":[-127.3923,50.4881]},{"code":"VE7/NI-290","program":"sota","name":"VE7/NI-290","coordinates":[-127.4365,50.4965]},{"code":"B/CA-0230","program":"wwbota","name":"FRP HF4","coordinates":[-127.4877075,50.42542893]}]}