{"lat":50.25,"lon":6.5,"programs":["gma","pota"],"count":33,"references":[{"code":"DA/NW-147","program":"gma","name":"Alteburg","coordinates":[6.74669981,50.44499969]},{"code":"DA/NW-148","program":"gma","name":"Heidbusch","coordinates":[6.66610003,50.41529846]},{"code":"DA/NW-149","program":"gma","name":"Stromberg","coordinates":[6.63689995,50.39419937]},{"code":"DA/NW-237","program":"gma","name":"Vogelsang","coordinates":[6.61132002,50.49243164]},{"code":"DA/NW-349","program":"gma","name":"Hühnerberg","coordinates":[6.74196,50.42047]},{"code":"DA/RP-003","program":"gma","name":"Seimersberg","coordinates":[6.50640011,50.25279999]},{"code":"DA/RP-006","program":"gma","name":"Langer Stein","coordinates":[6.52029991,50.27610016]},{"code":"DA/RP-025","program":"gma","name":"Weitersberg","coordinates":[6.55079985,50.30670166]},{"code":"DA/RP-030","program":"gma","name":"Hilz","coordinates":[6.52670002,50.31560135]},{"code":"DA/RP-033","program":"gma","name":"Steinbüchel","coordinates":[6.56029987,50.32830048]},{"code":"DA/RP-041","program":"gma","name":"Hahnenberg","coordinates":[6.58939981,50.37310028]},{"code":"DA/RP-059","program":"gma","name":"Hönselberg","coordinates":[6.74720001,50.30139923]},{"code":"DA/RP-074","program":"gma","name":"Sängscheid","coordinates":[6.55499983,50.3443985]},{"code":"DA/RP-082","program":"gma","name":"Asberg","coordinates":[6.52073479,50.36294937]},{"code":"DA/RP-083","program":"gma","name":"Weinberg","coordinates":[6.71140003,50.31359863]},{"code":"DA/RP-090","program":"gma","name":"Witzenberg","coordinates":[6.57140017,50.3628006]},{"code":"DA/RP-092","program":"gma","name":"Baumberg","coordinates":[6.64779997,50.34560013]},{"code":"DA/RP-102","program":"gma","name":"Kyller Höhe","coordinates":[6.68389988,50.27939987]},{"code":"DA/RP-106","program":"gma","name":"Wolfsbeuel","coordinates":[6.6388998,50.25830078]},{"code":"DA/RP-107","program":"gma","name":"Goßberg","coordinates":[6.7031002,50.27249908]},{"code":"DA/RP-112","program":"gma","name":"Buberg","coordinates":[6.69829988,50.30059814]},{"code":"DA/RP-115","program":"gma","name":"Kockelsberg","coordinates":[6.53830004,50.35779953]},{"code":"DA/RP-117","program":"gma","name":"Katzenberg","coordinates":[6.60640001,50.29579926]},{"code":"DA/RP-118","program":"gma","name":"Auf Erbenschell","coordinates":[6.72079992,50.26689911]},{"code":"DA/RP-120","program":"gma","name":"Heiserberg","coordinates":[6.68060017,50.30189896]},{"code":"DA/RP-121","program":"gma","name":"Acht","coordinates":[6.59110022,50.27500153]},{"code":"DA/RP-124","program":"gma","name":"Möschelberg","coordinates":[6.60500002,50.32030106]},{"code":"DA/RP-128","program":"gma","name":"Ebenserberg","coordinates":[6.67329979,50.3064003]},{"code":"DA/RP-132","program":"gma","name":"Kauligenberg","coordinates":[6.67140007,50.36169815]},{"code":"DA/RP-358","program":"gma","name":"Auf Heilert","coordinates":[6.53152514,50.26155853]},{"code":"DA/RP-487","program":"gma","name":"Rockeskyller Kopf","coordinates":[6.67999983,50.25249863]},{"code":"DE-0039","program":"pota","name":"Hohes Venn-Eifel Nature Park","coordinates":[6.50685,50.4255]},{"code":"DE-0430","program":"pota","name":"Freilinger See National Recreation Area","coordinates":[6.71827,50.4185]}]}