{"lat":50.25,"lon":-121.5,"programs":["pota","sota","wwbota"],"count":12,"references":[{"code":"CA-3558","program":"pota","name":"Goldpan Provincial Park","coordinates":[-121.39,50.3486]},{"code":"CA-4117","program":"pota","name":"Soap Lake Ecological Reserve","coordinates":[-121.318,50.3805]},{"code":"VE7/TN-536","program":"sota","name":"Scarped Peak","coordinates":[-121.4773,50.3607]},{"code":"VE7/TN-539","program":"sota","name":"DE08","coordinates":[-121.4873,50.3031]},{"code":"VE7/TN-578","program":"sota","name":"Twaal Peak","coordinates":[-121.3918,50.4937]},{"code":"VE7/TN-589","program":"sota","name":"Arthur Seat Mountain (\"\"Art's Ass\"\")","coordinates":[-121.4274,50.4077]},{"code":"VE7/TN-627","program":"sota","name":"VE7/TN-627","coordinates":[-121.3034,50.2635]},{"code":"VE7/TN-655","program":"sota","name":"VE7/TN-655","coordinates":[-121.2941,50.3386]},{"code":"VE7/TN-696","program":"sota","name":"VE7/TN-696","coordinates":[-121.324,50.3018]},{"code":"VE7/TN-702","program":"sota","name":"VE7/TN-702","coordinates":[-121.3389,50.391]},{"code":"VE7/TN-778","program":"sota","name":"VE7/TN-778","coordinates":[-121.3298,50.4509]},{"code":"B/CA-0245","program":"wwbota","name":"FRP PF4","coordinates":[-121.359529,50.41405303]}]}