{"lat":50.25,"lon":2,"programs":["pota"],"count":15,"references":[{"code":"FR-1436","program":"pota","name":"Marais de la Grenouillere Regional Reserve","coordinates":[2.11137,50.4009]},{"code":"FR-2675","program":"pota","name":"PELOUSES, BOIS, FORETS NEUTROCALCICOLES FR3100489 Natura 2000","coordinates":[2.05917,50.2558]},{"code":"FR-2681","program":"pota","name":"MARAIS DE LA GRENOUILLERE FR3102001 Natura 2000","coordinates":[2.11389,50.4008]},{"code":"FR-9369","program":"pota","name":"Bois de Sains Biological Reserve","coordinates":[2.0669,50.4802]},{"code":"FR-9380","program":"pota","name":"Coteau de Teneur Biological Reserve","coordinates":[2.2114,50.4644]},{"code":"FR-9385","program":"pota","name":"Coteau et bois de Teneur, Crepy et Tilly-Capelle Biological Reserve","coordinates":[2.2041,50.4592]},{"code":"FR-9389","program":"pota","name":"Bois de Fressin Biological Reserve","coordinates":[2.01939,50.4476]},{"code":"FR-9391","program":"pota","name":"Reservoir biologique de la Ternoise Biological Reserve","coordinates":[2.20702,50.4442]},{"code":"FR-9399","program":"pota","name":"La Vallee de la Ternoise et ses versants de St-Pol a Hesdin et le vallon de Bergueneuse Biological Reserve","coordinates":[2.22529,50.4322]},{"code":"FR-9404","program":"pota","name":"Reservoir biologique de La Planquette Biological Reserve","coordinates":[2.0035,50.4202]},{"code":"FR-9412","program":"pota","name":"Marais de la Grenouillere a Auchy-les-Hesdin Biological Reserve","coordinates":[2.1155,50.4018]},{"code":"FR-9414","program":"pota","name":"Foret domaniale d'Hesdin et ses lisieres Biological Reserve","coordinates":[2.0261,50.3969]},{"code":"FR-9419","program":"pota","name":"Marais communal d'Huby-Saint-Leu Biological Reserve","coordinates":[2.0496,50.3813]},{"code":"FR-9435","program":"pota","name":"La haute Vallee de la Canche et ses versants en amont de Sainte Austreberthe Biological Reserve","coordinates":[2.2302,50.3044]},{"code":"FR-9442","program":"pota","name":"La moyenne vallee de l'Authie et ses versants entre Beauvoir-Wavans et Raye-sur-Authie Biological Reserve","coordinates":[2.10175,50.2517]}]}