{"lat":50.25,"lon":16.75,"programs":["gma","pota","sota"],"count":19,"references":[{"code":"OK/OL-022","program":"gma","name":"Koníček <Konicek>","coordinates":[16.94099998,50.34199905]},{"code":"OL/OL-071","program":"gma","name":"Borůvková hora <Boruvkova hora>","coordinates":[16.90200043,50.39199829]},{"code":"OL/OL-090","program":"gma","name":"Javorní­k <Javornik>","coordinates":[16.86400032,50.40999985]},{"code":"SO/DS-131","program":"gma","name":"Czernica","coordinates":[16.9652724,50.2721924]},{"code":"SO/DS-140","program":"gma","name":"SuchoÅ„","coordinates":[16.7758012,50.2730358]},{"code":"SO/DS-145","program":"gma","name":"Ptasznik","coordinates":[16.7964649,50.4069312]},{"code":"SO/DS-164","program":"gma","name":"Sokolec MaÅ‚y","coordinates":[16.7902233,50.4277819]},{"code":"SO/DS-167","program":"gma","name":"Åysiec","coordinates":[16.9263022,50.2872017]},{"code":"SO/SW-001","program":"gma","name":"Kobyla Kopa (Kaniczek)","coordinates":[16.93889999,50.34170151]},{"code":"CZ-0191","program":"pota","name":"Rychlebské hory - Račí údolí (EVL) Natura 2000","coordinates":[16.973,50.362]},{"code":"PL-1966","program":"pota","name":"Czarne Urwisko koło Lutyni Natura 2000","coordinates":[16.895,50.3589]},{"code":"PL-2458","program":"pota","name":"Biała Lądecka Natura 2000","coordinates":[16.8248,50.3461]},{"code":"PL-2683","program":"pota","name":"Góry Złote Natura 2000","coordinates":[16.8419,50.3986]},{"code":"PL-2750","program":"pota","name":"Kopalnie w Złotym Stoku Natura 2000","coordinates":[16.8736,50.435]},{"code":"OK/OL-022","program":"sota","name":"Koníček","coordinates":[16.9377,50.3415]},{"code":"SP/SS-013","program":"sota","name":"Szeroka Góra (Kłodzka Góra)","coordinates":[16.7586,50.4537]},{"code":"SP/SW-002","program":"sota","name":"Czarna Góra","coordinates":[16.805,50.252]},{"code":"SP/SW-003","program":"sota","name":"Borówkowa","coordinates":[16.903,50.3906]},{"code":"SP/SW-005","program":"sota","name":"Jawornik Wielki","coordinates":[16.8511,50.4068]}]}