{"lat":50.25,"lon":15,"programs":["gma","pota"],"count":9,"references":[{"code":"OL/KR-228","program":"gma","name":"Čakan <Cakan>","coordinates":[15.2172567,50.4380942]},{"code":"OL/KR-229","program":"gma","name":"Hůra <Hura>","coordinates":[15.1829289,50.4901922]},{"code":"OL/ST-595","program":"gma","name":"Křemenice <Kremenice>","coordinates":[15.08463573,50.393116]},{"code":"OL/ST-607","program":"gma","name":"Velká Sněhurka <Velka Snehurka>","coordinates":[15.0922078,50.4962457]},{"code":"OL/ST-612","program":"gma","name":"Ostrá hůrka <Ostra hurka>","coordinates":[15.11905575,50.34027481]},{"code":"OL/ST-750","program":"gma","name":"Mí­lova hůra <Milova hura>","coordinates":[15.11999989,50.40499878]},{"code":"OL/ST-765","program":"gma","name":"Chotuc","coordinates":[15.11999989,50.26900101]},{"code":"CZ-0188","program":"pota","name":"Dymokursko (EVL) Natura 2000","coordinates":[15.211,50.288]},{"code":"CZ-0189","program":"pota","name":"Rožďalovické rybníky (Ptačí oblast) Natura 2000","coordinates":[15.217,50.294]}]}