{"lat":50.25,"lon":12.75,"programs":["gma","pota","sota"],"count":107,"references":[{"code":"DA/SX-083","program":"gma","name":"Rabenberg Breitenbrunn","coordinates":[12.75469971,50.45220184]},{"code":"DA/SX-085","program":"gma","name":"Eisenberg bei Oberwiesenthal","coordinates":[12.97140026,50.44169998]},{"code":"DA/SX-193","program":"gma","name":"Strobelberg","coordinates":[12.82750034,50.46080017]},{"code":"DA/SX-195","program":"gma","name":"Großer Hemmberg","coordinates":[12.89500046,50.49060059]},{"code":"DA/SX-282","program":"gma","name":"Fichtelberg","coordinates":[12.95359993,50.42890167]},{"code":"DA/SX-336","program":"gma","name":"Kleiner Fichtelberg","coordinates":[12.94932,50.42259]},{"code":"DA/SX-340","program":"gma","name":"Pollmerfelsen","coordinates":[12.9648247,50.4998839]},{"code":"DA/SX-420","program":"gma","name":"Kalkberg","coordinates":[12.9352072,50.488375]},{"code":"DA/SX-421","program":"gma","name":"Morgenberg","coordinates":[12.950475,50.4788583]},{"code":"DA/SX-422","program":"gma","name":"Habichtsberg","coordinates":[12.9811594,50.4948867]},{"code":"DA/SX-423","program":"gma","name":"Kuhbrückenberg","coordinates":[12.9475567,50.4654064]},{"code":"DA/SX-427","program":"gma","name":"Ochsenkopf  bei Rittersgrün","coordinates":[12.8145139,50.481055]},{"code":"DA/SX-428","program":"gma","name":"Hirschsprung","coordinates":[12.79344978,50.4646825]},{"code":"DA/SX-450","program":"gma","name":"Sonnenberg","coordinates":[12.8003731,50.4856053]},{"code":"DA/SX-502","program":"gma","name":"Gifthüttenberg","coordinates":[12.950864,50.4448]},{"code":"DA/SX-503","program":"gma","name":"Kreuzbrückenfelsen","coordinates":[12.983756,50.442023]},{"code":"DA/SX-504","program":"gma","name":"Taufichtig","coordinates":[12.903759,50.456293]},{"code":"DA/SX-507","program":"gma","name":"Feuerturm","coordinates":[12.999587,50.481946]},{"code":"DA/SX-511","program":"gma","name":"Riedelfels","coordinates":[12.77691,50.480207]},{"code":"DA/SX-518","program":"gma","name":"Zigeuner","coordinates":[12.802036,50.493605]},{"code":"DA/SX-575","program":"gma","name":"Amtsfelsen","coordinates":[12.954811,50.440329]},{"code":"DA/SX-638","program":"gma","name":"Zechenhöhe","coordinates":[12.758374,50.485367]},{"code":"DA/SX-693","program":"gma","name":"Dreiberg","coordinates":[12.8804156,50.45577]},{"code":"DA/SX-694","program":"gma","name":"Kaffenberg","coordinates":[12.8591244,50.4452222]},{"code":"OL/KA-001","program":"gma","name":"Černá skála <Cerna skala>","coordinates":[12.97476,50.38047]},{"code":"OL/KA-002","program":"gma","name":"Nad Ryžovnou <Nad Ryzovnou>","coordinates":[12.8430429,50.4030062]},{"code":"OL/KA-003","program":"gma","name":"Na Skalách <Na Skalach>","coordinates":[12.9933722,50.3863413]},{"code":"OL/KA-004","program":"gma","name":"Hubertky","coordinates":[12.90502,50.42227]},{"code":"OL/KA-006","program":"gma","name":"Tetřeví­ hora <Tetrevi hora>","coordinates":[12.8507366,50.4220733]},{"code":"OL/KA-007","program":"gma","name":"Dub","coordinates":[12.9272397,50.3879156]},{"code":"OL/KA-008","program":"gma","name":"Perninský vrch <Perninsky vrch>","coordinates":[12.76252,50.36292]},{"code":"OL/KA-009","program":"gma","name":"Smrčina <Smrcina>","coordinates":[12.7909768,50.3895802]},{"code":"OL/KA-010","program":"gma","name":"Hřeben <Hreben>","coordinates":[12.89604759,50.37555313]},{"code":"OL/KA-011","program":"gma","name":"Komáří­ vrch <Komari vrch>","coordinates":[12.82220745,50.43262482]},{"code":"OL/KA-012","program":"gma","name":"Dračí skála <Draci skala>","coordinates":[12.78564548,50.34939957]},{"code":"OL/KA-013","program":"gma","name":"Trousnice","coordinates":[12.80371284,50.32829666]},{"code":"OL/KA-015","program":"gma","name":"Trousnická skála <Trousnicka skala>","coordinates":[12.79066563,50.33330154]},{"code":"OL/KA-016","program":"gma","name":"Čupřina <Cuprina>","coordinates":[12.78628635,50.41777039]},{"code":"OL/KA-020","program":"gma","name":"Nad Starou šachtou <Nad Starou sachtou>","coordinates":[12.86636543,50.43707657]},{"code":"OL/KA-021","program":"gma","name":"Hraniční­ vrch <Hranicni vrch>","coordinates":[12.8475399,50.44816208]},{"code":"OL/KA-022","program":"gma","name":"Jelení­ hora <Jeleni hora>","coordinates":[12.76224136,50.39507675]},{"code":"OL/KA-029","program":"gma","name":"Na Strašidlech <Na Strasidlech>","coordinates":[12.75089645,50.40169144]},{"code":"OL/KA-030","program":"gma","name":"Hlaváč <Hlavac>","coordinates":[12.95895767,50.36480331]},{"code":"OL/KA-032","program":"gma","name":"Vlčí hřbet <Vlci hrbet>","coordinates":[12.89250565,50.35138321]},{"code":"OL/KA-034","program":"gma","name":"Popovská hora <Popovska hora>","coordinates":[12.90976334,50.35021973]},{"code":"OL/KA-039","program":"gma","name":"Komora","coordinates":[12.78863144,50.32383728]},{"code":"OL/KA-040","program":"gma","name":"Rudná <Rudna>","coordinates":[12.75180244,50.43488312]},{"code":"OL/KA-041","program":"gma","name":"Vysoká jedle <Vysoka jedle>","coordinates":[12.75657845,50.33617783]},{"code":"OL/KA-043","program":"gma","name":"Stráž <Straz>","coordinates":[12.92724514,50.37229919]},{"code":"OL/KA-054","program":"gma","name":"Světlina <Svetlina>","coordinates":[12.76979542,50.32765198]},{"code":"OL/KA-068","program":"gma","name":"Hanušovský kopec <Hanusovsky kopec>","coordinates":[12.97633362,50.35035706]},{"code":"OL/KA-069","program":"gma","name":"Popovský kříž <Popovsky kriz>","coordinates":[12.92377377,50.33842087]},{"code":"OL/KA-072","program":"gma","name":"Kozí díl <Kozi dil>","coordinates":[12.75676918,50.32257843]},{"code":"OL/KA-075","program":"gma","name":"Nad Matysem <Nad Matysem>","coordinates":[12.79719257,50.31370926]},{"code":"OL/KA-090","program":"gma","name":"Rozhled","coordinates":[12.86760521,50.32229233]},{"code":"OL/KA-105","program":"gma","name":"Březový vrch <Brezovy vrch>","coordinates":[12.80965233,50.30423355]},{"code":"OL/KA-138","program":"gma","name":"Kameniště <Kameniste>","coordinates":[12.99242783,50.34473419]},{"code":"OL/KA-144","program":"gma","name":"Táhlý vrch <Tahly vrch>","coordinates":[12.99864101,50.32800293]},{"code":"OL/KA-149","program":"gma","name":"Lysý vrch <Lysy vrch>","coordinates":[12.94582367,50.25987244]},{"code":"OL/KA-151","program":"gma","name":"Zřícenina <Zricenina>","coordinates":[12.96154022,50.29138184]},{"code":"OL/KA-152","program":"gma","name":"Nad Rybníkem <Nad Rybnikem>","coordinates":[12.97721195,50.2846756]},{"code":"OL/KA-156","program":"gma","name":"Velflík <Velflik>","coordinates":[12.8136657,50.3367604]},{"code":"OL/KA-157","program":"gma","name":"Tokaniště <Tokaniste>","coordinates":[12.8291558,50.4161769]},{"code":"OL/KA-158","program":"gma","name":"Liščí­ hora <Lisci hora>","coordinates":[12.75575,50.37397]},{"code":"OL/KA-160","program":"gma","name":"Lesí­k <Lesik>","coordinates":[12.80243,50.38784]},{"code":"OL/KA-164","program":"gma","name":"Jelení­ <Jeleni>","coordinates":[12.85445,50.3625]},{"code":"OL/KA-167","program":"gma","name":"Sněžná hůrka <Snezna hurka>","coordinates":[12.7935649,50.4089859]},{"code":"OL/KA-170","program":"gma","name":"Hadí­ hora <Hadi hora>","coordinates":[12.9349996,50.3854632]},{"code":"OL/KA-177","program":"gma","name":"Šance <Sance>","coordinates":[12.9162268,50.3785443]},{"code":"OL/KA-178","program":"gma","name":"Barbora","coordinates":[12.8742942,50.3860172]},{"code":"OL/KA-197","program":"gma","name":"Prostřední vrch <Prostredni vrch>","coordinates":[12.7586676,50.3443478]},{"code":"OL/KA-202","program":"gma","name":"Oldřichovský vrch <Oldrichovsky vrch>","coordinates":[12.7706051,50.3343593]},{"code":"OL/KA-209","program":"gma","name":"Nad Krásným lesem <Nad Krasnym lesem>","coordinates":[12.991089,50.3578073]},{"code":"OL/KA-228","program":"gma","name":"Smolný vrch <Smolny vrch>","coordinates":[12.77369,50.31882]},{"code":"OL/KA-232","program":"gma","name":"Oldřišský vrch <Oldrissky vrch>","coordinates":[12.88273,50.34225]},{"code":"OL/KA-251","program":"gma","name":"Nad Lí­pou <Nad Lipou>","coordinates":[12.8707,50.34793]},{"code":"OL/KA-264","program":"gma","name":"Království­ <Kralovstvi>","coordinates":[12.8138594,50.3104993]},{"code":"OL/KA-291","program":"gma","name":"Maroltovský les <Maroltovsky les>","coordinates":[12.9613881,50.3448418]},{"code":"OL/KA-292","program":"gma","name":"Osek","coordinates":[12.8017248,50.3080397]},{"code":"OL/KA-294","program":"gma","name":"Lužecký vrch <Luzecky vrch>","coordinates":[12.8046996,50.3093193]},{"code":"OL/KA-307","program":"gma","name":"Kraví vrch <Kravi vrch>","coordinates":[12.8728,50.33059]},{"code":"OL/KA-312","program":"gma","name":"Fojtovský vrch <Fojtovsky vrch>","coordinates":[12.7706512,50.2997482]},{"code":"OL/KA-317","program":"gma","name":"Na Oldříši <Na Oldrisi>","coordinates":[12.88208,50.32781]},{"code":"OL/KA-345","program":"gma","name":"Hroznatův vrch <Hroznatuv vrch>","coordinates":[12.8529,50.31715]},{"code":"OL/KA-353","program":"gma","name":"Bílý vrch <Bily vrch>","coordinates":[12.90183,50.33155]},{"code":"OL/KA-354","program":"gma","name":"Kupka","coordinates":[12.8232456,50.3042713]},{"code":"OL/KA-361","program":"gma","name":"Studený vrch <Studeny vrch>","coordinates":[12.9758922,50.2628485]},{"code":"OL/KA-368","program":"gma","name":"Strážiště <Straziste>","coordinates":[12.8285591,50.264074]},{"code":"OL/KA-374","program":"gma","name":"Vřesoviště <Vresoviste>","coordinates":[12.8007001,50.2815396]},{"code":"OL/KA-375","program":"gma","name":"Náhon <Nahon>","coordinates":[12.9915125,50.3184545]},{"code":"OL/KA-377","program":"gma","name":"Borový <Borovy>","coordinates":[12.7653226,50.2792095]},{"code":"OL/KA-384","program":"gma","name":"Čihadlo <Cihadlo>","coordinates":[12.8617157,50.2756986]},{"code":"OL/KA-385","program":"gma","name":"Ptačí­ vrch <Ptaci vrch>","coordinates":[12.9218688,50.2583689]},{"code":"OL/KA-386","program":"gma","name":"Liščí­ vrch <Lisci vrch>","coordinates":[12.99845,50.28436]},{"code":"OL/KA-387","program":"gma","name":"Nástraha <Nastraha>","coordinates":[12.9462002,50.2772227]},{"code":"OL/KA-389","program":"gma","name":"Košťál <Kostal>","coordinates":[12.99776,50.27819]},{"code":"OL/KA-398","program":"gma","name":"Božídarský Špičák <Bozidarsky Spicak>","coordinates":[12.88899994,50.40100098]},{"code":"OL/KA-400","program":"gma","name":"Blatenský vrch <Blatensky vrch>","coordinates":[12.78199959,50.40100098]},{"code":"OL/KA-401","program":"gma","name":"Plešivec <Plesivec>","coordinates":[12.84000015,50.35699844]},{"code":"OL/KA-405","program":"gma","name":"Vlčinec <Vlcinec>","coordinates":[12.83600044,50.33000183]},{"code":"OL/KA-444","program":"gma","name":"Písková skála <Piskova skala>","coordinates":[12.77600002,50.42900085]},{"code":"OL/KA-449","program":"gma","name":"Kraví­ hora <Kravi hora>","coordinates":[12.8038217,50.4290347]},{"code":"OL/US-001","program":"gma","name":"Macecha","coordinates":[12.99300003,50.39799881]},{"code":"OL/US-005","program":"gma","name":"Na Kopci","coordinates":[12.98452377,50.41187668]},{"code":"CZ-0160","program":"pota","name":"Božídarské rašeliniště National Nature Reserve","coordinates":[12.882,50.402]},{"code":"DE-0409","program":"pota","name":"Fichtelberg Mountain Park","coordinates":[12.9544,50.4286]},{"code":"OK/KA-001","program":"sota","name":"Klínovec","coordinates":[12.968,50.3962]}]}