{"lat":50.25,"lon":-125,"programs":["pota","sota"],"count":9,"references":[{"code":"CA-4269","program":"pota","name":"Walsh Cove Provincial Park","coordinates":[-124.801,50.2686]},{"code":"VE7/CS-236","program":"sota","name":"Mount Bunsen","coordinates":[-124.7547,50.2681]},{"code":"VE7/CS-336","program":"sota","name":"Mount Perritt","coordinates":[-124.8915,50.2697]},{"code":"VE7/CS-346","program":"sota","name":"VE7/CS-346","coordinates":[-124.8992,50.2836]},{"code":"VE7/CS-349","program":"sota","name":"Gloucester Mountain","coordinates":[-124.8756,50.2766]},{"code":"VE7/CS-388","program":"sota","name":"Raza Peak","coordinates":[-124.9986,50.2956]},{"code":"VE7/CS-444","program":"sota","name":"Mount Monk","coordinates":[-124.8528,50.2601]},{"code":"VE7/CS-517","program":"sota","name":"VE7/CS-517","coordinates":[-124.9178,50.2991]},{"code":"VE7/CS-539","program":"sota","name":"VE7/CS-539","coordinates":[-124.8183,50.2721]}]}