{"lat":50.25,"lon":-4,"programs":["pota","wwbota"],"count":11,"references":[{"code":"GB-0231","program":"pota","name":"South Devon National Landscape","coordinates":[-3.80017,50.2646]},{"code":"GB-0559","program":"pota","name":"Dendles Wood National Nature Reserve","coordinates":[-3.94915,50.4406]},{"code":"GB-0655","program":"pota","name":"Hembury Woods Site of Significant Scientific Interest","coordinates":[-3.79125,50.4978]},{"code":"GB-1626","program":"pota","name":"South Dartmoor Site of Significant Scientific Interest","coordinates":[-3.94354,50.4732]},{"code":"GB-6355","program":"pota","name":"Filham Country Park","coordinates":[-3.90582,50.3816]},{"code":"B/G-0177","program":"wwbota","name":"ROC Post Holbeton","coordinates":[-3.963125,50.322815]},{"code":"B/G-0200","program":"wwbota","name":"ROC Post Modbury Master Post","coordinates":[-3.862552,50.377086]},{"code":"B/G-0201","program":"wwbota","name":"ROC Post Malborough","coordinates":[-3.812224,50.252144]},{"code":"B/G-1816","program":"wwbota","name":"Mothercombe, coastal defence bunker","coordinates":[-3.954787,50.308307]},{"code":"B/G-1817","program":"wwbota","name":"Burgh Island, coastal defence bunkers (cluster)","coordinates":[-3.899182,50.280802]},{"code":"B/G-1818","program":"wwbota","name":"South Thurlestone, coastal defence bunker","coordinates":[-3.857538,50.256943]}]}