{"lat":50.5,"lon":8,"programs":["gma","pota","sota"],"count":18,"references":[{"code":"DA/HE-512","program":"gma","name":"Roter Kopf","coordinates":[8.217978,50.509835]},{"code":"DA/NW-133","program":"gma","name":"Die Hoeh","coordinates":[8.10779953,50.73860168]},{"code":"DA/NW-352","program":"gma","name":"Burg","coordinates":[8.06690025,50.73970032]},{"code":"DA/RP-285","program":"gma","name":"Kühfelderstein","coordinates":[8.05529976,50.69110107]},{"code":"DA/RP-286","program":"gma","name":"Salzburger Kopf","coordinates":[8.05360031,50.67110062]},{"code":"DA/RP-287","program":"gma","name":"Stegskopf","coordinates":[8.02359962,50.7016983]},{"code":"DA/RP-288","program":"gma","name":"Altenberg","coordinates":[8.11079979,50.6507988]},{"code":"DA/RP-289","program":"gma","name":"Galgenberg","coordinates":[8.04279995,50.66970062]},{"code":"DA/RP-290","program":"gma","name":"Homberg","coordinates":[8.10109997,50.64250183]},{"code":"DA/RP-291","program":"gma","name":"Höllenkopf","coordinates":[8.0394001,50.70920181]},{"code":"DA/RP-292","program":"gma","name":"Trödelsteine","coordinates":[8.03689957,50.72779846]},{"code":"DA/RP-294","program":"gma","name":"Stirnskopf","coordinates":[8.01720047,50.7132988]},{"code":"DA/RP-297","program":"gma","name":"Seltersberg","coordinates":[8.01000023,50.72060013]},{"code":"DA/RP-315","program":"gma","name":"Ziehenberg","coordinates":[8.00279999,50.56309891]},{"code":"DA/RP-316","program":"gma","name":"Hohe Hahnscheid","coordinates":[8.03670025,50.55500031]},{"code":"DA/RP-321","program":"gma","name":"Kohlhack","coordinates":[8.0607996,50.54140091]},{"code":"DE-0695","program":"pota","name":"Trödelsteine Natural Monument","coordinates":[8.03784,50.7283]},{"code":"DM/RP-334","program":"sota","name":"Fuchskaute","coordinates":[8.102,50.6596]}]}