{"lat":50.5,"lon":2,"programs":["gma","pota","wwbota"],"count":28,"references":[{"code":"FA/NO-035","program":"gma","name":"Bois de Thiembronne","coordinates":[2.0135,50.6425]},{"code":"FR-0863","program":"pota","name":"Anciennes carrieres de Cl ty Regional Reserve","coordinates":[2.16519,50.6503]},{"code":"FR-1820","program":"pota","name":"Grottes et pelouses d'Acquin-W Provincial Park","coordinates":[2.13399,50.6976]},{"code":"FR-2673","program":"pota","name":"PELOUSES, BOIS ACIDES À NEUTROCALCICOLES FR3100487 Natura 2000","coordinates":[2.23806,50.7036]},{"code":"FR-2674","program":"pota","name":"COTEAU DE LA MONTAGNE D ACQUIN FR3100488 Natura 2000","coordinates":[2.09361,50.73]},{"code":"FR-8096","program":"pota","name":"Complexe de vallees seches et de bois autour de Bouvelinghem Biological Reserve","coordinates":[2.03477,50.7305]},{"code":"FR-8100","program":"pota","name":"Coteaux d Acquin-Westbecourt, du val de Lumbres et au nord de Setques Biological Reserve","coordinates":[2.11789,50.7244]},{"code":"FR-8101","program":"pota","name":"Bois et landes de Wisques Biological Reserve","coordinates":[2.1859,50.7205]},{"code":"FR-8103","program":"pota","name":"Reserve naturelle des grottes et pelouses d'Acquin-Westbecourt et coteaux de Wavrans sur l'Aa Biological Reserve","coordinates":[2.11775,50.71]},{"code":"FR-8105","program":"pota","name":"Coteau de Seninghem Biological Reserve","coordinates":[2.04057,50.7075]},{"code":"FR-8106","program":"pota","name":"La Vallee de l'Aa entre Lumbres et Wizernes Biological Reserve","coordinates":[2.16807,50.7075]},{"code":"FR-8107","program":"pota","name":"Coteau de Setques Biological Reserve","coordinates":[2.15873,50.7073]},{"code":"FR-9304","program":"pota","name":"La montagne de Lumbres Biological Reserve","coordinates":[2.1396,50.6989]},{"code":"FR-9305","program":"pota","name":"La Vallee du Blequin et les Vallees seches adjacentes au Ruisseau d Acquin Biological Reserve","coordinates":[2.0359,50.6985]},{"code":"FR-9306","program":"pota","name":"Les ravins de Pihem et Noir Cornet et Coteau de Wizernes Biological Reserve","coordinates":[2.2192,50.6974]},{"code":"FR-9308","program":"pota","name":"Bois d'Esquerdes et vallee Pruvost Biological Reserve","coordinates":[2.17522,50.6925]},{"code":"FR-9309","program":"pota","name":"La moyenne Vallee de l Aa et ses versants entre Remilly-Wirquin et Wizernes Biological Reserve","coordinates":[2.1741,50.6922]},{"code":"FR-9312","program":"pota","name":"Vallee du Blequin de Nielles a Affringues Biological Reserve","coordinates":[2.05361,50.6842]},{"code":"FR-9314","program":"pota","name":"Pelouses crayeuses de Wavrans et Elnes Biological Reserve","coordinates":[2.156,50.6826]},{"code":"FR-9315","program":"pota","name":"Reservoir biologique de l'Aa Biological Reserve","coordinates":[2.0559,50.6824]},{"code":"FR-9327","program":"pota","name":"Bois Bertoulin, Bois d'Enfer et Bosquets au sud de Dohem Biological Reserve","coordinates":[2.21193,50.6371]},{"code":"FR-9331","program":"pota","name":"Coteaux de la haute vallee de l'Aa et carrieres de Clety Biological Reserve","coordinates":[2.1294,50.6256]},{"code":"FR-9336","program":"pota","name":"La haute Aa et ses vegetations alluviales entre Remilly-Wirquin et Wicquinghem Biological Reserve","coordinates":[2.0815,50.6044]},{"code":"FR-9343","program":"pota","name":"La haute Vallee de l'Aa et ses versants en amont de Remilly-Wirquin Biological Reserve","coordinates":[2.0535,50.5958]},{"code":"FR-9348","program":"pota","name":"La haute Vallee de la Lys et ses versants en amont de Therouanne Biological Reserve","coordinates":[2.1743,50.5735]},{"code":"FR-9350","program":"pota","name":"La Haute Lys et ses vegetations alluviales en amont de Therouanne Biological Reserve","coordinates":[2.1874,50.5646]},{"code":"FR-9361","program":"pota","name":"Bois de Crequy Biological Reserve","coordinates":[2.01036,50.5015]},{"code":"B/F-0900","program":"wwbota","name":"La Coupole d'Helfaut","coordinates":[2.243578,50.705264]}]}