{"lat":50.5,"lon":-121.5,"programs":["pota","sota"],"count":17,"references":[{"code":"CA-3234","program":"pota","name":"Blue Earth Lake Provincial Park","coordinates":[-121.482,50.5931]},{"code":"CA-3372","program":"pota","name":"Cornwall Hills Provincial Park","coordinates":[-121.457,50.6961]},{"code":"CA-3463","program":"pota","name":"Elephant Hill Provincial Park","coordinates":[-121.294,50.7496]},{"code":"CA-3483","program":"pota","name":"Epsom Provincial Park","coordinates":[-121.307,50.5703]},{"code":"VE7/TN-436","program":"sota","name":"Cornwall Peak","coordinates":[-121.4566,50.6962]},{"code":"VE7/TN-440","program":"sota","name":"Lookout Point","coordinates":[-121.4825,50.5543]},{"code":"VE7/TN-531","program":"sota","name":"VE7/TN-531","coordinates":[-121.4421,50.592]},{"code":"VE7/TN-534","program":"sota","name":"Spence Peak","coordinates":[-121.4413,50.5458]},{"code":"VE7/TN-554","program":"sota","name":"Hume peak","coordinates":[-121.4579,50.514]},{"code":"VE7/TN-600","program":"sota","name":"VE7/TN-600","coordinates":[-121.4368,50.5667]},{"code":"VE7/TN-626","program":"sota","name":"Nicoelton Mopuntain","coordinates":[-121.3617,50.5258]},{"code":"VE7/TN-636","program":"sota","name":"VE7/TN-636","coordinates":[-121.3896,50.5657]},{"code":"VE7/TN-735","program":"sota","name":"VE7/TN-735","coordinates":[-121.2501,50.5391]},{"code":"VE7/TN-776","program":"sota","name":"VE7/TN-776","coordinates":[-121.3071,50.5333]},{"code":"VE7/TN-777","program":"sota","name":"VE7/TN-777","coordinates":[-121.2572,50.7021]},{"code":"VE7/TN-791","program":"sota","name":"Red Hill","coordinates":[-121.3373,50.658]},{"code":"VE7/TN-792","program":"sota","name":"VE7/TN-792","coordinates":[-121.3192,50.7061]}]}