{"lat":50.5,"lon":-3,"programs":["pota","sota","wwbota"],"count":10,"references":[{"code":"GB-0183","program":"pota","name":"Dorset and East Devon Coast World Heritage Site Provincial Park","coordinates":[-2.94351,50.7193]},{"code":"GB-0565","program":"pota","name":"Sidmouth/West Bay SAC -Axmouth To Lyme Regis Undercliffs National Nature Reserve","coordinates":[-2.98362,50.708]},{"code":"GB-0566","program":"pota","name":"Sidmouth/West Bay SAC -West Dorset Coast Site of Significant Scientific Interest","coordinates":[-2.81163,50.7197]},{"code":"GB-4186","program":"pota","name":"Slopes Farm Forest Reserve","coordinates":[-2.93894,50.729]},{"code":"GB-5622","program":"pota","name":"Jellyfields & Bothenhampton Local Nature Reserve","coordinates":[-2.75025,50.7209]},{"code":"GB-5623","program":"pota","name":"Allington Hill Scenic Reserve","coordinates":[-2.77025,50.7381]},{"code":"GB-6073","program":"pota","name":"Langmoor & Lister Gardens Park","coordinates":[-2.9374,50.7237]},{"code":"G/SC-011","program":"sota","name":"Hardown Hill","coordinates":[-2.844248,50.744965]},{"code":"B/G-1994","program":"wwbota","name":"Coastal Defence Bunker, Eype Mouth","coordinates":[-2.782968,50.716687]},{"code":"B/G-1997","program":"wwbota","name":"Coastal Defence Bunker, Lyme Regis","coordinates":[-2.925474,50.733924]}]}