{"lat":50.5,"lon":7.75,"programs":["gma","pota"],"count":16,"references":[{"code":"DA/RP-293","program":"gma","name":"Marienberger Höhe","coordinates":[7.9394002,50.65999985]},{"code":"DA/RP-298","program":"gma","name":"Hommelshahn","coordinates":[7.9980998,50.74330139]},{"code":"DA/RP-300","program":"gma","name":"Steinkopf (Ww)","coordinates":[7.91079998,50.73419952]},{"code":"DA/RP-301","program":"gma","name":"Schimmerich","coordinates":[7.97669983,50.71860123]},{"code":"DA/RP-302","program":"gma","name":"Ziest","coordinates":[7.91470003,50.65919876]},{"code":"DA/RP-303","program":"gma","name":"Auf der Burg","coordinates":[7.95190001,50.73139954]},{"code":"DA/RP-304","program":"gma","name":"Beulstein","coordinates":[7.8597002,50.51860046]},{"code":"DA/RP-306","program":"gma","name":"Hartenfelser Kopf","coordinates":[7.76779985,50.61360168]},{"code":"DA/RP-307","program":"gma","name":"Unterer Kopf","coordinates":[7.86030006,50.6507988]},{"code":"DA/RP-308","program":"gma","name":"Girkenrother Kopf","coordinates":[7.97889996,50.51810074]},{"code":"DA/RP-310","program":"gma","name":"Scharfenstein","coordinates":[7.91169977,50.6371994]},{"code":"DA/RP-317","program":"gma","name":"Grüner Hahn","coordinates":[7.85610008,50.66249847]},{"code":"DA/RP-396","program":"gma","name":"Steineberger Höhe","coordinates":[7.833328,50.721926]},{"code":"DA/RP-493","program":"gma","name":"Watzenhahn","coordinates":[7.9842,50.52859879]},{"code":"DA/RP-530","program":"gma","name":"Helleberg","coordinates":[7.85695,50.5528]},{"code":"DE-0450","program":"pota","name":"Westerwälder Seen Landscape Reserve","coordinates":[7.82662,50.5811]}]}