{"lat":50.5,"lon":-115,"programs":["pota","sota","wwbota"],"count":29,"references":[{"code":"CA-2938","program":"pota","name":"Big Elbow Provincial Recreation Area","coordinates":[-114.86,50.724]},{"code":"VE6/AS-057","program":"sota","name":"Storelk Mountain","coordinates":[-114.98285,50.538624]},{"code":"VE6/JF-034","program":"sota","name":"Mist Mountain","coordinates":[-114.90957,50.554165]},{"code":"VE6/JF-037","program":"sota","name":"Storm Mountain","coordinates":[-114.93931,50.58716]},{"code":"VE6/JF-047","program":"sota","name":"Mount Cornwall","coordinates":[-114.94673,50.73829]},{"code":"VE6/JF-048","program":"sota","name":"Outlaw Peak","coordinates":[-114.941154,50.720917]},{"code":"VE6/JF-050","program":"sota","name":"Mount Burns","coordinates":[-114.86052,50.641403]},{"code":"VE6/JF-055","program":"sota","name":"Cougar Mountain","coordinates":[-114.89851,50.673904]},{"code":"VE6/JF-056","program":"sota","name":"Highwood Peak","coordinates":[-114.78305,50.542385]},{"code":"VE6/JF-059","program":"sota","name":"Bluerock Mountain","coordinates":[-114.80612,50.666668]},{"code":"VE6/JF-074","program":"sota","name":"Gibraltar Mountain","coordinates":[-114.8367,50.59051]},{"code":"VE6/JF-089","program":"sota","name":"Burns NE3","coordinates":[-114.83225,50.65633]},{"code":"VE6/JF-097","program":"sota","name":"Cougar SE1","coordinates":[-114.8891,50.6599]},{"code":"VE6/JF-099","program":"sota","name":"Lineham Ridge","coordinates":[-114.7515,50.5143]},{"code":"VE6/JF-100","program":"sota","name":"Highwood NW4","coordinates":[-114.7974,50.5603]},{"code":"VE6/JF-101","program":"sota","name":"Burns SE1","coordinates":[-114.8224,50.628]},{"code":"VE6/JF-102","program":"sota","name":"Jagermeister Peak","coordinates":[-114.7841,50.5716]},{"code":"VE6/JF-109","program":"sota","name":"Burns SE2","coordinates":[-114.8005,50.6178]},{"code":"VE6/JF-110","program":"sota","name":"Mist Ridge","coordinates":[-114.8634,50.588]},{"code":"VE6/JF-111","program":"sota","name":"Odlum Ridge","coordinates":[-114.8707,50.5049]},{"code":"VE6/JF-113","program":"sota","name":"Eagle Ridge","coordinates":[-114.8801,50.5428]},{"code":"VE6/JF-114","program":"sota","name":"South Mist Hills 1","coordinates":[-114.8182,50.5368]},{"code":"VE6/RA-001","program":"sota","name":"Banded Peak","coordinates":[-114.91757,50.71842]},{"code":"VE6/RA-003","program":"sota","name":"Threepoint Mountain","coordinates":[-114.82625,50.70684]},{"code":"VE6/RA-082","program":"sota","name":"Mount Rae","coordinates":[-114.9745,50.62296]},{"code":"VE6/RA-105","program":"sota","name":"Banded Peak E1","coordinates":[-114.8991,50.7205]},{"code":"VE6/RA-130","program":"sota","name":"Forgetmenot SE3","coordinates":[-114.7626,50.7295]},{"code":"VE6/RA-135","program":"sota","name":"Surveyor's Ridge","coordinates":[-114.7518,50.6889]},{"code":"B/CA-0080","program":"wwbota","name":"FRP FF3","coordinates":[-114.987778,50.59944403]}]}