{"lat":50.5,"lon":-117,"programs":["sota"],"count":5,"references":[{"code":"VE7/CK-031","program":"sota","name":"Howser Peak","coordinates":[-116.7837,50.7048]},{"code":"VE7/CK-032","program":"sota","name":"Mt. Macarthy","coordinates":[-116.9572,50.7474]},{"code":"VE7/CP-018","program":"sota","name":"Bugaboo Spire","coordinates":[-116.7889,50.7456]},{"code":"VE7/EN-004","program":"sota","name":"Pigeon Spire","coordinates":[-116.7925,50.7306]},{"code":"VE7/EN-005","program":"sota","name":"Snowpatch Spire","coordinates":[-116.7822,50.7364]}]}