{"lat":50.5,"lon":10.25,"programs":["gma","sota"],"count":81,"references":[{"code":"DA/TH-360","program":"gma","name":"Drosselleite","coordinates":[10.45440006,50.6405983]},{"code":"DA/TH-372","program":"gma","name":"Dürrenberg","coordinates":[10.43280029,50.63999939]},{"code":"DA/TH-373","program":"gma","name":"Schneeberg","coordinates":[10.42169952,50.63330078]},{"code":"DA/TH-390","program":"gma","name":"Hainberg","coordinates":[10.43889999,50.63029861]},{"code":"DA/TH-394","program":"gma","name":"Lindenberg","coordinates":[10.44750023,50.68610001]},{"code":"DA/TH-396","program":"gma","name":"Herrenkuppe","coordinates":[10.43970013,50.69309998]},{"code":"DA/TH-407","program":"gma","name":"Heiligenberg","coordinates":[10.41170025,50.62440109]},{"code":"DA/TH-413","program":"gma","name":"Mönchberg","coordinates":[10.42140007,50.69250107]},{"code":"DA/TH-419","program":"gma","name":"Heitzberg","coordinates":[10.41469955,50.67860031]},{"code":"DA/TH-426","program":"gma","name":"Langer Berg","coordinates":[10.46689987,50.51689911]},{"code":"DA/TH-429","program":"gma","name":"Frohnberg","coordinates":[10.48639965,50.51860046]},{"code":"DA/TH-434","program":"gma","name":"Zimmerberg","coordinates":[10.4218998,50.67079926]},{"code":"DA/TH-436","program":"gma","name":"Hälsberg","coordinates":[10.48690033,50.53779984]},{"code":"DA/TH-441","program":"gma","name":"Roßbachh","coordinates":[10.43529987,50.69919968]},{"code":"DA/TH-446","program":"gma","name":"Möckerser Höhe","coordinates":[10.40719986,50.68719864]},{"code":"DA/TH-454","program":"gma","name":"Kohlberg","coordinates":[10.4982996,50.52170181]},{"code":"DA/TH-456","program":"gma","name":"Bitthäuser Berg","coordinates":[10.48970032,50.55310059]},{"code":"DA/TH-460","program":"gma","name":"Döttberg","coordinates":[10.45030022,50.51860046]},{"code":"DA/TH-461","program":"gma","name":"Rothkuppe","coordinates":[10.4236002,50.7419014]},{"code":"DA/TH-464","program":"gma","name":"Eichelberg","coordinates":[10.44750023,50.51250076]},{"code":"DA/TH-470","program":"gma","name":"Sanertberg","coordinates":[10.47749996,50.50469971]},{"code":"DA/TH-472","program":"gma","name":"Weimarberg","coordinates":[10.43080044,50.70610046]},{"code":"DA/TH-493","program":"gma","name":"Schwallunger Berg","coordinates":[10.40610027,50.66529846]},{"code":"DA/TH-506","program":"gma","name":"Ringelsberg","coordinates":[10.40219975,50.65610123]},{"code":"DA/TH-548","program":"gma","name":"Häselberg","coordinates":[10.41689968,50.70360184]},{"code":"DA/TH-566","program":"gma","name":"Steiler Hügel","coordinates":[10.39560032,50.73970032]},{"code":"DA/TH-573","program":"gma","name":"Langer Berg","coordinates":[10.39970016,50.72940063]},{"code":"DA/TH-600","program":"gma","name":"Neidhardskopf","coordinates":[10.26580048,50.57529831]},{"code":"DA/TH-641","program":"gma","name":"Bildstein","coordinates":[10.26640034,50.60309982]},{"code":"DA/TH-651","program":"gma","name":"Roter Bühl","coordinates":[10.25720024,50.54309845]},{"code":"DA/TH-653","program":"gma","name":"Bärenkopf","coordinates":[10.45750046,50.67309952]},{"code":"DA/TH-660","program":"gma","name":"Hinterer Thalkopf","coordinates":[10.46809959,50.65060043]},{"code":"DA/TH-664","program":"gma","name":"Hoher Berg","coordinates":[10.30220032,50.58420181]},{"code":"DA/TH-673","program":"gma","name":"Weidebrunner Kuppe","coordinates":[10.45059967,50.74779892]},{"code":"DA/TH-676","program":"gma","name":"Buchenberg","coordinates":[10.32279968,50.53639984]},{"code":"DA/TH-681","program":"gma","name":"Rudelsberg","coordinates":[10.30609989,50.53219986]},{"code":"DA/TH-685","program":"gma","name":"Küchenberg","coordinates":[10.27420044,50.74499893]},{"code":"DA/TH-691","program":"gma","name":"Haselberg","coordinates":[10.33440018,50.52529907]},{"code":"DA/TH-692","program":"gma","name":"Dornkopf","coordinates":[10.32499981,50.54999924]},{"code":"DA/TH-696","program":"gma","name":"Kleine Geba","coordinates":[10.31309986,50.57440186]},{"code":"DA/TH-707","program":"gma","name":"Hohe Maas","coordinates":[10.45860004,50.56219864]},{"code":"DA/TH-709","program":"gma","name":"Ripperts","coordinates":[10.29080009,50.73939896]},{"code":"DA/TH-711","program":"gma","name":"Kuppe","coordinates":[10.31110001,50.64390182]},{"code":"DA/TH-713","program":"gma","name":"Küchenberg","coordinates":[10.46860027,50.56779861]},{"code":"DA/TH-714","program":"gma","name":"Mehmelsfelder Berg","coordinates":[10.38720036,50.50999832]},{"code":"DA/TH-720","program":"gma","name":"K","coordinates":[10.30830002,50.73559952]},{"code":"DA/TH-721","program":"gma","name":"Kahler Berg","coordinates":[10.33440018,50.56280136]},{"code":"DA/TH-722","program":"gma","name":"Auf der Schanz","coordinates":[10.43640041,50.55749893]},{"code":"DA/TH-723","program":"gma","name":"Drachenberg","coordinates":[10.44279957,50.58029938]},{"code":"DA/TH-724","program":"gma","name":"Eschberg","coordinates":[10.40670013,50.61719894]},{"code":"DA/TH-726","program":"gma","name":"K","coordinates":[10.26609993,50.6169014]},{"code":"DA/TH-727","program":"gma","name":"Neuberg","coordinates":[10.35309982,50.53139877]},{"code":"DA/TH-728","program":"gma","name":"Eulenkopf","coordinates":[10.3980999,50.50640106]},{"code":"DA/TH-733","program":"gma","name":"Spielberg","coordinates":[10.40030003,50.51530075]},{"code":"DA/TH-734","program":"gma","name":"Koppe","coordinates":[10.47169971,50.58720016]},{"code":"DA/TH-735","program":"gma","name":"Hexenberg","coordinates":[10.43280029,50.54499817]},{"code":"DA/TH-736","program":"gma","name":"Oberer Berg","coordinates":[10.37639999,50.59109879]},{"code":"DA/TH-737","program":"gma","name":"Lotzenhack","coordinates":[10.35140038,50.56499863]},{"code":"DA/TH-739","program":"gma","name":"Rothenberg","coordinates":[10.27169991,50.72890091]},{"code":"DA/TH-741","program":"gma","name":"Dippersberg","coordinates":[10.35610008,50.54639816]},{"code":"DA/TH-743","program":"gma","name":"Ziegenberg","coordinates":[10.44470024,50.53860092]},{"code":"DA/TH-745","program":"gma","name":"Hengstberg","coordinates":[10.30580044,50.67750168]},{"code":"DA/TH-748","program":"gma","name":"Kohlberg","coordinates":[10.25440025,50.73109818]},{"code":"DA/TH-752","program":"gma","name":"Eichigkopf","coordinates":[10.31999969,50.59170151]},{"code":"DA/TH-754","program":"gma","name":"Mittelberg","coordinates":[10.2791996,50.73749924]},{"code":"DA/TH-755","program":"gma","name":"Hessenkoppe","coordinates":[10.46220016,50.57939911]},{"code":"DA/TH-756","program":"gma","name":"Johannisberg","coordinates":[10.46080017,50.59609985]},{"code":"DA/TH-757","program":"gma","name":"Oberer Vogelherd","coordinates":[10.27330017,50.69329834]},{"code":"DA/TH-765","program":"gma","name":"Fixleite","coordinates":[10.4666996,50.55609894]},{"code":"DA/TH-766","program":"gma","name":"Vorderberg","coordinates":[10.27670002,50.62310028]},{"code":"DA/TH-767","program":"gma","name":"Schienberg","coordinates":[10.47029972,50.69250107]},{"code":"DA/TH-770","program":"gma","name":"Hundsrücken","coordinates":[10.32279968,50.71170044]},{"code":"DA/TH-771","program":"gma","name":"Kiliansberg","coordinates":[10.43029976,50.60029984]},{"code":"DA/TH-773","program":"gma","name":"Kirchberg","coordinates":[10.33360004,50.70920181]},{"code":"DA/TH-898","program":"gma","name":"Kohlberg","coordinates":[10.49580002,50.73669815]},{"code":"DA/TH-900","program":"gma","name":"Leite","coordinates":[10.29609966,50.54000092]},{"code":"DA/TH-901","program":"gma","name":"Fritzenberg","coordinates":[10.37829971,50.50220108]},{"code":"DA/TH-902","program":"gma","name":"Zehnerberg","coordinates":[10.42000008,50.50690079]},{"code":"DA/TH-903","program":"gma","name":"Stillberg","coordinates":[10.38580036,50.53139877]},{"code":"DM/TH-081","program":"sota","name":"Dolmar","coordinates":[10.4789,50.6247]},{"code":"DM/TH-082","program":"sota","name":"Gebaberg","coordinates":[10.2703,50.59]}]}