{"lat":50.5,"lon":-2.75,"programs":["gma","pota","wwbota"],"count":14,"references":[{"code":"G/HSC-004","program":"gma","name":"Eggardon Hill","coordinates":[-2.64487004,50.74742126]},{"code":"GB-0008","program":"pota","name":"Dorset National Landscape","coordinates":[-2.55098,50.7116]},{"code":"GB-0066","program":"pota","name":"Chesil Beach & The Fleet SPA Protected Area","coordinates":[-2.53066,50.6121]},{"code":"GB-0589","program":"pota","name":"Valley of the Stones National Nature Reserve","coordinates":[-2.56976,50.689]},{"code":"GB-1621","program":"pota","name":"Abbotsbury Castle Site of Significant Scientific Interest","coordinates":[-2.6245,50.6733]},{"code":"B/G-0223","program":"wwbota","name":"ROC Post Burton Bradstock","coordinates":[-2.738168,50.713681]},{"code":"B/G-0224","program":"wwbota","name":"ROC Post Abbotsbury","coordinates":[-2.623765,50.674151]},{"code":"B/G-1829","program":"wwbota","name":"Burton Beach, coastal defence bunker","coordinates":[-2.718383,50.696526]},{"code":"B/G-1830","program":"wwbota","name":"Chesters Hill, coastal defence bunkers (cluster)","coordinates":[-2.597918,50.650538]},{"code":"B/G-1831","program":"wwbota","name":"Chesil Beach, coastal defence bunker","coordinates":[-2.646843,50.668265]},{"code":"B/G-1832","program":"wwbota","name":"East Fleet #2, coastal defence bunker","coordinates":[-2.527068,50.617064]},{"code":"B/G-1833","program":"wwbota","name":"Chickerell Hive Point, coastal defence bunker","coordinates":[-2.513326,50.610127]},{"code":"B/G-1834","program":"wwbota","name":"Langton Herring, coastal defence bunker","coordinates":[-2.555345,50.640897]},{"code":"B/G-1993","program":"wwbota","name":"Coastal Defence Bunker (Cluster), West Bexington","coordinates":[-2.669383,50.680894]}]}