{"lat":50.5,"lon":13,"programs":["gma","pota"],"count":49,"references":[{"code":"DA/SX-002","program":"gma","name":"Hirtstein","coordinates":[13.19330025,50.53530121]},{"code":"DA/SX-064","program":"gma","name":"Langer Stein","coordinates":[13.143527,50.717231]},{"code":"DA/SX-065","program":"gma","name":"Lauterbacher Knochen","coordinates":[13.16639996,50.69060135]},{"code":"DA/SX-066","program":"gma","name":"Dreibrüderhöhe","coordinates":[13.125,50.65670013]},{"code":"DA/SX-067","program":"gma","name":"Morgensternhöhe","coordinates":[13.24499989,50.64580154]},{"code":"DA/SX-104","program":"gma","name":"Pilzhübel","coordinates":[13.09829998,50.72669983]},{"code":"DA/SX-105","program":"gma","name":"Zeisighübel","coordinates":[13.11610031,50.69639969]},{"code":"DA/SX-106","program":"gma","name":"Lautaer Höhe","coordinates":[13.14890003,50.6617012]},{"code":"DA/SX-110","program":"gma","name":"Bismarckhöhe","coordinates":[13.15810013,50.52220154]},{"code":"DA/SX-111","program":"gma","name":"Altes Gericht","coordinates":[13.15390015,50.61940002]},{"code":"DA/SX-112","program":"gma","name":"Adlerstein","coordinates":[13.16329956,50.69889832]},{"code":"DA/SX-113","program":"gma","name":"Galgenberg bei Wünschendorf","coordinates":[13.16720009,50.7439003]},{"code":"DA/SX-114","program":"gma","name":"Ulmknochen","coordinates":[13.18809986,50.69720078]},{"code":"DA/SX-115","program":"gma","name":"Brandhübel","coordinates":[13.20189953,50.68809891]},{"code":"DA/SX-118","program":"gma","name":"Hilmersdorfer Hofhöhe","coordinates":[13.12310028,50.66640091]},{"code":"DA/SX-119","program":"gma","name":"Fuchsgaloppe","coordinates":[13.17500019,50.59830093]},{"code":"DA/SX-123","program":"gma","name":"Amtsberg","coordinates":[13.02140045,50.74470139]},{"code":"DA/SX-129","program":"gma","name":"Brödnerhöhe","coordinates":[13.18330002,50.68109894]},{"code":"DA/SX-131","program":"gma","name":"Goldkrone","coordinates":[13.23029995,50.62360001]},{"code":"DA/SX-132","program":"gma","name":"Wolfsberg bei Warmbad","coordinates":[13.08920002,50.67670059]},{"code":"DA/SX-134","program":"gma","name":"Annahöhe","coordinates":[13.247233,50.668731]},{"code":"DA/SX-214","program":"gma","name":"Morgensterns Kuppe","coordinates":[13.15130043,50.7419014]},{"code":"DA/SX-227","program":"gma","name":"Fabrikberg","coordinates":[13.125715,50.724242]},{"code":"DA/SX-285","program":"gma","name":"Bärenstein","coordinates":[13.01920033,50.50830078]},{"code":"DA/SX-286","program":"gma","name":"Pöhlberg","coordinates":[13.02939987,50.57419968]},{"code":"DA/SX-429","program":"gma","name":"Hermannshöhe","coordinates":[13.0678269,50.5686767]},{"code":"DA/SX-430","program":"gma","name":"Glösenstein","coordinates":[13.1574986,50.54212]},{"code":"DA/SX-431","program":"gma","name":"Glaserkuppe","coordinates":[13.087109,50.584607]},{"code":"DA/SX-456","program":"gma","name":"Buchenberg","coordinates":[13.0676069,50.6177578]},{"code":"DA/SX-457","program":"gma","name":"Hohlstein","coordinates":[13.1336108,50.5935172]},{"code":"DA/SX-510","program":"gma","name":"Wildsberg","coordinates":[13.214955,50.61795]},{"code":"DA/SX-515","program":"gma","name":"Fuchshöhe","coordinates":[13.107323,50.568257]},{"code":"DA/SX-530","program":"gma","name":"Wettinfels","coordinates":[13.162779,50.72072]},{"code":"DA/SX-538","program":"gma","name":"Ziegenrücken","coordinates":[13.094698,50.631071]},{"code":"DA/SX-539","program":"gma","name":"Der Hahn","coordinates":[13.039085,50.637587]},{"code":"DA/SX-545","program":"gma","name":"Heideberg bei Grießbach","coordinates":[13.042388,50.720683]},{"code":"DA/SX-546","program":"gma","name":"Anton-Günter-Höhe","coordinates":[13.065844,50.664392]},{"code":"DA/SX-548","program":"gma","name":"Friedrich-August-Höhe","coordinates":[13.236902,50.696474]},{"code":"DA/SX-580","program":"gma","name":"Donnerberg","coordinates":[13.1276,50.7041]},{"code":"DA/SX-581","program":"gma","name":"Weißer Stein","coordinates":[13.1442,50.7057]},{"code":"DA/SX-609","program":"gma","name":"Lerchenhübel","coordinates":[13.060615,50.593891]},{"code":"DA/SX-610","program":"gma","name":"Schokoladenfelsen","coordinates":[13.03569,50.62182]},{"code":"DA/SX-714","program":"gma","name":"Wolperts Büschchen","coordinates":[13.096889,50.71131]},{"code":"DA/SX-715","program":"gma","name":"Tobiashübel","coordinates":[13.17598,50.638434]},{"code":"OL/US-019","program":"gma","name":"Novoveský vrch  <Novovesky vrch >","coordinates":[13.23711777,50.50217819]},{"code":"OL/US-023","program":"gma","name":"Skelný vrch <Skelny vrch>","coordinates":[13.20149231,50.50893784]},{"code":"OL/US-055","program":"gma","name":"Na Skále <Na Skale>","coordinates":[13.2416687,50.57932663]},{"code":"DE-0637","program":"pota","name":"Montanregion Erzgebirge UNESCO Geopark","coordinates":[13.0997,50.6834]},{"code":"DE-0683","program":"pota","name":"Schwarzwassertal National Nature Reserve","coordinates":[13.2406,50.6284]}]}