{"lat":50.5,"lon":8.25,"programs":["gma","pota"],"count":5,"references":[{"code":"DA/HE-088","program":"gma","name":"Alteburg","coordinates":[8.3828001,50.6733017]},{"code":"DA/HE-101","program":"gma","name":"Kreuzberg","coordinates":[8.25940037,50.56529999]},{"code":"DA/HE-122","program":"gma","name":"Bieler Burg","coordinates":[8.37779999,50.57310104]},{"code":"DA/HE-124","program":"gma","name":"Koppe","coordinates":[8.375,50.63750076]},{"code":"DE-0820","program":"pota","name":"Kurpark Herrengarten Historic Site","coordinates":[8.3893,50.5123]}]}