{"lat":50.5,"lon":4.25,"programs":["gma","pota","wwbota"],"count":14,"references":[{"code":"OP/BW-001","program":"gma","name":"Butte du Lion","coordinates":[4.404823,50.678434]},{"code":"BE-0507","program":"pota","name":"Affluents brabançons de la Senne National Park","coordinates":[4.2524,50.6619]},{"code":"BE-0503","program":"pota","name":"Bois d'Arpes et de l'Hôpital National Park","coordinates":[4.28748,50.5797]},{"code":"BE-0240","program":"pota","name":"Hallerbos Nature Reserve","coordinates":[4.28891,50.7049]},{"code":"BE-0284","program":"pota","name":"De Weikes Nature Reserve","coordinates":[4.28772,50.7254]},{"code":"B/ON-1960","program":"wwbota","name":"Bunker Eigenbrakel Eb 1","coordinates":[4.3459291,50.6977699]},{"code":"B/ON-1961","program":"wwbota","name":"Bunker Eigenbrakel Eb 2","coordinates":[4.3702917,50.6945755]},{"code":"B/ON-1962","program":"wwbota","name":"Bunker Eigenbrakel Eb 3","coordinates":[4.3679604,50.6936072]},{"code":"B/ON-1963","program":"wwbota","name":"Bunker Eigenbrakel Eb 4","coordinates":[4.3717163,50.6935976]},{"code":"B/ON-1964","program":"wwbota","name":"Bunker Waterloo Wl 1","coordinates":[4.4016429,50.6948626]},{"code":"B/ON-1965","program":"wwbota","name":"Bunker Waterloo Wl 2","coordinates":[4.4051388,50.6947447]},{"code":"B/ON-1966","program":"wwbota","name":"Bunker Waterloo Wl 3","coordinates":[4.414416,50.6988604]},{"code":"B/ON-1967","program":"wwbota","name":"Bunker Sint-Genesius-Rode","coordinates":[4.3706384,50.7449692]},{"code":"B/ON-2737","program":"wwbota","name":"Bunker Eigenbrakel Eb 5","coordinates":[4.372225,50.6917139]}]}