{"lat":50.5,"lon":-122.75,"programs":["pota","sota"],"count":10,"references":[{"code":"CA-0707","program":"pota","name":"Birkenhead Lake Provincial Park","coordinates":[-122.673,50.5608]},{"code":"VE7/SL-001","program":"sota","name":"Whitecap Mtn.","coordinates":[-122.5094,50.7167]},{"code":"VE7/SL-011","program":"sota","name":"Birkenhead Peak","coordinates":[-122.6208,50.5111]},{"code":"VE7/SL-079","program":"sota","name":"Kafir Peak","coordinates":[-122.5991,50.5196]},{"code":"VE7/SL-086","program":"sota","name":"Mt. McDonald","coordinates":[-122.6742,50.5108]},{"code":"VE7/SL-132","program":"sota","name":"Prospector Peak","coordinates":[-122.5753,50.6297]},{"code":"VE7/SL-133","program":"sota","name":"Mt. Aragorn","coordinates":[-122.7061,50.6425]},{"code":"VE7/SL-134","program":"sota","name":"Mt. Shadowfax","coordinates":[-122.6769,50.6417]},{"code":"VE7/SL-135","program":"sota","name":"Phelix Peak","coordinates":[-122.6169,50.6072]},{"code":"VE7/SL-136","program":"sota","name":"Peregrine Peak","coordinates":[-122.6811,50.6164]}]}