{"lat":50.5,"lon":15,"programs":["gma","pota","sota"],"count":41,"references":[{"code":"OK/LI-014","program":"gma","name":"Černá Studnice <Cerna studnice>","coordinates":[15.23400021,50.7120018]},{"code":"OK/LI-049","program":"gma","name":"Trosky","coordinates":[15.23099995,50.51699829]},{"code":"OK/LI-052","program":"gma","name":"Vyskeř <Vysker>","coordinates":[15.15799999,50.53300095]},{"code":"OK/ST-066","program":"gma","name":"Mužský <Muzsky>","coordinates":[15.04599953,50.52799988]},{"code":"OL/LI-072","program":"gma","name":"Maršovický vrch <Marsovicky vrch>","coordinates":[15.2041464,50.7034129]},{"code":"OL/LI-087","program":"gma","name":"Hrachový kopec <Hrachovy kopec>","coordinates":[15.2236469,50.7481979]},{"code":"OL/LI-100","program":"gma","name":"Vyhlí­dka <Vyhlidka>","coordinates":[15.241212,50.7432078]},{"code":"OL/LI-102","program":"gma","name":"Dalešický vrch <Dalesicky vrch>","coordinates":[15.1920776,50.6886849]},{"code":"OL/LI-104","program":"gma","name":"Novoveský vrch <Novovesky vrch>","coordinates":[15.2035782,50.7291697]},{"code":"OL/LI-115","program":"gma","name":"Bartlův vrch <Bartluv vrch>","coordinates":[15.1841223,50.7105686]},{"code":"OL/LI-123","program":"gma","name":"Císařský kámen <Cisarsky kamen>","coordinates":[15.1043611,50.7134012]},{"code":"OL/LI-133","program":"gma","name":"Nad Skokem","coordinates":[15.1848292,50.7426723]},{"code":"OL/LI-136","program":"gma","name":"Kamenný <Kamenny>","coordinates":[15.0112152,50.7019363]},{"code":"OL/LI-138","program":"gma","name":"Hamštejnský vrch <Hamstejnsky vrch>","coordinates":[15.2455055,50.6182229]},{"code":"OL/LI-174","program":"gma","name":"Sokol","coordinates":[15.2054223,50.6324017]},{"code":"OL/LI-201","program":"gma","name":"Lovčí­ vrch <Lovci vrch>","coordinates":[15.1131023,50.7200838]},{"code":"OL/LI-209","program":"gma","name":"Zabolky","coordinates":[15.1290698,50.6538428]},{"code":"OL/LI-248","program":"gma","name":"Vršek <Vrsek>","coordinates":[15.23722,50.65106]},{"code":"OL/LI-249","program":"gma","name":"Hrobka","coordinates":[15.1138363,50.6487866]},{"code":"OL/LI-257","program":"gma","name":"Prosečský vrch <Prosecsky vrch>","coordinates":[15.1294406,50.7269733]},{"code":"OL/LI-284","program":"gma","name":"Zbiroh","coordinates":[15.19034,50.62382]},{"code":"OL/LI-296","program":"gma","name":"Nad Pivovarem","coordinates":[15.0890172,50.7485942]},{"code":"OL/LI-328","program":"gma","name":"Na Konicích <Na Konicich>","coordinates":[15.16184,50.56571]},{"code":"OL/LI-332","program":"gma","name":"Stávek <Stavek>","coordinates":[15.1862931,50.5433657]},{"code":"OL/LI-342","program":"gma","name":"Dubecko","coordinates":[15.221373,50.5844346]},{"code":"OL/LI-345","program":"gma","name":"Horka","coordinates":[15.0987041,50.663549]},{"code":"OL/LI-347","program":"gma","name":"Na Kamenci","coordinates":[15.15379,50.55331]},{"code":"OL/LI-348","program":"gma","name":"Rovná Radeč <Rovna RadeÄ>","coordinates":[15.1682312,50.5441846]},{"code":"OL/LI-370","program":"gma","name":"Kozlov","coordinates":[15.1265024,50.5616482]},{"code":"OL/LI-388","program":"gma","name":"Malý vrch <Maly vrch>","coordinates":[15.20108,50.53368]},{"code":"OL/LI-399","program":"gma","name":"Rovné skály <Rovne skaly>","coordinates":[15.20989,50.5316]},{"code":"OL/LI-456","program":"gma","name":"Javorní­k <Javornik>","coordinates":[15.07999992,50.69200134]},{"code":"OL/LI-457","program":"gma","name":"Kopanina","coordinates":[15.1619997,50.6609993]},{"code":"OL/ST-587","program":"gma","name":"Smrkovec","coordinates":[15.04818153,50.51559067]},{"code":"OL/ST-628","program":"gma","name":"Chrby","coordinates":[15.1085728,50.5006203]},{"code":"CZ-0194","program":"pota","name":"Rádlo Natural Monument","coordinates":[15.122,50.706]},{"code":"CZ-0195","program":"pota","name":"Vápenice - Basa (EVL) Natura 2000","coordinates":[15.005,50.712]},{"code":"OK/LI-014","program":"sota","name":"Černá studnice","coordinates":[15.233,50.7118]},{"code":"OK/LI-049","program":"sota","name":"Trosky","coordinates":[15.2316,50.5163]},{"code":"OK/LI-052","program":"sota","name":"Vyskeř","coordinates":[15.1596,50.5319]},{"code":"OK/ST-066","program":"sota","name":"Mužský","coordinates":[15.046,50.5277]}]}