{"lat":50.75,"lon":5.25,"programs":["gma","pota","wwbota"],"count":20,"references":[{"code":"OP/LB-003","program":"gma","name":"Bollenberg","coordinates":[5.353247,50.792015]},{"code":"OP/LB-006","program":"gma","name":"Terril Winterslag","coordinates":[5.477348,50.98724]},{"code":"BE-0104","program":"pota","name":"De Herk - De Knoppel Nature Reserve","coordinates":[5.28682,50.7711]},{"code":"BE-0112","program":"pota","name":"Vijvercomplex Midden Limburg \"Platwijers-Wijvenheide\" National Park","coordinates":[5.31795,50.9805]},{"code":"BE-0113","program":"pota","name":"Welleke Nature Reserve","coordinates":[5.3886,50.983]},{"code":"BE-0125","program":"pota","name":"Egoven Nature Reserve","coordinates":[5.2665,50.7514]},{"code":"BE-0128","program":"pota","name":"De Maten National Park","coordinates":[5.45067,50.9504]},{"code":"BE-0129","program":"pota","name":"Pomperik-Dorpsbeemden Nature Reserve","coordinates":[5.43458,50.9153]},{"code":"BE-0136","program":"pota","name":"Bosreservaat Jongenbos Nature Reserve","coordinates":[5.43875,50.8757]},{"code":"BE-0137","program":"pota","name":"Mombeekvallei Nature Reserve","coordinates":[5.33506,50.8858]},{"code":"BE-0527","program":"pota","name":"Provinciaal Domein Bokrijk UNESCO Biosphere Reserve","coordinates":[5.40638,50.9587]},{"code":"BE-0530","program":"pota","name":"Valleien van de Laambeek, Zonderikbeek, Slangebeek en Roosterbeek met vijvergebieden en heiden National Park","coordinates":[5.31396,50.9864]},{"code":"BE-0531","program":"pota","name":"Domein Bovy Park","coordinates":[5.26958,50.9846]},{"code":"B/ON-0313","program":"wwbota","name":"Bunker Swinnenwijer Genk","coordinates":[5.4974556,50.9369139]},{"code":"B/ON-0460","program":"wwbota","name":"Duitse Artillerie-observatiebunker Genk","coordinates":[5.414098,50.971076]},{"code":"B/ON-0541","program":"wwbota","name":"Sluisbunker Diepenbeek D1","coordinates":[5.4288861,50.9402611]},{"code":"B/ON-0542","program":"wwbota","name":"Sluisbunker Diepenbeek D2","coordinates":[5.431722,50.940085]},{"code":"B/ON-0543","program":"wwbota","name":"Sluisbunker Diepenbeek D3","coordinates":[5.434036,50.939947]},{"code":"B/ON-2323","program":"wwbota","name":"Bunker Hasselt Hs 1","coordinates":[5.3699578,50.9428512]},{"code":"B/ON-2324","program":"wwbota","name":"Bunker Hasselt Hs 2","coordinates":[5.3648941,50.9200318]}]}