{"lat":50.75,"lon":18.75,"programs":["pota"],"count":5,"references":[{"code":"PL-1287","program":"pota","name":"Zamczysko Nature Reserve","coordinates":[18.9416,50.8624]},{"code":"PL-1299","program":"pota","name":"Dębowa Góra Nature Reserve","coordinates":[18.915,50.8804]},{"code":"PL-1342","program":"pota","name":"Cisy w Łebkach Nature Reserve","coordinates":[18.7883,50.7836]},{"code":"PL-1358","program":"pota","name":"Modrzewiowa Góra Nature Reserve","coordinates":[18.7559,50.9297]},{"code":"PL-1364","program":"pota","name":"Cisy nad Liswartą Nature Reserve","coordinates":[18.7894,50.7742]}]}