{"lat":50.75,"lon":2,"programs":["gma","pota","wwbota"],"count":24,"references":[{"code":"FA/NO-046","program":"gma","name":"Mont Gasard","coordinates":[2,50.8005]},{"code":"FR-0053","program":"pota","name":"Platier d'Oye National Nature Reserve","coordinates":[2.05427,50.9986]},{"code":"FR-2678","program":"pota","name":"Prairies marais tourbeux forets et bois de la cuvette audomaroise et de ses versants Natura 2000","coordinates":[2.2325,50.7842]},{"code":"FR-2679","program":"pota","name":"FORET DE TOURNEHEM ET PELOUSES DE LA CUESTA FR3100498 Natura 2000","coordinates":[2.02361,50.7667]},{"code":"FR-8060","program":"pota","name":"Foret d'Eperlecques et ses lisieres Biological Reserve","coordinates":[2.1451,50.8354]},{"code":"FR-8065","program":"pota","name":"Mont de Guemy Biological Reserve","coordinates":[2.03071,50.8107]},{"code":"FR-8069","program":"pota","name":"Haute vallee de la Hem entre Audenfort et Nordausques Biological Reserve","coordinates":[2.02297,50.7996]},{"code":"FR-8079","program":"pota","name":"Mont de Bonningues Biological Reserve","coordinates":[2.03213,50.7848]},{"code":"FR-8080","program":"pota","name":"Marnieres de Houlle et de Moulle Biological Reserve","coordinates":[2.14031,50.7828]},{"code":"FR-8083","program":"pota","name":"Marais de Serques a Saint Martin-au Laert Biological Reserve","coordinates":[2.2305,50.7809]},{"code":"FR-8085","program":"pota","name":"La Foret domaniale de Tournehem et ses lisieres Biological Reserve","coordinates":[2.04399,50.7739]},{"code":"FR-8090","program":"pota","name":"Les Monts d'Audrehem Biological Reserve","coordinates":[2.00147,50.7524]},{"code":"FR-10088","program":"pota","name":"Le bois Royal de Watten, le bois du Ham Biological Reserve","coordinates":[2.2239,50.823]},{"code":"FR-10089","program":"pota","name":"Le complexe ecologique du Marais Audomarois et de ses versants Biological Reserve","coordinates":[2.2301,50.798]},{"code":"FR-10090","program":"pota","name":"Le Marais de Warland et les etangs de la Musardiere Biological Reserve","coordinates":[2.2056,50.8177]},{"code":"FR-10092","program":"pota","name":"Heronniere de Gravelines Biological Reserve","coordinates":[2.1581,50.9819]},{"code":"FR-11119","program":"pota","name":"Mares de Millam Biological Reserve","coordinates":[2.223,50.8557]},{"code":"FR-11127","program":"pota","name":"Plaine maritime flamande entre Watten, Loon-Plage et Oye-Plage Biological Reserve","coordinates":[2.1894,50.9329]},{"code":"B/F-0791","program":"wwbota","name":"Les Dunes d'Oye4","coordinates":[2.037785,50.997376]},{"code":"B/F-0792","program":"wwbota","name":"Les Dunes d'Oye3","coordinates":[2.040916,50.997313]},{"code":"B/F-0793","program":"wwbota","name":"Les Dunes d'Oye1","coordinates":[2.053335,50.997088]},{"code":"B/F-0794","program":"wwbota","name":"Les Dunes d'Oye6","coordinates":[2.005237,50.994255]},{"code":"B/F-0807","program":"wwbota","name":"Les Dunes d'Oye5","coordinates":[2.049916,50.99114]},{"code":"B/F-0875","program":"wwbota","name":"Le Blockhaus d'Eperlecques","coordinates":[2.183593,50.828263]}]}