{"lat":50.75,"lon":10.5,"programs":["gma"],"count":58,"references":[{"code":"DA/TH-014","program":"gma","name":"Großer Buchenberg","coordinates":[10.63309956,50.75109863]},{"code":"DA/TH-016","program":"gma","name":"Aschenbergstein","coordinates":[10.50293,50.855471]},{"code":"DA/TH-074","program":"gma","name":"Reinhardsberg","coordinates":[10.5733253,50.8664232]},{"code":"DA/TH-100","program":"gma","name":"Hinterer Höhenberg","coordinates":[10.53059959,50.79059982]},{"code":"DA/TH-104","program":"gma","name":"Tanzbuche","coordinates":[10.52420044,50.84249878]},{"code":"DA/TH-117","program":"gma","name":"Vorderer Höhenberg","coordinates":[10.52000046,50.77610016]},{"code":"DA/TH-142","program":"gma","name":"Kramerod","coordinates":[10.56219959,50.7655983]},{"code":"DA/TH-146","program":"gma","name":"Nesselberg","coordinates":[10.563274,50.780597]},{"code":"DA/TH-152","program":"gma","name":"Trockentalskopf","coordinates":[10.67420006,50.75220108]},{"code":"DA/TH-163","program":"gma","name":"Spießberg","coordinates":[10.53919983,50.82139969]},{"code":"DA/TH-168","program":"gma","name":"Kleiner Buchenberg","coordinates":[10.62110043,50.75249863]},{"code":"DA/TH-171","program":"gma","name":"Spitze","coordinates":[10.6736002,50.77080154]},{"code":"DA/TH-182","program":"gma","name":"Oberer Pirschhauskopf","coordinates":[10.54810047,50.80469894]},{"code":"DA/TH-183","program":"gma","name":"Regenberg","coordinates":[10.53719997,50.84140015]},{"code":"DA/TH-186","program":"gma","name":"Schauenburg","coordinates":[10.55249977,50.84640121]},{"code":"DA/TH-190","program":"gma","name":"Tenneberg","coordinates":[10.51189995,50.84690094]},{"code":"DA/TH-192","program":"gma","name":"Matteböhler","coordinates":[10.68389988,50.75780106]},{"code":"DA/TH-203","program":"gma","name":"Kienberg","coordinates":[10.74170017,50.77890015]},{"code":"DA/TH-205","program":"gma","name":"Heuberg","coordinates":[10.52779961,50.82920074]},{"code":"DA/TH-214","program":"gma","name":"Simmetsberg","coordinates":[10.5230999,50.8506012]},{"code":"DA/TH-215","program":"gma","name":"Übelberg","coordinates":[10.51580048,50.86000061]},{"code":"DA/TH-232","program":"gma","name":"Streitberg","coordinates":[10.70059967,50.76610184]},{"code":"DA/TH-239","program":"gma","name":"Steiniger Berg","coordinates":[10.71889973,50.79140091]},{"code":"DA/TH-248","program":"gma","name":"Steinkopf","coordinates":[10.67420006,50.79309845]},{"code":"DA/TH-250","program":"gma","name":"Krippenkopf","coordinates":[10.73079967,50.75469971]},{"code":"DA/TH-256","program":"gma","name":"Abtsberg","coordinates":[10.53810024,50.85440063]},{"code":"DA/TH-264","program":"gma","name":"Ziegelberg","coordinates":[10.67920017,50.80059814]},{"code":"DA/TH-265","program":"gma","name":"Brandkopf","coordinates":[10.67109966,50.8044014]},{"code":"DA/TH-271","program":"gma","name":"Löbesberg","coordinates":[10.50669956,50.81470108]},{"code":"DA/TH-277","program":"gma","name":"Wiesenberg","coordinates":[10.54170036,50.75859833]},{"code":"DA/TH-280","program":"gma","name":"Vogelherdskopf","coordinates":[10.65639973,50.79359818]},{"code":"DA/TH-281","program":"gma","name":"Großer Mittelrain","coordinates":[10.58329964,50.77939987]},{"code":"DA/TH-283","program":"gma","name":"Hirschbalz","coordinates":[10.52779961,50.80889893]},{"code":"DA/TH-284","program":"gma","name":"Weißenberg","coordinates":[10.5152998,50.79919815]},{"code":"DA/TH-287","program":"gma","name":"Turmberg","coordinates":[10.74030018,50.76810074]},{"code":"DA/TH-301","program":"gma","name":"Hohe Schlaufe","coordinates":[10.65170002,50.77920151]},{"code":"DA/TH-305","program":"gma","name":"Körnberg","coordinates":[10.5717001,50.84809875]},{"code":"DA/TH-306","program":"gma","name":"Totenkopf","coordinates":[10.66250038,50.80860138]},{"code":"DA/TH-312","program":"gma","name":"Zimmerberg","coordinates":[10.51939964,50.86529922]},{"code":"DA/TH-321","program":"gma","name":"Mittelrain","coordinates":[10.65190029,50.78689957]},{"code":"DA/TH-354","program":"gma","name":"Heuberg","coordinates":[10.57359982,50.82559967]},{"code":"DA/TH-364","program":"gma","name":"Ziegenböhler","coordinates":[10.70610046,50.7881012]},{"code":"DA/TH-389","program":"gma","name":"Ölberg","coordinates":[10.60330009,50.83890152]},{"code":"DA/TH-402","program":"gma","name":"Finstere Tanne","coordinates":[10.54249954,50.87580109]},{"code":"DA/TH-403","program":"gma","name":"Knöpfelsberg","coordinates":[10.69939995,50.80970001]},{"code":"DA/TH-439","program":"gma","name":"Dachsberg","coordinates":[10.59440041,50.86109924]},{"code":"DA/TH-449","program":"gma","name":"Wiederkomms Hög","coordinates":[10.64619732,50.83795166]},{"code":"DA/TH-605","program":"gma","name":"Mönchstein","coordinates":[10.51500034,50.76440048]},{"code":"DA/TH-661","program":"gma","name":"Schlossberg","coordinates":[10.71220016,50.80189896]},{"code":"DA/TH-777","program":"gma","name":"Schlossberg","coordinates":[10.6227,50.8529]},{"code":"DA/TH-793","program":"gma","name":"Sankt Georgsberg","coordinates":[10.62530041,50.82780075]},{"code":"DA/TH-797","program":"gma","name":"Goldberg","coordinates":[10.74629498,50.82080841]},{"code":"DA/TH-798","program":"gma","name":" Johannisberg","coordinates":[10.62339973,50.83250046]},{"code":"DA/TH-799","program":"gma","name":"Gottlob","coordinates":[10.56289959,50.85139847]},{"code":"DA/TH-850","program":"gma","name":"Krahnberg-Bürgerturm","coordinates":[10.6662569,50.96025848]},{"code":"DA/TH-851","program":"gma","name":"Schlossberg","coordinates":[10.70458984,50.94577026]},{"code":"DA/TH-869","program":"gma","name":"Mittlerer H","coordinates":[10.52530003,50.78170013]},{"code":"DA/TH-933","program":"gma","name":"Wachkopf","coordinates":[10.58222,50.87209]}]}