{"lat":50.75,"lon":11.75,"programs":["gma","pota","wwbota"],"count":9,"references":[{"code":"DA/SA-258","program":"gma","name":"Sachsenberg","coordinates":[11.99798,50.99562]},{"code":"DA/TH-908","program":"gma","name":"Nesselkoppe","coordinates":[11.99145,50.87052]},{"code":"DA/TH-909","program":"gma","name":"Käseberg","coordinates":[11.9634,50.86562]},{"code":"DE-1037","program":"pota","name":"Beuche - Wethautal Natura 2000","coordinates":[11.8717,50.9821]},{"code":"DE-1175","program":"pota","name":"Waldecker Schloßgrund - Langes Tal Flora and Fauna Reserve","coordinates":[11.7837,50.9235]},{"code":"DE-1176","program":"pota","name":"An den Ziegenböcken Flora and Fauna Reserve","coordinates":[11.8427,50.9262]},{"code":"DE-1177","program":"pota","name":"Am Schwertstein - Himmelsgrund Flora and Fauna Reserve","coordinates":[11.9232,50.9077]},{"code":"DE-1178","program":"pota","name":"Zeitzgrund - Teufelstal - Hermsdorfer Moore Flora and Fauna Reserve","coordinates":[11.8078,50.8861]},{"code":"B/DL-0113","program":"wwbota","name":"AFüSt – BV Gera","coordinates":[11.927156,50.920653]}]}