{"lat":50.75,"lon":6,"programs":["gma","pota","wwbota"],"count":5,"references":[{"code":"DA/NW-331","program":"gma","name":"Lousberg","coordinates":[6.079718,50.787015]},{"code":"DE-0149","program":"pota","name":"Aachen Kurgarten Park","coordinates":[6.09472,50.7815]},{"code":"B/DL-0389","program":"wwbota","name":"Hochbunker Junkerstraße, Aachen","coordinates":[6.072999,50.77132]},{"code":"B/DL-0390","program":"wwbota","name":"Hochbunker Scheibenstraße, Aachen","coordinates":[6.101985,50.777148]},{"code":"B/DL-0392","program":"wwbota","name":"Fernmeldebunker Aachen","coordinates":[6.103733,50.767193]}]}