{"lat":50.75,"lon":-4.25,"programs":["pota","wwbota"],"count":8,"references":[{"code":"GB-2948","program":"pota","name":"Torrington Commons Park Reserve","coordinates":[-4.15932,50.954]},{"code":"GB-4740","program":"pota","name":"The Tarka National Scenic Trail","coordinates":[-4.17333,50.9651]},{"code":"GB-5257","program":"pota","name":"Halwill Junction Nature Reserve","coordinates":[-4.20923,50.7808]},{"code":"GB-5354","program":"pota","name":"Meeth Quarry Local Nature Reserve","coordinates":[-4.07869,50.8611]},{"code":"GB-5762","program":"pota","name":"Hatherleigh Moor Hillside Reserve","coordinates":[-4.05817,50.8179]},{"code":"GB-5815","program":"pota","name":"Cookworthy Moorland & Forest Reserve","coordinates":[-4.24693,50.7932]},{"code":"B/G-0163","program":"wwbota","name":"ROC Post Great Torrington","coordinates":[-4.095345,50.997031]},{"code":"B/G-0165","program":"wwbota","name":"ROC Post Hatherleigh","coordinates":[-4.069357,50.845234]}]}