{"lat":50.75,"lon":17.25,"programs":["pota"],"count":7,"references":[{"code":"PL-1589","program":"pota","name":"Grodzisko Ryczyńskie Nature Reserve","coordinates":[17.4096,50.9271]},{"code":"PL-1593","program":"pota","name":"Kanigóra Nature Reserve","coordinates":[17.3915,50.9421]},{"code":"PL-1600","program":"pota","name":"Zwierzyniec Nature Reserve","coordinates":[17.3295,50.9461]},{"code":"PL-2025","program":"pota","name":"Grądy Odrzańskie Natura 2000","coordinates":[17.4056,50.9308]},{"code":"PL-2120","program":"pota","name":"Dąbrowy Janikowskie Natura 2000","coordinates":[17.3742,50.9783]},{"code":"PL-1587","program":"pota","name":"Leśna Woda Nature Reserve","coordinates":[17.4383,50.9672]},{"code":"PL-1598","program":"pota","name":"Przylesie Nature Reserve","coordinates":[17.3543,50.7984]}]}