{"lat":50.75,"lon":0.25,"programs":["pota","wwbota"],"count":25,"references":[{"code":"GB-0115","program":"pota","name":"Fore Wood RSPB Reserve","coordinates":[0.496576,50.888]},{"code":"GB-1275","program":"pota","name":"Pevensey Levels Site of Significant Scientific Interest","coordinates":[0.33731,50.8402]},{"code":"GB-1276","program":"pota","name":"Shinewater Country Park","coordinates":[0.289326,50.8052]},{"code":"GB-3529","program":"pota","name":"Princes Park","coordinates":[0.308433,50.7799]},{"code":"GB-4708","program":"pota","name":"Sovereign Park Nature Reserve","coordinates":[0.320199,50.7831]},{"code":"GB-4709","program":"pota","name":"Hampden Park","coordinates":[0.26967,50.7942]},{"code":"GB-4710","program":"pota","name":"Egerton Park","coordinates":[0.465684,50.8381]},{"code":"GB-4711","program":"pota","name":"Bexhill Down Park","coordinates":[0.462442,50.8472]},{"code":"GB-5326","program":"pota","name":"Broad Oak Park","coordinates":[0.445865,50.8499]},{"code":"GB-5327","program":"pota","name":"Gillham Woods Nature Reserve","coordinates":[0.438487,50.8365]},{"code":"GB-5627","program":"pota","name":"Powdermill Wood Nature Reserve","coordinates":[0.471367,50.9055]},{"code":"GB-5628","program":"pota","name":"Highwoods Site of Significant Scientific Interest","coordinates":[0.435074,50.8611]},{"code":"GB-6147","program":"pota","name":"1066 Country Walk National Scenic Trail","coordinates":[0.413629,50.9142]},{"code":"GB-6552","program":"pota","name":"Sapperton Meadows Woodland & Site of Significant Scientific Interest","coordinates":[0.260311,50.9522]},{"code":"GB-6553","program":"pota","name":"The Cuckoo National Scenic Trail","coordinates":[0.252512,50.9636]},{"code":"GB-6555","program":"pota","name":"Park Woods Woodland Reserve","coordinates":[0.266382,50.8932]},{"code":"GB-6556","program":"pota","name":"Darwell Wood Site of Significant Scientific Interest","coordinates":[0.431501,50.9553]},{"code":"B/G-0838","program":"wwbota","name":"ROC Post Rushlake Green","coordinates":[0.2975,50.964459]},{"code":"B/G-0839","program":"wwbota","name":"ROC Post Herstmonceux","coordinates":[0.301038,50.883265]},{"code":"B/G-0840","program":"wwbota","name":"ROC Post Pevensey","coordinates":[0.334175,50.800941]},{"code":"B/G-0842","program":"wwbota","name":"ROC Post Ninfield","coordinates":[0.415385,50.889498]},{"code":"B/G-0844","program":"wwbota","name":"ROC Post Cooden","coordinates":[0.49731,50.841993]},{"code":"B/G-1091","program":"wwbota","name":"Chain Home - Pevensey","coordinates":[0.333661,50.841874]},{"code":"B/G-1182","program":"wwbota","name":"ROTOR Radar - Wartling (ZUN)","coordinates":[0.359884,50.854838]},{"code":"B/G-2560","program":"wwbota","name":"Special Duties Out Station","coordinates":[0.280563,50.830309]}]}