{"lat":50.75,"lon":13,"programs":["gma","pota","wwbota"],"count":21,"references":[{"code":"DA/SX-063","program":"gma","name":"Schellenberg/Augustusburg","coordinates":[13.09939957,50.81309891]},{"code":"DA/SX-069","program":"gma","name":"Adelsberg","coordinates":[13.0156002,50.81110001]},{"code":"DA/SX-107","program":"gma","name":"Hoher Stein bei Börnichen","coordinates":[13.14279,50.75572]},{"code":"DA/SX-108","program":"gma","name":"Dittersdorfer Höhe","coordinates":[13.00720024,50.76279831]},{"code":"DA/SX-116","program":"gma","name":"Spitzberg bei Altenhain","coordinates":[13.024945,50.780804]},{"code":"DA/SX-117","program":"gma","name":"Scheffelsberg bei Grünhainichen","coordinates":[13.15439987,50.76060104]},{"code":"DA/SX-120","program":"gma","name":"Götzhöhe","coordinates":[13.07033,50.767986]},{"code":"DA/SX-121","program":"gma","name":"Plauberg","coordinates":[13.09140015,50.83280182]},{"code":"DA/SX-122","program":"gma","name":"Katzenberg bei Euba","coordinates":[13.039931,50.827681]},{"code":"DA/SX-156","program":"gma","name":"Karolinenhöhe bei Schönerstadt ","coordinates":[13.1328001,50.87360001]},{"code":"DA/SX-162","program":"gma","name":"Ranisberg","coordinates":[13.21329975,50.8567009]},{"code":"DA/SX-378","program":"gma","name":"Harrasfelsen (Körnerdenkmal)","coordinates":[13.024169,50.888412]},{"code":"DA/SX-435","program":"gma","name":"Wäscheberg","coordinates":[13.216198,50.946262]},{"code":"DA/SX-464","program":"gma","name":"Kaulhübel","coordinates":[13.013263,50.887385]},{"code":"DA/SX-497","program":"gma","name":"Galgenberg bei Seifersdorf","coordinates":[13.248124,50.967509]},{"code":"DA/SX-500","program":"gma","name":"Udohöhe","coordinates":[13.158557,50.882591]},{"code":"DA/SX-540","program":"gma","name":"Ullmanns Kuppe","coordinates":[13.120409,50.770063]},{"code":"DA/SX-574","program":"gma","name":"Häsig","coordinates":[13.096235,50.879526]},{"code":"DA/SX-607","program":"gma","name":"Wachtelberg bei Euba","coordinates":[13.0189303,50.8479386]},{"code":"DE-0933","program":"pota","name":"Sächsicher Jakobsweg National Recreation Trail","coordinates":[13.1623,50.8596]},{"code":"B/DL-0112","program":"wwbota","name":"AFüSt – BV Karl-Marx-Stadt","coordinates":[13.013706,50.765858]}]}