{"lat":50.75,"lon":-3.5,"programs":["gma","pota","sota","wwbota"],"count":14,"references":[{"code":"G/HDC-004","program":"gma","name":"Bingwell Hill","coordinates":[-3.47003007,50.88920975]},{"code":"G/HDC-018","program":"gma","name":"Three Gates Hill","coordinates":[-3.45242,50.96318054]},{"code":"G/HDC-021","program":"gma","name":"White Down","coordinates":[-3.41059995,50.80450821]},{"code":"GB-1930","program":"pota","name":"Killerton Site of Significant Scientific Interest","coordinates":[-3.45726,50.7982]},{"code":"GB-2497","program":"pota","name":"Grand Western Canal Country Park","coordinates":[-3.4302,50.9152]},{"code":"GB-4041","program":"pota","name":"Palmerston Park Wood Nature Reserve","coordinates":[-3.49572,50.8947]},{"code":"GB-4042","program":"pota","name":"Bridwell Country Park","coordinates":[-3.34041,50.9055]},{"code":"GB-4874","program":"pota","name":"Cranbrook Country Park","coordinates":[-3.41007,50.7509]},{"code":"GB-5172","program":"pota","name":"Culmstock Beacon Historic Site","coordinates":[-3.26778,50.9283]},{"code":"G/DC-005","program":"sota","name":"Christ Cross","coordinates":[-3.472653,50.837406]},{"code":"B/G-0173","program":"wwbota","name":"ROC Post Kentisbeare","coordinates":[-3.347882,50.854722]},{"code":"B/G-0193","program":"wwbota","name":"ROC Post Bampton","coordinates":[-3.462675,50.959006]},{"code":"B/G-1040","program":"wwbota","name":"ROC Group HQ No 10 - Exeter (Poltimore Park)","coordinates":[-3.45889,50.75452]},{"code":"B/G-2164","program":"wwbota","name":"Coldharbour Mill, WW2 Air Raid Shelter","coordinates":[-3.335758,50.901805]}]}