{"lat":50.75,"lon":-2.75,"programs":["gma","pota","wwbota"],"count":13,"references":[{"code":"G/HSC-014","program":"gma","name":"Telegraph Hill","coordinates":[-2.50699997,50.84341812]},{"code":"GB-0330","program":"pota","name":"Hardington Moor National Nature Reserve","coordinates":[-2.69119,50.913]},{"code":"GB-0555","program":"pota","name":"Ham Hill Country Park","coordinates":[-2.7449,50.9517]},{"code":"GB-0586","program":"pota","name":"Hog Cliff National Nature Reserve","coordinates":[-2.54564,50.775]},{"code":"GB-0610","program":"pota","name":"Kingcombe National Nature Reserve","coordinates":[-2.64564,50.7759]},{"code":"GB-1808","program":"pota","name":"Yeovil Country Park","coordinates":[-2.63268,50.9351]},{"code":"GB-6174","program":"pota","name":"Monarch's Way National Scenic Trail","coordinates":[-2.54949,50.9677]},{"code":"GB-6466","program":"pota","name":"Hilfield Hill Local Nature Reserve","coordinates":[-2.51246,50.8404]},{"code":"GB-6467","program":"pota","name":"Hendover Coppice Local Nature Reserve","coordinates":[-2.51966,50.832]},{"code":"B/G-0213","program":"wwbota","name":"ROC Post Yetminster Master Post","coordinates":[-2.570348,50.890339]},{"code":"B/G-0214","program":"wwbota","name":"ROC Post Evershot","coordinates":[-2.55646,50.822512]},{"code":"B/G-0720","program":"wwbota","name":"ROC Post Stoke-under-Ham also known as Hamhill","coordinates":[-2.744364,50.952396]},{"code":"B/G-1039","program":"wwbota","name":"ROC Group HQ No 9 - Yeovil","coordinates":[-2.64032,50.93195]}]}