{"lat":50.75,"lon":-4,"programs":["pota","wwbota"],"count":5,"references":[{"code":"GB-2418","program":"pota","name":"Winkleigh Wood Forest Reserve","coordinates":[-3.92173,50.8577]},{"code":"B/G-0167","program":"wwbota","name":"ROC Post High Bickington","coordinates":[-3.990797,50.965135]},{"code":"B/G-0168","program":"wwbota","name":"ROC Post Winkleigh Master Post","coordinates":[-3.962488,50.867856]},{"code":"B/G-0170","program":"wwbota","name":"ROC Post Witheridge","coordinates":[-3.753913,50.888265]},{"code":"B/G-0192","program":"wwbota","name":"ROC Post Bow","coordinates":[-3.797414,50.81053]}]}