{"lat":50.75,"lon":23.25,"programs":["pota"],"count":5,"references":[{"code":"PL-0046","program":"pota","name":"Głęboka Dolina Nature Reserve","coordinates":[23.4421,50.9049]},{"code":"PL-0061","program":"pota","name":"Broczówka Nature Reserve","coordinates":[23.3687,50.8681]},{"code":"PL-0084","program":"pota","name":"Skierbieszowski Landscape Park","coordinates":[23.3548,50.8567]},{"code":"PL-1983","program":"pota","name":"Dolina Wolicy Natura 2000","coordinates":[23.4461,50.8264]},{"code":"PL-1989","program":"pota","name":"Horodysko Natura 2000","coordinates":[23.4035,50.8235]}]}