{"lat":50.75,"lon":0.75,"programs":["pota","wwbota"],"count":7,"references":[{"code":"GB-0160","program":"pota","name":"Rye Harbour Nature Reserve","coordinates":[0.767485,50.9343]},{"code":"GB-0226","program":"pota","name":"Dungeness RSPB Reserve","coordinates":[0.951653,50.9287]},{"code":"GB-0253","program":"pota","name":"Romney Marsh RSPB Reserve","coordinates":[0.940123,50.9291]},{"code":"B/G-0402","program":"wwbota","name":"ROC Post Brookland","coordinates":[0.831569,50.994281]},{"code":"B/G-0407","program":"wwbota","name":"ROC Post Dungeness","coordinates":[0.88216,50.943573]},{"code":"B/G-1097","program":"wwbota","name":"Chain Home - Rye","coordinates":[0.801877,50.97458]},{"code":"B/G-2610","program":"wwbota","name":"Stone in Oxney Pillbox","coordinates":[0.765495,50.996009]}]}