{"lat":50.75,"lon":18.25,"programs":["pota"],"count":6,"references":[{"code":"PL-1448","program":"pota","name":"Kamieniec Nature Reserve","coordinates":[18.2887,50.8298]},{"code":"PL-1456","program":"pota","name":"Smolnik Nature Reserve","coordinates":[18.2519,50.8367]},{"code":"PL-2189","program":"pota","name":"Pradolina i źródliska rzeki Stobrawa Nature and Landscape Complex","coordinates":[18.4056,50.8622]},{"code":"PL-2783","program":"pota","name":"Duży Park Miejski Nature and Landscape Complex","coordinates":[18.425,50.8756]},{"code":"PL-2875","program":"pota","name":"Osiczyńskie Modrzewie Nature Reserve","coordinates":[18.3711,50.8103]},{"code":"PL-2877","program":"pota","name":"Kozłowickie Grądy Nature Reserve","coordinates":[18.4341,50.9606]}]}