{"lat":50.75,"lon":-3,"programs":["gma","pota","sota","wwbota"],"count":14,"references":[{"code":"G/HSC-008","program":"gma","name":"Lamberts Castle Hill","coordinates":[-2.89505,50.78533]},{"code":"G/HSC-013","program":"gma","name":"St Rayn Hill","coordinates":[-2.85487,50.8847]},{"code":"GB-0568","program":"pota","name":"Barrington Hill National Nature Reserve","coordinates":[-2.99888,50.9475]},{"code":"GB-0652","program":"pota","name":"Lamberts Castle Site of Significant Scientific Interest","coordinates":[-2.89343,50.7832]},{"code":"GB-4733","program":"pota","name":"Chard Reservoir Local Nature Reserve","coordinates":[-2.9378,50.8882]},{"code":"GB-4734","program":"pota","name":"Herne Hill Nature Reserve","coordinates":[-2.92083,50.9215]},{"code":"GB-5848","program":"pota","name":"Trinity Hill Local Nature Reserve","coordinates":[-2.98324,50.7585]},{"code":"GB-6053","program":"pota","name":"Bincombe Beeches Nature Reserve","coordinates":[-2.79287,50.8868]},{"code":"G/SC-009","program":"sota","name":"Lewesdon Hill","coordinates":[-2.799345,50.807316]},{"code":"B/G-0712","program":"wwbota","name":"ROC Post Chard","coordinates":[-2.983666,50.877515]},{"code":"B/G-0713","program":"wwbota","name":"ROC Post Hatch Beauchamp","coordinates":[-2.98179,50.991018]},{"code":"B/G-0718","program":"wwbota","name":"ROC Post Crewkerne","coordinates":[-2.812669,50.860846]},{"code":"B/G-2731","program":"wwbota","name":"Chaffcombe Lane Pillbox","coordinates":[-2.941166,50.888189]},{"code":"B/G-2732","program":"wwbota","name":"The Drift, Horn Moor Pillbox","coordinates":[-2.934369,50.857855]}]}