{"lat":50.75,"lon":-120,"programs":["pota","sota"],"count":10,"references":[{"code":"CA-3901","program":"pota","name":"Niskonlith Lake Provincial Park","coordinates":[-119.772,50.8022]},{"code":"VE7/TN-006","program":"sota","name":"Mt. Tod","coordinates":[-119.9417,50.9167]},{"code":"VE7/TN-007","program":"sota","name":"Mount Morrisey","coordinates":[-119.9014,50.8608]},{"code":"VE7/TN-498","program":"sota","name":"Mount Cahilty","coordinates":[-119.8785,50.9558]},{"code":"VE7/TN-522","program":"sota","name":"Mount Leslie","coordinates":[-119.9506,50.9824]},{"code":"VE7/TN-615","program":"sota","name":"Shaw Hill","coordinates":[-119.9798,50.8192]},{"code":"VE7/TN-663","program":"sota","name":"Bruhn Ridge","coordinates":[-119.7605,50.9422]},{"code":"VE7/TN-703","program":"sota","name":"VE7/TN-703","coordinates":[-119.8337,50.78]},{"code":"VE7/TN-717","program":"sota","name":"VE7/TN-717","coordinates":[-119.8923,50.756]},{"code":"VE7/TN-789","program":"sota","name":"VE7/TN-789","coordinates":[-119.7602,50.7744]}]}