{"lat":50.75,"lon":13.25,"programs":["gma","wwbota"],"count":15,"references":[{"code":"DA/SX-016","program":"gma","name":"Burgberg","coordinates":[13.46109962,50.81280136]},{"code":"DA/SX-124","program":"gma","name":"Waltersdorfer Höhe","coordinates":[13.27939987,50.77190018]},{"code":"DA/SX-151","program":"gma","name":"Schützenberg","coordinates":[13.382453,50.764772]},{"code":"DA/SX-153","program":"gma","name":"Alpstein","coordinates":[13.35999966,50.81689835]},{"code":"DA/SX-155","program":"gma","name":"Bernhardshöhe","coordinates":[13.38809967,50.8205986]},{"code":"DA/SX-158","program":"gma","name":"Lips Tulian Felsen","coordinates":[13.46749973,50.92810059]},{"code":"DA/SX-167","program":"gma","name":"Tännicht","coordinates":[13.46000004,50.92639923]},{"code":"DA/SX-219","program":"gma","name":"Langenauer Tännicht","coordinates":[13.3028698,50.8164711]},{"code":"DA/SX-417","program":"gma","name":"Schmohl-Höhe","coordinates":[13.412918,50.922406]},{"code":"DA/SX-486","program":"gma","name":"Hutberg bei Voigtsdorf","coordinates":[13.400699,50.760512]},{"code":"DA/SX-489","program":"gma","name":"Schattenberg","coordinates":[13.348958,50.779425]},{"code":"DA/SX-491","program":"gma","name":"Steinberg bei Zethau","coordinates":[13.371153,50.782706]},{"code":"DA/SX-494","program":"gma","name":"Feste","coordinates":[13.441849,50.809376]},{"code":"DA/SX-495","program":"gma","name":"Karlshöhe","coordinates":[13.400377,50.802812]},{"code":"B/DL-0909","program":"wwbota","name":"KEL Freiberg","coordinates":[13.464333,50.971846]}]}