{"lat":50.75,"lon":5,"programs":["pota","wwbota"],"count":13,"references":[{"code":"BE-0097","program":"pota","name":"Monnikshof National Park","coordinates":[5.21024,50.9283]},{"code":"BE-0121","program":"pota","name":"Schulensbroek Nature Reserve","coordinates":[5.1443,50.9564]},{"code":"BE-0122","program":"pota","name":"Kelsbroek Nature Reserve","coordinates":[5.15576,50.8537]},{"code":"BE-0526","program":"pota","name":"domein Nieuwenhoven National Park","coordinates":[5.21816,50.8594]},{"code":"BE-0547","program":"pota","name":"WILLEKENSBERG National Park","coordinates":[5.15857,50.9823]},{"code":"BE-0556","program":"pota","name":"VELPEVALLEI National Park","coordinates":[5.0568,50.924]},{"code":"BE-0252","program":"pota","name":"Het Vinne Nature Reserve","coordinates":[5.13575,50.8448]},{"code":"BE-0256","program":"pota","name":"Beemden Park","coordinates":[5.08564,50.765]},{"code":"BE-0283","program":"pota","name":"Papenbroek Nature Reserve","coordinates":[5.0268,50.9577]},{"code":"BE-0525","program":"pota","name":"Citadelbos van Diest. National Historic Site","coordinates":[5.04287,50.9818]},{"code":"BE-0537","program":"pota","name":"Webbekoms Broek National Park","coordinates":[5.07432,50.9784]},{"code":"BE-0548","program":"pota","name":"LAZARIJBERG (DIEST) National Park","coordinates":[5.05202,50.996]},{"code":"B/ON-2327","program":"wwbota","name":"Bunker Sint-Truiden","coordinates":[5.1663515,50.7777095]}]}