{"lat":51,"lon":0.75,"programs":["pota","wwbota"],"count":23,"references":[{"code":"GB-0109","program":"pota","name":"Ham Street Woods National Nature Reserve","coordinates":[0.858849,51.0683]},{"code":"GB-0247","program":"pota","name":"Kent Downs National Landscape","coordinates":[0.998432,51.1374]},{"code":"GB-0326","program":"pota","name":"Wye and Crundale Downs Conservation Reserve","coordinates":[0.969853,51.1683]},{"code":"GB-0377","program":"pota","name":"Conningbrook Lakes Country Park","coordinates":[0.903518,51.1532]},{"code":"GB-4362","program":"pota","name":"Hothfield Common & Heathlands Nature Reserve and Site of Significant Scientific Interest","coordinates":[0.816992,51.1766]},{"code":"GB-4474","program":"pota","name":"Repton Park and Nature Reserve","coordinates":[0.850974,51.1566]},{"code":"GB-6286","program":"pota","name":"Victoria & Watercress Fields Park","coordinates":[0.860481,51.1447]},{"code":"GB-6287","program":"pota","name":"Singleton Lake Scenic Reserve","coordinates":[0.845266,51.1437]},{"code":"GB-6288","program":"pota","name":"Ashford Green Corridor Nature Reserve","coordinates":[0.880483,51.1334]},{"code":"GB-6289","program":"pota","name":"Ashford Community Woodland Nature Reserve","coordinates":[0.833465,51.1364]},{"code":"GB-6290","program":"pota","name":"Poulton Wood Nature Reserve","coordinates":[0.940251,51.0898]},{"code":"B/G-0401","program":"wwbota","name":"ROC Post Bethersden","coordinates":[0.756077,51.131992]},{"code":"B/G-0405","program":"wwbota","name":"ROC Post Hamstreet","coordinates":[0.862661,51.06404]},{"code":"B/G-0408","program":"wwbota","name":"ROC Post Sevington","coordinates":[0.916765,51.127642]},{"code":"B/G-0409","program":"wwbota","name":"ROC Post Wye","coordinates":[0.938187,51.176845]},{"code":"B/G-1457","program":"wwbota","name":"Snargate Auxiliary Unit Operational Base (OB)","coordinates":[0.82599838,51.01987]},{"code":"B/G-1498","program":"wwbota","name":"Hamstreet Auxiliary Station","coordinates":[0.87062278,51.072749]},{"code":"B/G-2090","program":"wwbota","name":"The Garth, Bilting bunker","coordinates":[0.94115,51.20667]},{"code":"B/G-2091","program":"wwbota","name":"Godmersham bunker","coordinates":[0.93372,51.21239]},{"code":"B/G-2562","program":"wwbota","name":"Appledore Bridge Pillbox","coordinates":[0.789707,51.027633]},{"code":"B/G-2564","program":"wwbota","name":"Ashford Pillbox Cluster","coordinates":[0.86585,51.109356]},{"code":"B/G-2585","program":"wwbota","name":"Military Canal Pillbox","coordinates":[0.794627,51.036268]},{"code":"B/G-2615","program":"wwbota","name":"Warehorne Pillbox","coordinates":[0.831691,51.053764]}]}