{"lat":51,"lon":13.5,"programs":["gma","pota","wwbota"],"count":23,"references":[{"code":"DA/SX-062","program":"gma","name":"Boselspitze","coordinates":[13.511526,51.14165]},{"code":"DA/SX-278","program":"gma","name":"Steinhübel bei Unkersdorf","coordinates":[13.589261,51.050953]},{"code":"DA/SX-492","program":"gma","name":"Zechstein","coordinates":[13.610308,51.124123]},{"code":"DA/SX-501","program":"gma","name":"Hoher Stein bei Coswig","coordinates":[13.607323,51.135164]},{"code":"DA/SX-620","program":"gma","name":"Brotberg","coordinates":[13.684144,51.229619]},{"code":"DA/SX-621","program":"gma","name":"Meissner Berg","coordinates":[13.711825,51.211852]},{"code":"DA/SX-622","program":"gma","name":"Hellerberg","coordinates":[13.739442,51.107377]},{"code":"DA/SX-623","program":"gma","name":"Gallberg","coordinates":[13.69411,51.120925]},{"code":"DA/SX-624","program":"gma","name":"Herrenkuppe","coordinates":[13.618636,51.084622]},{"code":"DA/SX-653","program":"gma","name":"Juchhöh","coordinates":[13.50317,51.145287]},{"code":"DA/SX-654","program":"gma","name":"Schweizerhöhe","coordinates":[13.586048,51.166936]},{"code":"DA/SX-655","program":"gma","name":"Fuchsberg","coordinates":[13.597883,51.147954]},{"code":"DA/SX-658","program":"gma","name":"Ratsweinberg","coordinates":[13.582926,51.1717]},{"code":"DA/SX-685","program":"gma","name":"Halde Volkersdorf","coordinates":[13.744213,51.151906]},{"code":"DA/SX-688","program":"gma","name":"Spitzberg bei Coswig","coordinates":[13.59862,51.14439]},{"code":"DA/SX-689","program":"gma","name":"Gohlberg","coordinates":[13.570789,51.095002]},{"code":"DA/SX-707","program":"gma","name":"Hohe Burg","coordinates":[13.6659354,51.1678069]},{"code":"DA/SX-708","program":"gma","name":"Jägerberg","coordinates":[13.686685,51.112507]},{"code":"DE-0394","program":"pota","name":"Elbtal zwischen Schöna und Mühlberg Natura 2000","coordinates":[13.6137,51.0991]},{"code":"DE-0688","program":"pota","name":"Moritzburger Kleinkuppenlandschaft Natura 2000","coordinates":[13.7254,51.1554]},{"code":"B/DL-0264","program":"wwbota","name":"Luftschutz Edelstahlwerk Freital","coordinates":[13.646975,51.003717]},{"code":"B/DL-0584","program":"wwbota","name":"Führungsbunker 7. PD Dresden","coordinates":[13.613466,51.071427]},{"code":"B/DL-0592","program":"wwbota","name":"Zivilschutzbunker Dresden Liliengasse","coordinates":[13.727921,51.04709]}]}