{"lat":51,"lon":15.75,"programs":["pota","sota"],"count":7,"references":[{"code":"PL-1750","program":"pota","name":"Chełmy Landscape Park","coordinates":[15.9808,51.0234]},{"code":"PL-1775","program":"pota","name":"Wilcza Góra Nature Reserve","coordinates":[15.9112,51.1046]},{"code":"PL-1791","program":"pota","name":"Ostrzyca Proboszczowicka Protected Landscape Area","coordinates":[15.7752,51.0622]},{"code":"PL-1792","program":"pota","name":"Ostrzyca Proboszczowicka Nature Reserve","coordinates":[15.7631,51.0561]},{"code":"PL-2231","program":"pota","name":"Grodziec Protected Landscape Area","coordinates":[15.7633,51.1764]},{"code":"PL-2855","program":"pota","name":"Ostrzyca Proboszczowicka Natura 2000","coordinates":[15.7642,51.0561]},{"code":"SP/SZ-011","program":"sota","name":"Ostrzyca (Ostrzyca Proboszczowicka)","coordinates":[15.7632,51.056]}]}