{"lat":51,"lon":-115.5,"programs":["gma","pota","sota","wwbota"],"count":18,"references":[{"code":"VA6/AS-001","program":"gma","name":"Rundle4","coordinates":[-115.455,51.11]},{"code":"VA6/JF-001","program":"gma","name":"Hope Peak (Middle Sister)","coordinates":[-115.34100342,51.02199936]},{"code":"CA-1167","program":"pota","name":"Canmore Nordic Centre Provincial Park","coordinates":[-115.386,51.0903]},{"code":"VE6/AS-002","program":"sota","name":"Mount Rundle","coordinates":[-115.47026,51.12416]},{"code":"VE6/AS-004","program":"sota","name":"Goatview Peak","coordinates":[-115.445755,51.023056]},{"code":"VE6/AS-041","program":"sota","name":"Rundle1","coordinates":[-115.49425,51.147938]},{"code":"VE6/HC-015","program":"sota","name":"Grotto Mountain","coordinates":[-115.268295,51.088295]},{"code":"VE6/HC-116","program":"sota","name":"Mount Girouard","coordinates":[-115.402794,51.236073]},{"code":"VE6/HC-131","program":"sota","name":"Mount Inglismaldie","coordinates":[-115.421844,51.241608]},{"code":"VE6/HC-147","program":"sota","name":"Mount Peechee","coordinates":[-115.376854,51.209908]},{"code":"VE6/HC-178","program":"sota","name":"Mount Charles Stewart","coordinates":[-115.33407,51.155514]},{"code":"VE6/HC-259","program":"sota","name":"Aesop Peak","coordinates":[-115.2607,51.1244]},{"code":"VE6/HC-324","program":"sota","name":"Saddle SW1","coordinates":[-115.2855,51.2125]},{"code":"VE6/HC-332","program":"sota","name":"Grotto N1","coordinates":[-115.2583,51.0982]},{"code":"VE6/JF-018","program":"sota","name":"Faith Peak","coordinates":[-115.35314,51.014187]},{"code":"VE6/JF-026","program":"sota","name":"Charity Peak","coordinates":[-115.33151,51.02496]},{"code":"VE6/JF-028","program":"sota","name":"Mount Lawrence Grassi","coordinates":[-115.39162,51.053116]},{"code":"B/CA-0077","program":"wwbota","name":"FRP EG44","coordinates":[-115.3597129,51.08924283]}]}