{"lat":51,"lon":9,"programs":["gma","sota","wwbota"],"count":29,"references":[{"code":"DA/HE-084","program":"gma","name":"Orthberg","coordinates":[9.1328001,51.05189896]},{"code":"DA/HE-186","program":"gma","name":"Rambachs Koepfchen","coordinates":[9.17580032,51.17309952]},{"code":"DA/HE-187","program":"gma","name":"Elmsberg","coordinates":[9.03890038,51.15250015]},{"code":"DA/HE-188","program":"gma","name":"Ochsenwurzelkopf","coordinates":[9.02359962,51.16640091]},{"code":"DA/HE-189","program":"gma","name":"Schloss Waldeck","coordinates":[9.05580044,51.20360184]},{"code":"DA/HE-258","program":"gma","name":"Bilsteinklippen","coordinates":[9.09664,51.12818]},{"code":"DA/HE-321","program":"gma","name":"Hahnberg","coordinates":[9.06309986,51.10359955]},{"code":"DA/HE-323","program":"gma","name":"Ochsenwurzelskopf","coordinates":[9.02530003,51.16719818]},{"code":"DA/HE-430","program":"gma","name":"Wurmberg","coordinates":[9,51]},{"code":"DA/HE-437","program":"gma","name":"Große Aschkoppe","coordinates":[9.02726,51.068377]},{"code":"DA/HE-494","program":"gma","name":"Hinterberg","coordinates":[9.23999977,51.19329834]},{"code":"DA/HE-497","program":"gma","name":"Hoheberg","coordinates":[9.23939991,51.15859985]},{"code":"DA/HE-501","program":"gma","name":"Kahle Hardt","coordinates":[9.0017004,51.18920135]},{"code":"DA/HE-520","program":"gma","name":"Wartberg","coordinates":[9.21829987,51.24670029]},{"code":"DA/HE-524","program":"gma","name":"Bismarckhoehe","coordinates":[9.08647,51.11583]},{"code":"DA/HE-526","program":"gma","name":"Hundsburg","coordinates":[9.2292,51.07031]},{"code":"DA/HE-533","program":"gma","name":"Koepfchen","coordinates":[9.22809,51.0771]},{"code":"DA/HE-534","program":"gma","name":"Jungfernkopf","coordinates":[9.23349,51.08983]},{"code":"DA/HE-535","program":"gma","name":"Klauskopf","coordinates":[9.24457,51.21167]},{"code":"DA/HE-540","program":"gma","name":"Kuhberg","coordinates":[9.22251,51.2394]},{"code":"DA/HE-541","program":"gma","name":"Dachsberg","coordinates":[9.24392,51.18138]},{"code":"DM/HE-023","program":"sota","name":"Wüstegarten","coordinates":[9.0842,51.0164]},{"code":"DM/HE-029","program":"sota","name":"Hohes Lohr","coordinates":[9.0217,51.0261]},{"code":"DM/HE-047","program":"sota","name":"Auenberg","coordinates":[9.076551,51.065334]},{"code":"DM/HE-088","program":"sota","name":"Homberg","coordinates":[9.0889,51.1197]},{"code":"DM/HE-165","program":"sota","name":"Altenburg","coordinates":[9.2108,51.0453]},{"code":"DM/HE-517","program":"sota","name":"Dicker Kopf","coordinates":[9.0231,51.1494]},{"code":"DM/HE-568","program":"sota","name":"Wolfschur","coordinates":[9.09,51.1333]},{"code":"B/DL-1066","program":"wwbota","name":"GSVBw 45 - Jesberg","coordinates":[9.14679,51.001039]}]}