{"lat":51,"lon":-0.75,"programs":["gma","pota","sota","wwbota"],"count":18,"references":[{"code":"G/HSE-007","program":"gma","name":"Gibbet Hill","coordinates":[-0.71557999,51.11532974]},{"code":"GB-0107","program":"pota","name":"Ebernoe Common National Nature Reserve","coordinates":[-0.609603,51.0416]},{"code":"GB-0117","program":"pota","name":"Thursley Hankley & Frensham Commons National Nature Reserve","coordinates":[-0.737544,51.1601]},{"code":"GB-0243","program":"pota","name":"Wealden Heaths SPA - Devil's Punch Bowl Site of Significant Scientific Interest","coordinates":[-0.71723,51.1168]},{"code":"GB-4298","program":"pota","name":"Aldershot Park","coordinates":[-0.743021,51.2351]},{"code":"GB-4324","program":"pota","name":"Stoke Park","coordinates":[-0.565466,51.2449]},{"code":"GB-4325","program":"pota","name":"Newlands Corner Nature Reserve","coordinates":[-0.508505,51.2332]},{"code":"GB-5061","program":"pota","name":"Hascombe Hill Scenic Site","coordinates":[-0.563139,51.1387]},{"code":"GB-5087","program":"pota","name":"Lammas Lands Nature Reserve","coordinates":[-0.611927,51.1883]},{"code":"G/SE-003","program":"sota","name":"Black Down","coordinates":[-0.689389,51.05863]},{"code":"B/G-0793","program":"wwbota","name":"ROC Post Milford","coordinates":[-0.646578,51.179301]},{"code":"B/G-0794","program":"wwbota","name":"ROC Post Wormley","coordinates":[-0.646512,51.103313]},{"code":"B/G-0795","program":"wwbota","name":"ROC Post Hog's Back","coordinates":[-0.60504,51.228272]},{"code":"B/G-0796","program":"wwbota","name":"ROC Post Cranleigh","coordinates":[-0.546813,51.112458]},{"code":"B/G-0812","program":"wwbota","name":"ROC Post Fernhurst","coordinates":[-0.717754,51.047643]},{"code":"B/G-1240","program":"wwbota","name":"Airfield Battle HQ - Dunsfold","coordinates":[-0.545265,51.11172]},{"code":"B/G-1537","program":"wwbota","name":"Alfold WW2 Underground Air-Raid Shelter","coordinates":[-0.540315,51.092098]},{"code":"B/G-2353","program":"wwbota","name":"Shalford Thames Water Control Centre","coordinates":[-0.57222,51.221966]}]}