{"lat":51,"lon":-116.25,"programs":["sota"],"count":6,"references":[{"code":"VE6/AS-015","program":"sota","name":"Mount Ball","coordinates":[-116.00781,51.15604]},{"code":"VE6/AS-020","program":"sota","name":"Storm Mountain","coordinates":[-116.00492,51.207745]},{"code":"VE6/AS-044","program":"sota","name":"Isabelle Peak","coordinates":[-116.00953,51.126003]},{"code":"VE6/AS-074","program":"sota","name":"Stanley Peak NE1","coordinates":[-116.022,51.187]},{"code":"VE6/AS-075","program":"sota","name":"Stanley Peak NE2","coordinates":[-116.0066,51.1901]},{"code":"VE7/EN-009","program":"sota","name":"Numa Mtn","coordinates":[-116.1183,51.0833]}]}