{"lat":51,"lon":17,"programs":["pota","wwbota"],"count":5,"references":[{"code":"PL-2208","program":"pota","name":"Szczytnicki Nature and Landscape Complex","coordinates":[17.0931,51.1111]},{"code":"PL-2614","program":"pota","name":"Grądy w Dolinie Odry Natura 2000","coordinates":[17.2341,51.0306]},{"code":"B/SP-0259","program":"wwbota","name":"Magazyn amunicji Ramiszów","coordinates":[17.1180820268066,51.1819543399758]},{"code":"B/SP-0260","program":"wwbota","name":"Schron piechoty Bartoszowice","coordinates":[17.1307451102932,51.1028021385441]},{"code":"B/SP-0261","program":"wwbota","name":"Schron mobilizacyjny U2","coordinates":[17.1331660732875,51.1061656398417]}]}