{"lat":51,"lon":-2.75,"programs":["gma","pota","wwbota"],"count":9,"references":[{"code":"G/HSC-006","program":"gma","name":"Glastonbury Tor","coordinates":[-2.69885993,51.14474106]},{"code":"G/HSC-015","program":"gma","name":"The Beacon","coordinates":[-2.5244801,51.00880051]},{"code":"GB-0283","program":"pota","name":"Ebbor Gorge National Nature Reserve","coordinates":[-2.68736,51.2331]},{"code":"GB-4846","program":"pota","name":"Glastonbury Tor & St Michael's Tower Scenic Site","coordinates":[-2.6989,51.1445]},{"code":"B/G-0721","program":"wwbota","name":"ROC Post Glastonbury","coordinates":[-2.727372,51.140353]},{"code":"B/G-0725","program":"wwbota","name":"ROC Post Marston Magna","coordinates":[-2.585716,51.027217]},{"code":"B/G-0726","program":"wwbota","name":"ROC Post Shepton Mallett","coordinates":[-2.568227,51.182688]},{"code":"B/G-1218","program":"wwbota","name":"Airfield Battle HQ - Charlton Horethorne","coordinates":[-2.501797,51.020324]},{"code":"B/G-1448","program":"wwbota","name":"Wells Auxiliary Unit Operational Base (OB)","coordinates":[-2.6188954,51.19493]}]}