{"lat":51,"lon":-116.5,"programs":["sota"],"count":17,"references":[{"code":"VE7/CE-002","program":"sota","name":"Mt. Goodsir, South Tower","coordinates":[-116.3967,51.2017]},{"code":"VE7/CE-019","program":"sota","name":"Mt. Goodsir North Tower","coordinates":[-116.41449,51.210766]},{"code":"VE7/CE-031","program":"sota","name":"Sentry Peak","coordinates":[-116.382744,51.195602]},{"code":"VE7/CE-065","program":"sota","name":"Martins Peak","coordinates":[-116.42397,51.233513]},{"code":"VE7/CE-083","program":"sota","name":"Zinc Mountain","coordinates":[-116.39838,51.173397]},{"code":"VE7/CE-091","program":"sota","name":"Mt. Mollison","coordinates":[-116.39423,51.13236]},{"code":"VE7/CE-097","program":"sota","name":"Mt. Drysdale","coordinates":[-116.27283,51.149857]},{"code":"VE7/CE-113","program":"sota","name":"Hanbury Peak","coordinates":[-116.45818,51.245235]},{"code":"VE7/CE-126","program":"sota","name":"Manganese Mountain","coordinates":[-116.39602,51.15548]},{"code":"VE7/CE-127","program":"sota","name":"Aquila Mountain","coordinates":[-116.49461,51.190712]},{"code":"VE7/CE-148","program":"sota","name":"Striped Mountain","coordinates":[-116.32033,51.13346]},{"code":"VE7/CE-153","program":"sota","name":"Aquila SE1","coordinates":[-116.48001,51.18027]},{"code":"VE7/CE-264","program":"sota","name":"McKeeman Peak","coordinates":[-116.48604,51.06083]},{"code":"VE7/CE-265","program":"sota","name":"Castle Mountain","coordinates":[-116.44846,51.039425]},{"code":"VE7/CE-294","program":"sota","name":"Outsharp Peak","coordinates":[-116.31631,51.229946]},{"code":"VE7/CE-296","program":"sota","name":"Castle NW1","coordinates":[-116.46616,51.055336]},{"code":"VE7/CE-299","program":"sota","name":"Castle SE2","coordinates":[-116.39664,51.016045]}]}