{"lat":51,"lon":-1.75,"programs":["pota","wwbota"],"count":10,"references":[{"code":"GB-0158","program":"pota","name":"Winterbourne Downs RSPB Reserve","coordinates":[-1.69884,51.1555]},{"code":"GB-1280","program":"pota","name":"Danebury Hillfort Site of Significant Scientific Interest","coordinates":[-1.53951,51.1376]},{"code":"GB-3251","program":"pota","name":"Pepperbox Hill National Historical Site","coordinates":[-1.69907,51.0227]},{"code":"B/G-0306","program":"wwbota","name":"ROC Post Grateley","coordinates":[-1.61766,51.166091]},{"code":"B/G-0308","program":"wwbota","name":"ROC Post Lockerley","coordinates":[-1.555532,51.022986]},{"code":"B/G-0893","program":"wwbota","name":"ROC Post Alderbury","coordinates":[-1.706243,51.022203]},{"code":"B/G-1626","program":"wwbota","name":"RAF Middle Wallop, WW2 ground defence bunker cluster","coordinates":[-1.573943,51.146774]},{"code":"B/G-2048","program":"wwbota","name":"Dean's Hill Bunker","coordinates":[-1.62658,51.03667]},{"code":"B/G-2116","program":"wwbota","name":"Pitton WW2 Airfield bombing decoy control bunker","coordinates":[-1.722417,51.09043]},{"code":"B/G-2117","program":"wwbota","name":"WW2 Airfield bombing decoy control bunker","coordinates":[-1.539594,51.106282]}]}