{"lat":51,"lon":18,"programs":["pota"],"count":5,"references":[{"code":"PL-1501","program":"pota","name":"Komorzno Nature Reserve","coordinates":[18.0437,51.1235]},{"code":"PL-1503","program":"pota","name":"Krzywiczyny Nature Reserve","coordinates":[18.044,51.1077]},{"code":"PL-2134","program":"pota","name":"Stara Buczyna w Rakowie Nature Reserve","coordinates":[18.0755,51.1921]},{"code":"PL-2155","program":"pota","name":"Oles w Dolinie Pomianki Nature Reserve","coordinates":[18.0759,51.177]},{"code":"PL-2166","program":"pota","name":"Las Łęgowy w Dolinie Pomianki Nature Reserve","coordinates":[18.0809,51.1679]}]}