{"lat":51,"lon":5,"programs":["gma","pota","wwbota"],"count":29,"references":[{"code":"OP/LB-001","program":"gma","name":"Mijnterril Beringen","coordinates":[5.235942,51.073128]},{"code":"BE-0033","program":"pota","name":"Buitegoor Nature Reserve","coordinates":[5.18138,51.2181]},{"code":"BE-0034","program":"pota","name":"De Maat Nature Reserve","coordinates":[5.19549,51.2353]},{"code":"BE-0054","program":"pota","name":"De Most Nature Reserve","coordinates":[5.24824,51.1717]},{"code":"BE-0059","program":"pota","name":"Molse Nete Nature Reserve","coordinates":[5.15212,51.1877]},{"code":"BE-0060","program":"pota","name":"Belse Bossen Wildlife Area","coordinates":[5.07088,51.1523]},{"code":"BE-0091","program":"pota","name":"Prinsenpark National Forest","coordinates":[5.04693,51.2328]},{"code":"BE-0546","program":"pota","name":"Ossebroeken-Swinnebroeken National Park","coordinates":[5.04054,51.0889]},{"code":"BE-0098","program":"pota","name":"Gerheserbossen Nature Reserve","coordinates":[5.21707,51.1168]},{"code":"BE-0099","program":"pota","name":"Mijnterril Beringen National Park","coordinates":[5.23723,51.0734]},{"code":"BE-0101","program":"pota","name":"Waaltjesbos National Park","coordinates":[5.24926,51.2229]},{"code":"BE-0115","program":"pota","name":"Houterenberg-Pinnekenswijer National Park","coordinates":[5.02924,51.0413]},{"code":"BE-0130","program":"pota","name":"Gerheserheide Nature Reserve","coordinates":[5.21854,51.1245]},{"code":"BE-0134","program":"pota","name":"Gerhoeven-De Rammelaars Nature Reserve","coordinates":[5.13227,51.1127]},{"code":"BE-0532","program":"pota","name":"Gerhagen Park","coordinates":[5.00975,51.0485]},{"code":"BE-0534","program":"pota","name":"Vallei van de Drie Beken National Park","coordinates":[5.11537,51.033]},{"code":"BE-0555","program":"pota","name":"VALLEI VAN DE GROTE BEEK National Park","coordinates":[5.1894,51.0856]},{"code":"BE-0533","program":"pota","name":"Dassenaarde Park","coordinates":[5.04393,51.0115]},{"code":"BE-0545","program":"pota","name":"CATSELT National Park","coordinates":[5.00133,51.0226]},{"code":"B/ON-0042","program":"wwbota","name":"Lommel","coordinates":[5.228497,51.239419]},{"code":"B/ON-0077","program":"wwbota","name":"Mol-Rauw 1","coordinates":[5.208869,51.239133]},{"code":"B/ON-0079","program":"wwbota","name":"Witgoor","coordinates":[5.160714,51.245661]},{"code":"B/ON-0109","program":"wwbota","name":"Mol","coordinates":[5.195661,51.240111]},{"code":"B/ON-0111","program":"wwbota","name":"Mol-Rauw 2","coordinates":[5.216619,51.237183]},{"code":"B/ON-0112","program":"wwbota","name":"Witgoor","coordinates":[5.162797,51.239656]},{"code":"B/ON-0224","program":"wwbota","name":"Bunker 4f Grensstelling Bocholt Kanaal","coordinates":[5.2262417,51.2389361]},{"code":"B/ON-0227","program":"wwbota","name":"Bunker 2f Grensstelling Bocholt Kanaal","coordinates":[5.209304,51.238017]},{"code":"B/ON-2306","program":"wwbota","name":"Bunker Lommel Lm 1","coordinates":[5.2157692,51.2372065]},{"code":"B/ON-2506","program":"wwbota","name":"Bunker Mol Ml 1","coordinates":[5.2005044,51.2401121]}]}