{"lat":51,"lon":23.5,"programs":["pota"],"count":12,"references":[{"code":"PL-0018","program":"pota","name":"Żmudź Nature Reserve","coordinates":[23.6693,51.0097]},{"code":"PL-0035","program":"pota","name":"Chełmski Landscape Park","coordinates":[23.5133,51.1836]},{"code":"PL-0078","program":"pota","name":"Chełmski Protected Landscape Area","coordinates":[23.6547,51.1016]},{"code":"PL-2031","program":"pota","name":"Kumów Majoracki Natura 2000","coordinates":[23.5489,51.0133]},{"code":"PL-2053","program":"pota","name":"Żmudź Natura 2000","coordinates":[23.6753,51.0067]},{"code":"PL-2075","program":"pota","name":"Bagno Serebryskie Nature Reserve","coordinates":[23.5256,51.1722]},{"code":"PL-2116","program":"pota","name":"Chełmskie Torfowiska Węglanowe Natura 2000","coordinates":[23.5911,51.1583]},{"code":"PL-2183","program":"pota","name":"Wolwinów Nature Reserve","coordinates":[23.5133,51.1164]},{"code":"PL-2223","program":"pota","name":"Roskosz Nature Reserve","coordinates":[23.6608,51.1442]},{"code":"PL-2629","program":"pota","name":"Kamień Natura 2000","coordinates":[23.5706,51.1097]},{"code":"PL-2779","program":"pota","name":"Torfowiska Chełmskie Natura 2000","coordinates":[23.5911,51.1583]},{"code":"PL-2781","program":"pota","name":"Las Żaliński Natura 2000","coordinates":[23.685,51.1789]}]}