{"lat":51,"lon":-115.75,"programs":["pota","sota","wwbota"],"count":30,"references":[{"code":"CA-4773","program":"pota","name":"Banff Park Museum National Historic Site","coordinates":[-115.572,51.174]},{"code":"CA-4775","program":"pota","name":"Cave and Basin National Historic Site","coordinates":[-115.589,51.1699]},{"code":"CA-4784","program":"pota","name":"Sulphur Mountain Cosmic Ray Station National Historic Site","coordinates":[-115.579,51.147]},{"code":"CA-6075","program":"pota","name":"Banff Springs Hotel National Historic Site","coordinates":[-115.562,51.1642]},{"code":"VE6/AS-011","program":"sota","name":"Citadel Peak","coordinates":[-115.71762,51.01721]},{"code":"VE6/AS-013","program":"sota","name":"Sulphur Mountain","coordinates":[-115.55574,51.123512]},{"code":"VE6/AS-040","program":"sota","name":"Fatigue Mountain","coordinates":[-115.692856,51.028145]},{"code":"VE6/AS-050","program":"sota","name":"Sundance Peak","coordinates":[-115.6095,51.084347]},{"code":"VE6/AS-055","program":"sota","name":"Mount Howard Douglas","coordinates":[-115.73453,51.085842]},{"code":"VE6/AS-082","program":"sota","name":"Fatigue N1","coordinates":[-115.7068,51.0484]},{"code":"VE6/AS-088","program":"sota","name":"Sundance SE2","coordinates":[-115.6073,51.0759]},{"code":"VE6/AS-089","program":"sota","name":"Nasswald NE1","coordinates":[-115.6309,51.0079]},{"code":"VE6/AS-090","program":"sota","name":"Beersheba NW2","coordinates":[-115.5484,51.0118]},{"code":"VE6/AS-093","program":"sota","name":"Sundance SE1","coordinates":[-115.5741,51.0486]},{"code":"VE6/AS-094","program":"sota","name":"Sundance NW1","coordinates":[-115.6283,51.0985]},{"code":"VE6/AS-095","program":"sota","name":"Howard Douglas N1","coordinates":[-115.716,51.1034]},{"code":"VE6/HC-006","program":"sota","name":"Cascade Ridge","coordinates":[-115.56878,51.24747]},{"code":"VE6/HC-014","program":"sota","name":"Mount Cory","coordinates":[-115.68934,51.201305]},{"code":"VE6/HC-019","program":"sota","name":"Mount Edith South Peak","coordinates":[-115.663,51.201523]},{"code":"VE6/HC-020","program":"sota","name":"Mount Norquay","coordinates":[-115.63486,51.199932]},{"code":"VE6/HC-034","program":"sota","name":"Stoney Woman Mountain","coordinates":[-115.57823,51.19957]},{"code":"VE6/HC-035","program":"sota","name":"Tunnel Mountain","coordinates":[-115.55446,51.176624]},{"code":"VE6/HC-182","program":"sota","name":"Cockscomb Mountain","coordinates":[-115.72481,51.236946]},{"code":"VE6/HC-191","program":"sota","name":"Mount Fifi","coordinates":[-115.69788,51.218014]},{"code":"VE6/HC-201","program":"sota","name":"Mount Louis","coordinates":[-115.67923,51.21511]},{"code":"VE6/HC-208","program":"sota","name":"Mount Edith North Peak","coordinates":[-115.66947,51.205753]},{"code":"VE6/HC-277","program":"sota","name":"Cascade Mountain","coordinates":[-115.5626,51.2294]},{"code":"VE6/HC-325","program":"sota","name":"The Finger","coordinates":[-115.7196,51.2201]},{"code":"VE6/JS-004","program":"sota","name":"Eagle Mountain","coordinates":[-115.7447,51.097702]},{"code":"B/CA-0142","program":"wwbota","name":"FRP EF22","coordinates":[-115.5590577,51.16066883]}]}