{"lat":51.25,"lon":8,"programs":["gma","pota","sota"],"count":12,"references":[{"code":"DA/NW-271","program":"gma","name":"Kehlberg","coordinates":[8.09829998,51.32860184]},{"code":"DA/NW-294","program":"gma","name":"Großes Sonnenstück","coordinates":[8.09669971,51.30310059]},{"code":"DA/NW-296","program":"gma","name":"Dümberg","coordinates":[8.06169987,51.30110168]},{"code":"DA/NW-297","program":"gma","name":"Ramberg","coordinates":[8.08720016,51.29330063]},{"code":"DA/NW-298","program":"gma","name":"Hohe Liete","coordinates":[8.0656004,51.28689957]},{"code":"DA/NW-305","program":"gma","name":"Welsberg","coordinates":[8.23139954,51.3205986]},{"code":"DA/NW-308","program":"gma","name":"Hellefelder Hoehe","coordinates":[8.08419991,51.34389877]},{"code":"DA/NW-314","program":"gma","name":"Hardt","coordinates":[8.07830048,51.32249832]},{"code":"DE-0061","program":"pota","name":"Arnsberger Wald Nature Park","coordinates":[8.18592,51.4594]},{"code":"DE-0959","program":"pota","name":"WestfalenWanderWeg National Recreation Trail","coordinates":[8.15687,51.4927]},{"code":"DM/NW-206","program":"sota","name":"Homert","coordinates":[8.1064,51.2639]},{"code":"DM/NW-265","program":"sota","name":"Hoher Ransenberg","coordinates":[8.2037,51.3109]}]}