{"lat":51.25,"lon":-116,"programs":["gma","pota","sota","wwbota"],"count":34,"references":[{"code":"VA6/HC-001","program":"gma","name":"Protection Mountain (Television Peak)","coordinates":[-115.98500061,51.35400009]},{"code":"CA-0005","program":"pota","name":"Banff National Park","coordinates":[-115.928,51.4968]},{"code":"VE6/HC-001","program":"sota","name":"Bonnet Peak","coordinates":[-115.884865,51.434105]},{"code":"VE6/HC-004","program":"sota","name":"Noetic Peak","coordinates":[-115.810234,51.358612]},{"code":"VE6/HC-005","program":"sota","name":"Pulsatilla Mountain","coordinates":[-115.96679,51.391586]},{"code":"VE6/HC-011","program":"sota","name":"Helena Peak","coordinates":[-115.929924,51.32753]},{"code":"VE6/HC-013","program":"sota","name":"Castle Mountain","coordinates":[-115.96661,51.32659]},{"code":"VE6/HC-075","program":"sota","name":"Lychnis Mountain","coordinates":[-115.96936,51.48176]},{"code":"VE6/HC-092","program":"sota","name":"Hickson Peak","coordinates":[-115.919044,51.422146]},{"code":"VE6/HC-105","program":"sota","name":"Noetic W3","coordinates":[-115.856476,51.35309]},{"code":"VE6/HC-123","program":"sota","name":"Protection Mountain (Television Peak)","coordinates":[-115.98404,51.352543]},{"code":"VE6/HC-126","program":"sota","name":"Mount Avens","coordinates":[-115.98479,51.412525]},{"code":"VE6/HC-132","program":"sota","name":"Mystic Peak","coordinates":[-115.77633,51.29029]},{"code":"VE6/HC-134","program":"sota","name":"Cuthead Peak","coordinates":[-115.77409,51.460236]},{"code":"VE6/HC-136","program":"sota","name":"Flints Peak","coordinates":[-115.76049,51.43935]},{"code":"VE6/HC-146","program":"sota","name":"Block Mountain","coordinates":[-115.84933,51.377274]},{"code":"VE6/HC-157","program":"sota","name":"Mount Ishbel","coordinates":[-115.7748,51.26538]},{"code":"VE6/HC-269","program":"sota","name":"Halstead Peak","coordinates":[-115.887,51.4794]},{"code":"VE6/HC-282","program":"sota","name":"Cuthead N1","coordinates":[-115.7843,51.4764]},{"code":"VE6/HC-285","program":"sota","name":"Brim Peak","coordinates":[-115.8719,51.4521]},{"code":"VE6/HC-286","program":"sota","name":"Noetic Peak S1","coordinates":[-115.8042,51.3457]},{"code":"VE6/HC-287","program":"sota","name":"EH88","coordinates":[-115.7896,51.4856]},{"code":"VE6/HC-295","program":"sota","name":"Aquiline Peak","coordinates":[-115.9138,51.3823]},{"code":"VE6/HC-297","program":"sota","name":"Bonnet SE1","coordinates":[-115.8198,51.4385]},{"code":"VE6/HC-305","program":"sota","name":"VE6/HC-305","coordinates":[-115.8372,51.4741]},{"code":"VE6/HC-306","program":"sota","name":"Noetic W1","coordinates":[-115.8289,51.3618]},{"code":"VE6/HC-308","program":"sota","name":"Badger Peak","coordinates":[-115.9007,51.3983]},{"code":"VE6/HC-310","program":"sota","name":"VE6/HC-310","coordinates":[-115.8554,51.4651]},{"code":"VE6/HC-315","program":"sota","name":"Bonnet SE2","coordinates":[-115.8289,51.4108]},{"code":"VE6/HC-317","program":"sota","name":"Hickson S1","coordinates":[-115.9304,51.4113]},{"code":"VE6/HC-322","program":"sota","name":"Noetic Peak S2","coordinates":[-115.8437,51.3407]},{"code":"VE6/HC-327","program":"sota","name":"Noetic Peak N1","coordinates":[-115.7996,51.3758]},{"code":"VE6/HC-334","program":"sota","name":"Noetic Peak SE1","coordinates":[-115.7529,51.34]},{"code":"B/CA-0138","program":"wwbota","name":"FRP?? 52","coordinates":[-115.9657409,51.32734863]}]}