{"lat":51.25,"lon":3,"programs":["pota","wwbota"],"count":83,"references":[{"code":"BE-0289","program":"pota","name":"Oudemaarspolder Nature Reserve","coordinates":[3.18023,51.3238]},{"code":"BE-0290","program":"pota","name":"Baai van Heist Nature Reserve","coordinates":[3.2294,51.3417]},{"code":"BE-0291","program":"pota","name":"Sashul Nature Reserve","coordinates":[3.22778,51.3361]},{"code":"BE-0292","program":"pota","name":"Vuurtorenweiden Nature Reserve","coordinates":[3.23075,51.3382]},{"code":"BE-0293","program":"pota","name":"Kleiputten van Heist Nature Reserve","coordinates":[3.23165,51.3278]},{"code":"BE-0294","program":"pota","name":"Palingpotweiden Nature Reserve","coordinates":[3.22909,51.3281]},{"code":"BE-0297","program":"pota","name":"Zandpanne Nature Reserve","coordinates":[3.05243,51.2858]},{"code":"BE-0298","program":"pota","name":"Duinbossen van Den Haan Nature Reserve","coordinates":[3.05315,51.2838]},{"code":"BE-0301","program":"pota","name":"Uitkerkse Polders Nature Reserve","coordinates":[3.13391,51.2912]},{"code":"BE-0315","program":"pota","name":"Terdoest & kanaalberm Lissewege National Park","coordinates":[3.2079,51.2793]},{"code":"BE-0549","program":"pota","name":"De Sashul Natuurgebied en de Vuurtorenweide National Park","coordinates":[3.22695,51.3375]},{"code":"B/ON-0546","program":"wwbota","name":"Stutzpunkte (Stp) \"Blankenberghe Mole\"","coordinates":[3.115943,51.311044]},{"code":"B/ON-0547","program":"wwbota","name":"Duits Weerstandsnest Pier Blankenberge","coordinates":[3.137139,51.320277]},{"code":"B/ON-1447","program":"wwbota","name":"Bunker 1 Airfield Uitkerke","coordinates":[3.1549667,51.2927833]},{"code":"B/ON-1448","program":"wwbota","name":"Bunker 2 Airfield Uitkerke","coordinates":[3.1543278,51.2949111]},{"code":"B/ON-1516","program":"wwbota","name":"Duitse Munitie Bunkers x 4 Vlissegem","coordinates":[3.0476917,51.2506389]},{"code":"B/ON-1517","program":"wwbota","name":"Duitse Bunker Vlissegem","coordinates":[3.049225,51.2502222]},{"code":"B/ON-1518","program":"wwbota","name":"Duitse Bunker + 2 x Munitie Bunkers Vlissegem","coordinates":[3.0507111,51.2506]},{"code":"B/ON-1519","program":"wwbota","name":"Duitse Bunker Vlissegem","coordinates":[3.0514194,51.2500972]},{"code":"B/ON-1520","program":"wwbota","name":"Duitse Luchtafweer Bunker Vlissegem","coordinates":[3.0515278,51.2518306]},{"code":"B/ON-1523","program":"wwbota","name":"Duitse Bunker 1 De Haan","coordinates":[3.0191889,51.2704278]},{"code":"B/ON-1524","program":"wwbota","name":"Duitse Bunker De Haan ST502","coordinates":[3.0178444,51.2710889]},{"code":"B/ON-1525","program":"wwbota","name":"Duitse Bunker De Haan ST198","coordinates":[3.0203444,51.2721722]},{"code":"B/ON-1526","program":"wwbota","name":"Duitse Bunker De Haan FuMG 40","coordinates":[3.0188778,51.2726167]},{"code":"B/ON-1527","program":"wwbota","name":"Duitse Bunker De Haan ST 195","coordinates":[3.0197583,51.2731028]},{"code":"B/ON-1528","program":"wwbota","name":"Duitse Luchtafweer Bunker De Haan","coordinates":[3.0171167,51.2721778]},{"code":"B/ON-1529","program":"wwbota","name":"Duitse Bunker 2 De Haan","coordinates":[3.0151556,51.2718944]},{"code":"B/ON-1530","program":"wwbota","name":"Duitse Bunker 3 De Haan","coordinates":[3.0142972,51.2706722]},{"code":"B/ON-1531","program":"wwbota","name":"Duitse Bunker 4 De Haan","coordinates":[3.01305,51.2704389]},{"code":"B/ON-1532","program":"wwbota","name":"Duitse Bunker 5 De Haan","coordinates":[3.0121139,51.2702333]},{"code":"B/ON-1533","program":"wwbota","name":"Duitse Bunker De Haan ST502","coordinates":[3.0210722,51.2739611]},{"code":"B/ON-1534","program":"wwbota","name":"Duitse Bunker De Haan FuMO 3","coordinates":[3.0209778,51.2745222]},{"code":"B/ON-1535","program":"wwbota","name":"Duitse Bunker De Haan FuMO 2","coordinates":[3.0227,51.2748972]},{"code":"B/ON-1536","program":"wwbota","name":"Duitse Bunker De Haan ST 622","coordinates":[3.0239694,51.2753583]},{"code":"B/ON-1537","program":"wwbota","name":"Duitse Bunker 6 De Haan","coordinates":[3.0247361,51.2751889]},{"code":"B/ON-1538","program":"wwbota","name":"Duitse MG Bunker De Haan","coordinates":[3.0258278,51.2736889]},{"code":"B/ON-1539","program":"wwbota","name":"Duitse Bunker De Haan ST 622","coordinates":[3.0256222,51.275825]},{"code":"B/ON-1540","program":"wwbota","name":"Duitse Bunker APX 1 De Haan","coordinates":[3.0333167,51.2797306]},{"code":"B/ON-1541","program":"wwbota","name":"Duitse Bunker APX 2 De Haan","coordinates":[3.0364472,51.2812028]},{"code":"B/ON-1542","program":"wwbota","name":"Duitse Bunker De Haan VF 2a","coordinates":[3.0383694,51.2811444]},{"code":"B/ON-1543","program":"wwbota","name":"Duitse Bunker De Haan ST 622","coordinates":[3.0395556,51.2810833]},{"code":"B/ON-1544","program":"wwbota","name":"Duitse Bunker De Haan VF 7a","coordinates":[3.0393889,51.2819444]},{"code":"B/ON-1545","program":"wwbota","name":"Duitse MG Bunker De Haan","coordinates":[3.0406861,51.2827944]},{"code":"B/ON-1546","program":"wwbota","name":"Duitse MG Bunker De Haan","coordinates":[3.0426472,51.2835917]},{"code":"B/ON-1547","program":"wwbota","name":"Duitse Bunker De Haan FK","coordinates":[3.047675,51.2854972]},{"code":"B/ON-1548","program":"wwbota","name":"Commando Communicatie Bunker","coordinates":[3.0497944,51.2802889]},{"code":"B/ON-1549","program":"wwbota","name":"Part Communicatie Bunker","coordinates":[3.0480222,51.2794583]},{"code":"B/ON-1550","program":"wwbota","name":"Commando Bunker Wenduine","coordinates":[3.0703694,51.2944417]},{"code":"B/ON-1551","program":"wwbota","name":"Bunker 1 Wenduine","coordinates":[3.0764278,51.298275]},{"code":"B/ON-1552","program":"wwbota","name":"Bunker 2 Wenduine","coordinates":[3.0747917,51.2985778]},{"code":"B/ON-1553","program":"wwbota","name":"Bunker 3 Wenduine","coordinates":[3.0764111,51.3000306]},{"code":"B/ON-1554","program":"wwbota","name":"Duitse Bunker ST 680 Blankenberge","coordinates":[3.1118556,51.3120194]},{"code":"B/ON-1555","program":"wwbota","name":"Duitse Bunker VF 2a Blankenberge","coordinates":[3.1411,51.31935]},{"code":"B/ON-1556","program":"wwbota","name":"Bunker 1 Blankenberge","coordinates":[3.1544778,51.3083389]},{"code":"B/ON-1557","program":"wwbota","name":"Bunker 2 Blankenberge","coordinates":[3.125225,51.3055528]},{"code":"B/ON-1558","program":"wwbota","name":"Duitse Bunker ST 688 Zeebrugge","coordinates":[3.1741139,51.3196722]},{"code":"B/ON-1559","program":"wwbota","name":"Duitse Bunker Zeebrugge","coordinates":[3.1742889,51.3192583]},{"code":"B/ON-1560","program":"wwbota","name":"Duitse Bunker 2 Zeebrugge","coordinates":[3.1750167,51.3186111]},{"code":"B/ON-1561","program":"wwbota","name":"Duitse Bunker 3 Zeebrugge","coordinates":[3.1771333,51.3191861]},{"code":"B/ON-1562","program":"wwbota","name":"Bunker Navo Brandstofdepot 1 Lissewege","coordinates":[3.203254,51.3040587]},{"code":"B/ON-1563","program":"wwbota","name":"Bunker Navo Brandstofdepot 2 Lissewege","coordinates":[3.2037139,51.3029806]},{"code":"B/ON-1564","program":"wwbota","name":"Bunker Navo Brandstofdepot 3 Lissewege","coordinates":[3.2039917,51.3018611]},{"code":"B/ON-1565","program":"wwbota","name":"Duitse Bunker ST 502 Lissewege","coordinates":[3.1918444,51.2980167]},{"code":"B/ON-1566","program":"wwbota","name":"Duitse Bunker VF 2a x 3 Lissewege","coordinates":[3.1928083,51.2976389]},{"code":"B/ON-1567","program":"wwbota","name":"Duitse Bunker AA 1/652 Lissewege","coordinates":[3.1935583,51.2901944]},{"code":"B/ON-1568","program":"wwbota","name":"Duitse Bunker FA Lissewege","coordinates":[3.1922889,51.2892472]},{"code":"B/ON-1569","program":"wwbota","name":"Duitse Munitie Bunker 2x Lissewege","coordinates":[3.1904889,51.2890917]},{"code":"B/ON-1570","program":"wwbota","name":"Duitse Bunker AA 1/652 2x Lissewege","coordinates":[3.1891,51.288775]},{"code":"B/ON-1571","program":"wwbota","name":"Duitse Bunker ST 622 Lissewege","coordinates":[3.1873306,51.2879167]},{"code":"B/ON-1572","program":"wwbota","name":"Duitse Bunker E 687 2x Lissewege","coordinates":[3.1857611,51.2880194]},{"code":"B/ON-1573","program":"wwbota","name":"Duitse Bunker E 687 Lissewege","coordinates":[3.1872056,51.2871111]},{"code":"B/ON-1574","program":"wwbota","name":"Duitse Bunker ST 119 Lissewege","coordinates":[3.185925,51.2870722]},{"code":"B/ON-1575","program":"wwbota","name":"Duitse Bunker ST 622 2x Lissewege","coordinates":[3.1842611,51.2872417]},{"code":"B/ON-1576","program":"wwbota","name":"Duitse Bunker E 687 Lissewege","coordinates":[3.1842417,51.2878056]},{"code":"B/ON-1577","program":"wwbota","name":"Duitse luchtafweer Bunker Lissewege","coordinates":[3.1830722,51.2876167]},{"code":"B/ON-1578","program":"wwbota","name":"Duitse Munitie Bunker Lissewege","coordinates":[3.1932639,51.2875972]},{"code":"B/ON-1579","program":"wwbota","name":"Duitse Bunker E 687 Lissewege","coordinates":[3.1917194,51.2860444]},{"code":"B/ON-1580","program":"wwbota","name":"Duitse Bunker E 687 Lissewege","coordinates":[3.1904472,51.2860917]},{"code":"B/ON-1583","program":"wwbota","name":"Schuilkelder Zeebrugge","coordinates":[3.2450389,51.3373444]},{"code":"B/ON-2041","program":"wwbota","name":"Bunker Brugge Bg 1","coordinates":[3.1835319,51.2875985]},{"code":"B/ON-2042","program":"wwbota","name":"Bunker Brugge Bg 2","coordinates":[3.1848529,51.2873379]},{"code":"B/ON-2064","program":"wwbota","name":"Bunker De Haan Dh 2","coordinates":[3.0479212,51.2502871]},{"code":"B/ON-2065","program":"wwbota","name":"Bunker De Haan Dh 3","coordinates":[3.0177266,51.2708767]}]}