{"lat":51.25,"lon":-0.5,"programs":["pota","wwbota"],"count":28,"references":[{"code":"GB-0094","program":"pota","name":"Surrey Hills National Landscape","coordinates":[-0.312483,51.2531]},{"code":"GB-0267","program":"pota","name":"Richmond Royal Park National Nature Reserve","coordinates":[-0.274495,51.4402]},{"code":"GB-0309","program":"pota","name":"Thames Basin Heaths SPA - Wisley and Ockham Common SPA/SSSI Protected Area","coordinates":[-0.45058,51.3172]},{"code":"GB-0332","program":"pota","name":"South West London Waterbodies Protected Area","coordinates":[-0.496871,51.4495]},{"code":"GB-0413","program":"pota","name":"Norbury Park Country Park","coordinates":[-0.33333,51.2834]},{"code":"GB-1241","program":"pota","name":"Box Hill Country Park","coordinates":[-0.309815,51.2545]},{"code":"GB-1283","program":"pota","name":"Laleham and Riverside Park","coordinates":[-0.487109,51.4016]},{"code":"GB-1366","program":"pota","name":"Epsom Common Nature Reserve","coordinates":[-0.297224,51.3323]},{"code":"GB-1367","program":"pota","name":"Ashtead common Nature Reserve","coordinates":[-0.307967,51.3278]},{"code":"GB-1573","program":"pota","name":"Bushy Park","coordinates":[-0.344892,51.418]},{"code":"GB-3183","program":"pota","name":"Horton Country Park","coordinates":[-0.290504,51.3521]},{"code":"GB-3184","program":"pota","name":"Hogsmill Nature Reserve","coordinates":[-0.267918,51.3617]},{"code":"GB-3192","program":"pota","name":"Langley Vale Wood Forest Reserve","coordinates":[-0.273323,51.3023]},{"code":"GB-3369","program":"pota","name":"Four Acre Wood Nature Reserve","coordinates":[-0.295203,51.3496]},{"code":"GB-3776","program":"pota","name":"Berrylands Nature Reserve","coordinates":[-0.279648,51.3939]},{"code":"GB-3777","program":"pota","name":"Elmbridge Meadows Nature Reserve","coordinates":[-0.273428,51.3926]},{"code":"GB-5201","program":"pota","name":"Harmondsworth Moor & Great Barn Country Park","coordinates":[-0.490261,51.4892]},{"code":"GB-6455","program":"pota","name":"Gunnersbury Country Park","coordinates":[-0.290584,51.4972]},{"code":"B/G-0532","program":"wwbota","name":"ROC Post Hounslow","coordinates":[-0.4338,51.462607]},{"code":"B/G-0798","program":"wwbota","name":"ROC Post Weybridge","coordinates":[-0.447586,51.382938]},{"code":"B/G-0799","program":"wwbota","name":"ROC Post Oxshott","coordinates":[-0.355421,51.348229]},{"code":"B/G-0801","program":"wwbota","name":"ROC Post Headley","coordinates":[-0.274398,51.272605]},{"code":"B/G-0802","program":"wwbota","name":"ROC Post Mortlake","coordinates":[-0.25817,51.45887]},{"code":"B/G-0803","program":"wwbota","name":"ROC Post New Malden","coordinates":[-0.258328,51.413101]},{"code":"B/G-1419","program":"wwbota","name":"Hayes Sub Area Control","coordinates":[-0.43191155,51.495336]},{"code":"B/G-1509","program":"wwbota","name":"Richmond WW2 Air Raid Shelter","coordinates":[-0.269538,51.467275]},{"code":"B/G-1620","program":"wwbota","name":"Marble Hill WW2 Air Raid Shelter","coordinates":[-0.313788,51.452378]},{"code":"B/G-1754","program":"wwbota","name":"RAF Brooklands, WW2 defence bunker cluster","coordinates":[-0.464765,51.355506]}]}