{"lat":51.25,"lon":-119.75,"programs":["sota"],"count":7,"references":[{"code":"VE7/TN-483","program":"sota","name":"Blomley Peak","coordinates":[-119.6744,51.2617]},{"code":"VE7/TN-535","program":"sota","name":"Bendelin Peak","coordinates":[-119.6108,51.4371]},{"code":"VE7/TN-538","program":"sota","name":"Caelum Peak","coordinates":[-119.573,51.3466]},{"code":"VE7/TN-551","program":"sota","name":"DG61","coordinates":[-119.6144,51.3604]},{"code":"VE7/TN-566","program":"sota","name":"Caelum SE2","coordinates":[-119.5624,51.3327]},{"code":"VE7/TN-606","program":"sota","name":"VE7/TN-606","coordinates":[-119.6694,51.3944]},{"code":"VE7/TN-617","program":"sota","name":"Saskum Mountain","coordinates":[-119.6922,51.3281]}]}