{"lat":51.25,"lon":-120.25,"programs":["pota","sota","wwbota"],"count":16,"references":[{"code":"CA-3333","program":"pota","name":"Chu Chua Cottonwood Provincial Park","coordinates":[-120.169,51.3389]},{"code":"CA-3334","program":"pota","name":"Chukachida Protected Area","coordinates":[-120.169,51.3389]},{"code":"CA-3448","program":"pota","name":"Eakin Creek Canyon Provincial Park","coordinates":[-120.227,51.4516]},{"code":"CA-3908","program":"pota","name":"North Thompson Islands Provincial Park","coordinates":[-120.177,51.3711]},{"code":"VE7/TN-327","program":"sota","name":"Baldy Mountain","coordinates":[-120.0375,51.463]},{"code":"VE7/TN-367","program":"sota","name":"VE7/TN-367","coordinates":[-120.0139,51.463]},{"code":"VE7/TN-475","program":"sota","name":"DA02","coordinates":[-120.0242,51.3095]},{"code":"VE7/TN-740","program":"sota","name":"Mount Olie","coordinates":[-120.2021,51.4614]},{"code":"VE7/TN-746","program":"sota","name":"Bess Peak","coordinates":[-120.1457,51.4928]},{"code":"VE7/TN-749","program":"sota","name":"VE7/TN-749","coordinates":[-120.1117,51.4938]},{"code":"VE7/TN-750","program":"sota","name":"Mount Loveway","coordinates":[-120.2059,51.4949]},{"code":"VE7/TN-752","program":"sota","name":"Mount Fennell","coordinates":[-120.1408,51.4122]},{"code":"VE7/TN-755","program":"sota","name":"EB35","coordinates":[-120.1527,51.4343]},{"code":"VE7/TN-773","program":"sota","name":"DB85","coordinates":[-120.1596,51.3846]},{"code":"B/CA-0221","program":"wwbota","name":"FRP QG3","coordinates":[-120.2053428,51.42396533]},{"code":"B/CA-0222","program":"wwbota","name":"FRP QG4","coordinates":[-120.162017,51.35405273]}]}