{"lat":51.25,"lon":0.25,"programs":["gma","pota","wwbota"],"count":47,"references":[{"code":"G/HSE-021","program":"gma","name":"Wrotham Hill","coordinates":[0.28452,51.31681061]},{"code":"GB-0303","program":"pota","name":"Barnfield Pit National Nature Reserve","coordinates":[0.297954,51.4449]},{"code":"GB-0357","program":"pota","name":"Cliffe Pools RSPB Reserve","coordinates":[0.477017,51.4669]},{"code":"GB-0656","program":"pota","name":"Manor Park Country Park","coordinates":[0.407232,51.2878]},{"code":"GB-0658","program":"pota","name":"Leybourne Lakes Country Park","coordinates":[0.433468,51.3165]},{"code":"GB-1819","program":"pota","name":"Ranscombe Farm Country Park","coordinates":[0.457841,51.3889]},{"code":"GB-1820","program":"pota","name":"Jeskyns Country Park","coordinates":[0.391449,51.3971]},{"code":"GB-3243","program":"pota","name":"Thurrock Thameside Nature Park","coordinates":[0.439164,51.4998]},{"code":"GB-3378","program":"pota","name":"Ashenbank Wood Reserve","coordinates":[0.407665,51.3961]},{"code":"GB-3379","program":"pota","name":"Cobham Wood Reserve","coordinates":[0.433153,51.3882]},{"code":"GB-3525","program":"pota","name":"Broomhill Park","coordinates":[0.486623,51.4039]},{"code":"GB-3627","program":"pota","name":"Shorne Woods Country Park","coordinates":[0.418701,51.4038]},{"code":"GB-3628","program":"pota","name":"Beacon Wood Country Park","coordinates":[0.286629,51.4219]},{"code":"GB-3629","program":"pota","name":"Darenth Country Park","coordinates":[0.255317,51.4303]},{"code":"GB-3640","program":"pota","name":"Gordon Gardens and Promenade Park","coordinates":[0.377664,51.4431]},{"code":"GB-4209","program":"pota","name":"Wouldham to Detling Escarpment Site of Significant Scientific Interest","coordinates":[0.480456,51.3416]},{"code":"GB-4210","program":"pota","name":"Teston Bridge Country Park","coordinates":[0.445062,51.253]},{"code":"GB-4211","program":"pota","name":"Trosley Country Park","coordinates":[0.34167,51.3252]},{"code":"GB-4212","program":"pota","name":"Hailing to Trottiscliffe Escarpment Site of Significant Scientific Interest","coordinates":[0.405458,51.3402]},{"code":"GB-4213","program":"pota","name":"North Downs Woodlands Special Conservation Area","coordinates":[0.399285,51.3503]},{"code":"GB-4214","program":"pota","name":"Camer Country Park","coordinates":[0.375108,51.3786]},{"code":"GB-4215","program":"pota","name":"Rectory Meadow Nature Reserve","coordinates":[0.30299,51.3936]},{"code":"GB-4216","program":"pota","name":"Rede Common (Sandy Banks) Nature Reserve","coordinates":[0.469864,51.3964]},{"code":"GB-4274","program":"pota","name":"Baty's Marsh and Borstal Recreation Park Nature Reserve","coordinates":[0.484956,51.3778]},{"code":"GB-4275","program":"pota","name":"Chafford Gorges Nature Park","coordinates":[0.300957,51.4897]},{"code":"GB-4486","program":"pota","name":"Rochester Esplanade Gardens Park","coordinates":[0.499085,51.3886]},{"code":"GB-4601","program":"pota","name":"Woodlands Park","coordinates":[0.362617,51.4309]},{"code":"GB-4960","program":"pota","name":"Northfleet Urban Country Park","coordinates":[0.3387,51.437]},{"code":"GB-5529","program":"pota","name":"Linford Wood Local Nature Reserve","coordinates":[0.413029,51.4921]},{"code":"GB-5702","program":"pota","name":"Platinum Jubilee & Whitecliffe Lakes Country Park","coordinates":[0.303506,51.4329]},{"code":"GB-5713","program":"pota","name":"Watts Meadow Local Nature Reserve","coordinates":[0.497905,51.378]},{"code":"GB-5790","program":"pota","name":"Temple Marsh Nature Reserve","coordinates":[0.48822,51.3842]},{"code":"GB-6227","program":"pota","name":"Ditton Quarry Nature Reserve","coordinates":[0.459812,51.292]},{"code":"GB-6425","program":"pota","name":"Ingtham Mote Country Park","coordinates":[0.270351,51.2593]},{"code":"GB-6426","program":"pota","name":"Macey's Meadow Wildlife Reserve","coordinates":[0.403321,51.296]},{"code":"GB-6704","program":"pota","name":"Coalhouse Fort Historic & Country Park","coordinates":[0.433874,51.4648]},{"code":"B/G-0383","program":"wwbota","name":"ROC Post Greenhithe","coordinates":[0.312491,51.436771]},{"code":"B/G-0384","program":"wwbota","name":"ROC Post Borough Green","coordinates":[0.311793,51.291723]},{"code":"B/G-0386","program":"wwbota","name":"ROC Post Snodland","coordinates":[0.4318,51.323377]},{"code":"B/G-0388","program":"wwbota","name":"ROC Post Cliffe","coordinates":[0.492248,51.461235]},{"code":"B/G-1061","program":"wwbota","name":"AAOR Fort Bridgewoods","coordinates":[0.496331,51.359252]},{"code":"B/G-1113","program":"wwbota","name":"1950s War Room Gravesend - Region 6","coordinates":[0.364307,51.431145]},{"code":"B/G-1344","program":"wwbota","name":"Airfield Battle HQ - West Malling","coordinates":[0.402487,51.265075]},{"code":"B/G-1402","program":"wwbota","name":"Civil Defence Control Centre Gravesend","coordinates":[0.36429697,51.430829]},{"code":"B/G-2143","program":"wwbota","name":"Short Bros Underground works & Air Raid Shelter","coordinates":[0.4975832,51.3854038]},{"code":"B/G-2370","program":"wwbota","name":"Gravesend Airfield","coordinates":[0.404742,51.398328]},{"code":"B/G-2573","program":"wwbota","name":"Fort Borstal magazine","coordinates":[0.4888177179,51.37051908]}]}