{"lat":51.25,"lon":9,"programs":["gma","sota"],"count":8,"references":[{"code":"DA/HE-244","program":"gma","name":"Ofenberg","coordinates":[9.18999958,51.32749939]},{"code":"DA/HE-448","program":"gma","name":"Weidelsberg","coordinates":[9.144319,51.272917]},{"code":"DA/HE-458","program":"gma","name":"Escheberg","coordinates":[9.240858,51.40308]},{"code":"DA/HE-463","program":"gma","name":"Quast","coordinates":[9.036902,51.490839]},{"code":"DA/HE-492","program":"gma","name":"Heidelbeerenberg","coordinates":[9.162957,51.392011]},{"code":"DA/HE-558","program":"gma","name":"Schützeberg","coordinates":[9.195735,51.341187]},{"code":"DA/HE-592","program":"gma","name":"Graner Berg ","coordinates":[9.172642,51.307569]},{"code":"DM/HE-094","program":"sota","name":"Isthaberg","coordinates":[9.2192,51.3183]}]}