{"lat":51.25,"lon":15.75,"programs":["pota"],"count":5,"references":[{"code":"PL-1790","program":"pota","name":"Przemkowski Landscape Park","coordinates":[15.782,51.4425]},{"code":"PL-2762","program":"pota","name":"Jelonek Przemkowski Natura 2000","coordinates":[15.7578,51.4944]},{"code":"PL-2803","program":"pota","name":"Dolina Czarnej Wody Protected Landscape Area","coordinates":[15.9536,51.3333]},{"code":"PL-2867","program":"pota","name":"Lasy Chocianowskie Protected Landscape Area","coordinates":[15.9642,51.4355]},{"code":"PL-2870","program":"pota","name":"Czarne Stawy Nature Reserve","coordinates":[15.8742,51.4092]}]}