{"lat":51.25,"lon":-117.75,"programs":["pota","sota","wwbota"],"count":12,"references":[{"code":"CA-0028","program":"pota","name":"Glacier National Park","coordinates":[-117.53,51.3353]},{"code":"CA-4796","program":"pota","name":"Rogers Pass National Historic Site","coordinates":[-117.521,51.3012]},{"code":"VE7/CP-019","program":"sota","name":"Mt. Rogers","coordinates":[-117.54,51.3542]},{"code":"VE7/CP-034","program":"sota","name":"Hermit Mountain","coordinates":[-117.5178,51.3567]},{"code":"VE7/CP-039","program":"sota","name":"Nordic Mountain","coordinates":[-117.7039,51.4203]},{"code":"VE7/CP-051","program":"sota","name":"Grizzly Mountain","coordinates":[-117.5614,51.315]},{"code":"VE7/CP-052","program":"sota","name":"Ursus Minor Mountain","coordinates":[-117.5769,51.3106]},{"code":"VE7/CP-055","program":"sota","name":"Ursus Major Mountain","coordinates":[-117.6019,51.2981]},{"code":"VE7/CP-058","program":"sota","name":"Mt. McGill","coordinates":[-117.6569,51.275]},{"code":"VE7/CP-067","program":"sota","name":"Cheops Mountain","coordinates":[-117.5506,51.2825]},{"code":"VE7/CP-077","program":"sota","name":"Cougar Mountain","coordinates":[-117.6175,51.2669]},{"code":"B/CA-0312","program":"wwbota","name":"FRP CG3","coordinates":[-117.516296,51.26578093]}]}