{"lat":51.25,"lon":10,"programs":["gma","pota","sota"],"count":6,"references":[{"code":"DA/NI-331","program":"gma","name":"Alte Gleichen","coordinates":[10.03859997,51.46720123]},{"code":"DA/NI-332","program":"gma","name":"Eschenberg","coordinates":[10.04810047,51.45920181]},{"code":"DA/TH-037","program":"gma","name":"Warteberg","coordinates":[10.18640041,51.32279968]},{"code":"DE-0057","program":"pota","name":"Eichsfeld-Hainich-Werratal Nature Park","coordinates":[10.0977,51.3147]},{"code":"DE-1186","program":"pota","name":"Untereichsfeld - Ohmgebirge Bird Sanctuary","coordinates":[10.2099,51.4483]},{"code":"DM/TH-857","program":"sota","name":"Röhrigsberg","coordinates":[10.034,51.3452]}]}