{"lat":51.25,"lon":4,"programs":["pota","wwbota"],"count":10,"references":[{"code":"BE-0174","program":"pota","name":"De grote Geule National Park","coordinates":[4.17006,51.283]},{"code":"BE-0181","program":"pota","name":"Hedwige Prosperpolder Nature Reserve","coordinates":[4.23797,51.3441]},{"code":"BE-0182","program":"pota","name":"Paardenschor en Doelpolder Noord Nature Reserve","coordinates":[4.23929,51.3311]},{"code":"NL-0110","program":"pota","name":"Zoommeer - Molenplaat Provincial Park","coordinates":[4.23744,51.4919]},{"code":"NL-0060","program":"pota","name":"Verdronken Land Van Saeftinge Provincial Park","coordinates":[4.1477,51.3285]},{"code":"NL-0070","program":"pota","name":"Yerseke en Kapelse Moer Provincial Park","coordinates":[4.01752,51.4961]},{"code":"NL-0071","program":"pota","name":"Clingse bossen Provincial Park","coordinates":[4.0791,51.258]},{"code":"B/PA-0555","program":"wwbota","name":"Unknown","coordinates":[4.0328118,51.4672852]},{"code":"B/PA-0651","program":"wwbota","name":"Unknown","coordinates":[4.0319912,51.466895]},{"code":"B/PA-0720","program":"wwbota","name":"Unknown","coordinates":[4.032654,51.4893532]}]}