{"lat":51.25,"lon":-115.75,"programs":["sota"],"count":24,"references":[{"code":"VE6/HC-026","program":"sota","name":"Elaphus Peak","coordinates":[-115.61819,51.3267]},{"code":"VE6/HC-077","program":"sota","name":"Puma Peak","coordinates":[-115.616554,51.459877]},{"code":"VE6/HC-115","program":"sota","name":"Sira Peak","coordinates":[-115.694084,51.33426]},{"code":"VE6/HC-125","program":"sota","name":"Sira S4","coordinates":[-115.67885,51.29441]},{"code":"VE6/HC-160","program":"sota","name":"Psychic Peak","coordinates":[-115.51175,51.40546]},{"code":"VE6/HC-166","program":"sota","name":"Haunted Peak","coordinates":[-115.52092,51.39993]},{"code":"VE6/HC-223","program":"sota","name":"Sira NE5","coordinates":[-115.630714,51.353664]},{"code":"VE6/HC-268","program":"sota","name":"Stoney Peak","coordinates":[-115.5517,51.3988]},{"code":"VE6/HC-278","program":"sota","name":"EF39","coordinates":[-115.5902,51.4365]},{"code":"VE6/HC-279","program":"sota","name":"Cascade N1","coordinates":[-115.582,51.2681]},{"code":"VE6/HC-293","program":"sota","name":"DH71","coordinates":[-115.7148,51.371]},{"code":"VE6/HC-298","program":"sota","name":"EF60","coordinates":[-115.5065,51.4637]},{"code":"VE6/HC-301","program":"sota","name":"Sira S5","coordinates":[-115.6661,51.2662]},{"code":"VE6/HC-307","program":"sota","name":"Puma Peak N2","coordinates":[-115.6289,51.4766]},{"code":"VE6/HC-312","program":"sota","name":"Centerblock Peak","coordinates":[-115.5474,51.4406]},{"code":"VE6/HC-321","program":"sota","name":"Northhorn Peak","coordinates":[-115.6561,51.4886]},{"code":"VE6/HC-335","program":"sota","name":"Centerblock N2","coordinates":[-115.5505,51.4618]},{"code":"VE6/HC-336","program":"sota","name":"Cuthead E1","coordinates":[-115.7472,51.4689]},{"code":"VE6/HC-342","program":"sota","name":"EF76","coordinates":[-115.5664,51.4776]},{"code":"VE6/HC-353","program":"sota","name":"Puma NE1","coordinates":[-115.575,51.4908]},{"code":"VE6/HC-360","program":"sota","name":"Puma SW2","coordinates":[-115.6565,51.4046]},{"code":"VE6/HC-361","program":"sota","name":"Sira NE6","coordinates":[-115.646,51.3679]},{"code":"VE6/HC-378","program":"sota","name":"Puma SW3","coordinates":[-115.6787,51.4212]},{"code":"VE6/HC-429","program":"sota","name":"VE6/HC-429","coordinates":[-115.5172,51.2782]}]}