{"lat":51.25,"lon":14,"programs":["gma","pota","wwbota"],"count":28,"references":[{"code":"DA/SX-055","program":"gma","name":"Hutberg bei Kamenz","coordinates":[14.07803786,51.27206315]},{"code":"DA/SX-096","program":"gma","name":"Wüsteberg","coordinates":[14.05249977,51.25059891]},{"code":"DA/SX-303","program":"gma","name":"Walberg","coordinates":[14.04329967,51.26330185]},{"code":"DA/SX-718","program":"gma","name":"Heidelberg bei Kamenz","coordinates":[14.100324,51.250915]},{"code":"DE-0846","program":"pota","name":"Bergbaufolgelandschaft bei Hoyerswerda Natura 2000","coordinates":[14.2324,51.4906]},{"code":"B/DL-0111","program":"wwbota","name":"AFüSt – Dresden","coordinates":[14.04245,51.272614]},{"code":"B/DL-0350","program":"wwbota","name":"FRA-315","coordinates":[14.102674,51.314113]},{"code":"B/DL-0351","program":"wwbota","name":"KEL Hoyerswerda","coordinates":[14.149546,51.400028]},{"code":"B/DL-0376","program":"wwbota","name":"Lager VP Nardt","coordinates":[14.181976,51.446806]},{"code":"B/DL-1085","program":"wwbota","name":"FRA-315 TLF Garage 1","coordinates":[14.101757,51.313172]},{"code":"B/DL-1086","program":"wwbota","name":"FRA-315 TLF Garage 2","coordinates":[14.105415,51.3157]},{"code":"B/DL-1087","program":"wwbota","name":"FRA-315 TLF Garage 3","coordinates":[14.103999,51.315948]},{"code":"B/DL-1088","program":"wwbota","name":"FRA-315 TLF Garage 4","coordinates":[14.102637,51.316123]},{"code":"B/DL-1089","program":"wwbota","name":"FRA-315 Gefechtsstand","coordinates":[14.102551,51.314171]},{"code":"B/DL-1090","program":"wwbota","name":"FRA-315 Wachbunker","coordinates":[14.099525,51.313816]},{"code":"B/DL-1091","program":"wwbota","name":"FRA-315 Munitionsbunker","coordinates":[14.105211,51.314513]},{"code":"B/DL-1092","program":"wwbota","name":"FRA-315 Mannschaftsbunker / Garage","coordinates":[14.104482,51.314037]},{"code":"B/DL-1093","program":"wwbota","name":"FRR-31 Lagerbunker 1","coordinates":[14.092916,51.345719]},{"code":"B/DL-1094","program":"wwbota","name":"FRR-31 Lagerbunker 2","coordinates":[14.090234,51.345672]},{"code":"B/DL-1095","program":"wwbota","name":"FRR-31 Lagerbunker 3","coordinates":[14.089322,51.345471]},{"code":"B/DL-1096","program":"wwbota","name":"FRR-31 Lagerbunker 4","coordinates":[14.089472,51.344553]},{"code":"B/DL-1097","program":"wwbota","name":"FRR-31 Lagerbunker 5","coordinates":[14.085277,51.342047]},{"code":"B/DL-1098","program":"wwbota","name":"FRR-31 Munitionsbunker 1","coordinates":[14.079516,51.34137]},{"code":"B/DL-1099","program":"wwbota","name":"FRR-31 Munitionsbunker 2","coordinates":[14.079484,51.341048]},{"code":"B/DL-1100","program":"wwbota","name":"FRR-31 Munitionsbunker 3","coordinates":[14.079452,51.340391]},{"code":"B/DL-1101","program":"wwbota","name":"FRR-31 Generatorbunker","coordinates":[14.084408,51.344426]},{"code":"B/DL-1133","program":"wwbota","name":"Flugplatz Kamenz NFF Hauptlanderichtung","coordinates":[14.14327,51.31184]},{"code":"B/DL-1134","program":"wwbota","name":"Flugplatz Kamenz FFF Hauptlanderichtung","coordinates":[14.15986,51.32825]}]}