{"lat":51.25,"lon":-116.25,"programs":["sota"],"count":31,"references":[{"code":"VE6/GS-001","program":"sota","name":"Mount Temple","coordinates":[-116.206215,51.35064]},{"code":"VE6/GS-002","program":"sota","name":"Panorama Peak","coordinates":[-116.12214,51.30784]},{"code":"VE6/GS-003","program":"sota","name":"Fairview Mountain","coordinates":[-116.223526,51.399124]},{"code":"VE6/GS-008","program":"sota","name":"Deltaform Mountain","coordinates":[-116.24552,51.30167]},{"code":"VE6/GS-009","program":"sota","name":"Mount Allen","coordinates":[-116.22046,51.2915]},{"code":"VE6/GS-010","program":"sota","name":"Mount Tuzo","coordinates":[-116.228355,51.30136]},{"code":"VE6/GS-012","program":"sota","name":"Mount Fay","coordinates":[-116.16257,51.297752]},{"code":"VE6/GS-013","program":"sota","name":"Quadra Mountain","coordinates":[-116.15253,51.287045]},{"code":"VE6/GS-014","program":"sota","name":"Mount Aberdeen","coordinates":[-116.247665,51.37995]},{"code":"VE6/GS-015","program":"sota","name":"Mount Little","coordinates":[-116.18317,51.29523]},{"code":"VE6/GS-016","program":"sota","name":"Mount Babel","coordinates":[-116.16373,51.30634]},{"code":"VE6/GS-017","program":"sota","name":"Eiffel Peak","coordinates":[-116.235115,51.332275]},{"code":"VE6/GS-018","program":"sota","name":"Quadra S2","coordinates":[-116.15731,51.270977]},{"code":"VE6/GS-019","program":"sota","name":"Mount Bowlen","coordinates":[-116.18909,51.301266]},{"code":"VE6/GS-020","program":"sota","name":"Pinnacle Mountain","coordinates":[-116.227455,51.338535]},{"code":"VE6/GS-021","program":"sota","name":"Tonsa Peak","coordinates":[-116.200096,51.297523]},{"code":"VE6/GS-022","program":"sota","name":"Mount Bell","coordinates":[-116.10128,51.283527]},{"code":"VE6/GS-025","program":"sota","name":"Boom Mountain","coordinates":[-116.0792,51.25054]},{"code":"VE6/GS-026","program":"sota","name":"Boom W2","coordinates":[-116.11345,51.25466]},{"code":"VE6/GS-027","program":"sota","name":"Bell SE1","coordinates":[-116.0856,51.2768]},{"code":"VE6/GS-028","program":"sota","name":"Little Temple","coordinates":[-116.1869,51.3699]},{"code":"VE6/HC-017","program":"sota","name":"Anthozoan Mountain","coordinates":[-116.02745,51.46199]},{"code":"VE6/HC-018","program":"sota","name":"Brachiopod Mountain","coordinates":[-116.03696,51.481384]},{"code":"VE6/HC-088","program":"sota","name":"Mount Richardson","coordinates":[-116.1225,51.49583]},{"code":"VE6/HC-101","program":"sota","name":"Ptarmigan Peak","coordinates":[-116.09042,51.492218]},{"code":"VE6/HC-143","program":"sota","name":"Bulwark Peak","coordinates":[-116.03112,51.412697]},{"code":"VE6/HC-159","program":"sota","name":"Redoubt Mountain","coordinates":[-116.08107,51.467297]},{"code":"VE6/HC-174","program":"sota","name":"Armor Peak","coordinates":[-116.01957,51.39484]},{"code":"VE6/HC-199","program":"sota","name":"Lipalian Mountain","coordinates":[-116.097855,51.429077]},{"code":"VE6/HC-204","program":"sota","name":"Heather Ridge","coordinates":[-116.051544,51.472374]},{"code":"VE6/HC-206","program":"sota","name":"Whitehorn Mountain","coordinates":[-116.14197,51.467964]}]}