{"lat":51.25,"lon":5,"programs":["pota","wwbota"],"count":12,"references":[{"code":"BE-0002","program":"pota","name":"Goorken Nature Reserve","coordinates":[5.10793,51.328]},{"code":"BE-0021","program":"pota","name":"Ronde put Nature Reserve","coordinates":[5.16292,51.2876]},{"code":"BE-0031","program":"pota","name":"Landschap de Liereman Nature Reserve","coordinates":[5.02395,51.3294]},{"code":"BE-0061","program":"pota","name":"De Schrieken National Park","coordinates":[5.01449,51.4553]},{"code":"BE-0069","program":"pota","name":"Gewestbos Ravels Nature Reserve","coordinates":[5.0107,51.3606]},{"code":"BE-0071","program":"pota","name":"Tikkebroeken Nature Reserve","coordinates":[5.00064,51.2836]},{"code":"NL-0302","program":"pota","name":"Rovertsche Heide Park","coordinates":[5.10375,51.464]},{"code":"NL-0303","program":"pota","name":"Landgoed De Utrecht Landscape Park","coordinates":[5.13176,51.4347]},{"code":"NL-0304","program":"pota","name":"Gorp en Roovert Park","coordinates":[5.08456,51.483]},{"code":"B/ON-2507","program":"wwbota","name":"Bunker Dessel","coordinates":[5.1549197,51.2632778]},{"code":"B/ON-2508","program":"wwbota","name":"Bunker Mol Ml 2","coordinates":[5.1439739,51.2964148]},{"code":"B/ON-2509","program":"wwbota","name":"Bunker Arendonk","coordinates":[5.103179,51.3388333]}]}