{"lat":51.25,"lon":14.5,"programs":["gma","pota"],"count":5,"references":[{"code":"DA/SX-057","program":"gma","name":"Monumentberg","coordinates":[14.70427,51.2568]},{"code":"DA/SX-157","program":"gma","name":"Kollmer Dubrau","coordinates":[14.69779968,51.2635994]},{"code":"DA/SX-268","program":"gma","name":"Schwerer Berg","coordinates":[14.621953,51.487631]},{"code":"DA/SX-305","program":"gma","name":"Hohe Dubrau","coordinates":[14.6875,51.26250076]},{"code":"DE-0248","program":"pota","name":"Oberlausitzer Heide- und Teichlandschaft UNESCO Biosphere Reserve","coordinates":[14.579,51.2729]}]}