{"lat":51.25,"lon":14.75,"programs":["pota","wwbota"],"count":6,"references":[{"code":"DE-0511","program":"pota","name":"Niederspreer Teichgebiet und Kleine Heide Hähnichen Natura 2000","coordinates":[14.8954,51.3923]},{"code":"PL-1853","program":"pota","name":"Pieńska Dolina Nysy Łużyckiej Natura 2000","coordinates":[14.9848,51.3571]},{"code":"PL-2601","program":"pota","name":"Łęgi nad Nysą Łużycką Natura 2000","coordinates":[14.8569,51.4911]},{"code":"PL-2702","program":"pota","name":"Zacisze Nature Reserve","coordinates":[14.9919,51.4639]},{"code":"B/DL-0571","program":"wwbota","name":"FAG15, gedeckte Flugleitung, Rothenburg","coordinates":[14.955015,51.355638]},{"code":"B/DL-1084","program":"wwbota","name":"FTB-15 – Neusorge","coordinates":[14.917127,51.377161]}]}