{"lat":51.25,"lon":0,"programs":["pota","wwbota"],"count":38,"references":[{"code":"GB-0287","program":"pota","name":"Rainham Marshes RSPB Reserve","coordinates":[0.220449,51.4927]},{"code":"GB-0439","program":"pota","name":"Swanley Park Country Park","coordinates":[0.171368,51.4059]},{"code":"GB-0657","program":"pota","name":"Lullingstone Country Park","coordinates":[0.190892,51.3528]},{"code":"GB-1266","program":"pota","name":"North Downs Way National Scenic Trail","coordinates":[0.0651291,51.2875]},{"code":"GB-1577","program":"pota","name":"Crofton Woods Site of Significant Scientific Interest","coordinates":[0.0646828,51.3804]},{"code":"GB-3235","program":"pota","name":"Lyle Park","coordinates":[0.022955,51.4988]},{"code":"GB-3527","program":"pota","name":"Sevenoaks Wildlife Reserve","coordinates":[0.176575,51.2893]},{"code":"GB-3528","program":"pota","name":"Bradbourne Lakes Park Reserve","coordinates":[0.179332,51.2842]},{"code":"GB-3630","program":"pota","name":"Scadbury Park Nature Reserve","coordinates":[0.093104,51.4111]},{"code":"GB-3631","program":"pota","name":"Footscray Meadows Nature Reserve","coordinates":[0.124375,51.4249]},{"code":"GB-4206","program":"pota","name":"Central Park","coordinates":[0.219348,51.4404]},{"code":"GB-4207","program":"pota","name":"Lesnes Abbey Wood/Park and Nature Reserve","coordinates":[0.129265,51.4888]},{"code":"GB-4540","program":"pota","name":"Dryhill Nature Reserve & Country Park","coordinates":[0.148109,51.2762]},{"code":"GB-4541","program":"pota","name":"Limpsfield Common National Park","coordinates":[0.045218,51.2503]},{"code":"GB-4959","program":"pota","name":"Danson Country Park","coordinates":[0.117481,51.4547]},{"code":"GB-4961","program":"pota","name":"Kemsing Down Nature Reserve","coordinates":[0.225446,51.3104]},{"code":"GB-4965","program":"pota","name":"Charlton Park","coordinates":[0.041963,51.4804]},{"code":"GB-6114","program":"pota","name":"Knole Park National Park","coordinates":[0.204329,51.2686]},{"code":"GB-6332","program":"pota","name":"Fackenden Down Nature Reserve","coordinates":[0.194973,51.3255]},{"code":"GB-6345","program":"pota","name":"Bostall Heath & Woods Reserve","coordinates":[0.11032,51.4813]},{"code":"GB-6346","program":"pota","name":"Braeburn Park Nature Reserve","coordinates":[0.173612,51.4437]},{"code":"GB-6347","program":"pota","name":"Goddington Country Park","coordinates":[0.115666,51.3669]},{"code":"GB-6419","program":"pota","name":"Franks Park & Woodland Reserve","coordinates":[0.15964,51.4875]},{"code":"B/G-0378","program":"wwbota","name":"ROC Post Eltham","coordinates":[0.072789,51.427496]},{"code":"B/G-0380","program":"wwbota","name":"ROC Post Brasted","coordinates":[0.106316,51.289935]},{"code":"B/G-0382","program":"wwbota","name":"ROC Post Farningham","coordinates":[0.202198,51.38134]},{"code":"B/G-1117","program":"wwbota","name":"1950s War Room London SE - Chislehurst - Region 5","coordinates":[0.079825,51.424044]},{"code":"B/G-1383","program":"wwbota","name":"Bexley Emergency Centre","coordinates":[0.15030934,51.455417]},{"code":"B/G-1400","program":"wwbota","name":"RAF Biggin Hill (Former) - Underground Air-Raid Shelter","coordinates":[0.038889,51.324436]},{"code":"B/G-1426","program":"wwbota","name":"Orpington Southern Railway Control Centre","coordinates":[0.088351153,51.375068]},{"code":"B/G-1484","program":"wwbota","name":"Swanley Air Raid Shelter cluster","coordinates":[0.17725584,51.41598]},{"code":"B/G-1543","program":"wwbota","name":"RAF Biggin Hill (Former) - Operations Bunker","coordinates":[0.027937,51.33168]},{"code":"B/G-1919","program":"wwbota","name":"ROC Knockholt","coordinates":[0.111766,51.333363]},{"code":"B/G-1920","program":"wwbota","name":"Erith Hospital Bunkers","coordinates":[0.166734,51.476992]},{"code":"B/G-2023","program":"wwbota","name":"Chistlehurst Caves, Bromley, WW1 Storage","coordinates":[0.0575,51.4074]},{"code":"B/G-2024","program":"wwbota","name":"Chistlehurst Caves, Bromley, WW2 Large Air Raid Shelter","coordinates":[0.0575,51.4074]},{"code":"B/G-2174","program":"wwbota","name":"Slade Green HAA Battery, Command Post","coordinates":[0.20315409,51.474808]},{"code":"B/G-2381","program":"wwbota","name":"Fort Halstead bomb chamber","coordinates":[0.14985833,51.311867]}]}