{"lat":51.5,"lon":-115.5,"programs":["sota","wwbota"],"count":14,"references":[{"code":"VE6/HC-027","program":"sota","name":"Maze Peak","coordinates":[-115.43382,51.71553]},{"code":"VE6/HC-030","program":"sota","name":"Mount Minos","coordinates":[-115.44071,51.654335]},{"code":"VE6/HC-032","program":"sota","name":"Labyrinth Mountain","coordinates":[-115.47472,51.694534]},{"code":"VE6/HC-180","program":"sota","name":"Zombie Peak","coordinates":[-115.4857,51.5036]},{"code":"VE6/HC-245","program":"sota","name":"Eagle Mountain","coordinates":[-115.43884,51.7494]},{"code":"VE6/HC-352","program":"sota","name":"Winchester Peak","coordinates":[-115.4834,51.5705]},{"code":"VE6/HC-370","program":"sota","name":"Burnt Timber Lookout","coordinates":[-115.3932,51.5079]},{"code":"VE6/HC-371","program":"sota","name":"Zombie NE1","coordinates":[-115.4379,51.5364]},{"code":"VE6/HC-373","program":"sota","name":"Wildhorse Rige","coordinates":[-115.4133,51.6859]},{"code":"VE6/HC-379","program":"sota","name":"Dormer NE2","coordinates":[-115.4936,51.6353]},{"code":"VE6/HC-382","program":"sota","name":"Diamond Peak","coordinates":[-115.4095,51.6354]},{"code":"VE6/HC-392","program":"sota","name":"Dogrib","coordinates":[-115.4535,51.6311]},{"code":"VE6/HC-395","program":"sota","name":"James River Hill","coordinates":[-115.324,51.7292]},{"code":"B/CA-0139","program":"wwbota","name":"FRP ?","coordinates":[-115.4028287,51.62641533]}]}