{"lat":51.5,"lon":-117,"programs":["gma","sota"],"count":30,"references":[{"code":"XVE6/JS-106","program":"gma","name":"Mount Whiteaves","coordinates":[-116.7975,51.7238]},{"code":"VE6/JS-032","program":"sota","name":"Mount Barnard","coordinates":[-116.92092,51.70916]},{"code":"VE6/JS-033","program":"sota","name":"Mount Freshfield","coordinates":[-116.945946,51.74308]},{"code":"VE6/JS-045","program":"sota","name":"Nanga Parbat Mountain","coordinates":[-116.86453,51.705414]},{"code":"VE6/JS-052","program":"sota","name":"Mount Trutch","coordinates":[-116.88131,51.704468]},{"code":"VE6/JS-076","program":"sota","name":"Mount Lambe","coordinates":[-116.82072,51.737103]},{"code":"VE6/JS-152","program":"sota","name":"Mount Helmer","coordinates":[-116.838524,51.704773]},{"code":"VE6/JS-326","program":"sota","name":"Mount Barlow","coordinates":[-116.812,51.7049]},{"code":"VE7/CE-024","program":"sota","name":"Mt. Mummery","coordinates":[-116.84991,51.66482]},{"code":"VE7/CE-025","program":"sota","name":"Mount Mummery North","coordinates":[-116.84683,51.67786]},{"code":"VE7/CE-045","program":"sota","name":"Mount Whiteaves","coordinates":[-116.7975,51.72376]},{"code":"VE7/CE-064","program":"sota","name":"Mt Loucks","coordinates":[-116.87608,51.650387]},{"code":"VE7/CE-066","program":"sota","name":"Mt. Laussedat","coordinates":[-116.95547,51.57211]},{"code":"VE7/CE-068","program":"sota","name":"Mt. De Margerie","coordinates":[-116.79088,51.727425]},{"code":"VE7/CE-087","program":"sota","name":"Mummery SW1","coordinates":[-116.86623,51.661583]},{"code":"VE7/CE-089","program":"sota","name":"Mt. Lotosky","coordinates":[-116.87311,51.634605]},{"code":"VE7/CE-096","program":"sota","name":"Sea Lion Mountain","coordinates":[-116.80838,51.511696]},{"code":"VE7/CE-124","program":"sota","name":"Mt. Termier","coordinates":[-116.764885,51.73465]},{"code":"VE7/CE-125","program":"sota","name":"Waitabit Peak S2","coordinates":[-116.897064,51.68415]},{"code":"VE7/CE-128","program":"sota","name":"Mt. Poland","coordinates":[-116.80482,51.640858]},{"code":"VE7/CE-134","program":"sota","name":"Mt. Mather","coordinates":[-116.917496,51.580975]},{"code":"VE7/CE-175","program":"sota","name":"HJ19","coordinates":[-116.99636,51.715958]},{"code":"VE7/CE-183","program":"sota","name":"FJ67","coordinates":[-116.97775,51.563564]},{"code":"VE7/CE-204","program":"sota","name":"Mather N1","coordinates":[-116.92732,51.593594]},{"code":"VE7/CE-206","program":"sota","name":"Mt. Keays","coordinates":[-116.753555,51.5487]},{"code":"VE7/CE-225","program":"sota","name":"Mt Sheppard","coordinates":[-116.87276,51.58393]},{"code":"VE7/CE-243","program":"sota","name":"FJ95","coordinates":[-116.959854,51.59038]},{"code":"VE7/CE-256","program":"sota","name":"Poland S2","coordinates":[-116.82759,51.606644]},{"code":"VE7/CE-292","program":"sota","name":"Sea Lion N1","coordinates":[-116.8055,51.52867]},{"code":"VE7/CE-313","program":"sota","name":"Rank Peak","coordinates":[-116.75794,51.50877]}]}