{"lat":51.5,"lon":-3.5,"programs":["gma","pota","sota","wwbota"],"count":22,"references":[{"code":"GW/HSW-025","program":"gma","name":"Mynydd Gethin","coordinates":[-3.38477993,51.71324158]},{"code":"GW/HSW-027","program":"gma","name":"Mynydd Maendy","coordinates":[-3.47298002,51.56541824]},{"code":"MW/SW-008","program":"gma","name":"Pen Garnbugail","coordinates":[-3.304348,51.722973]},{"code":"MW/SW-010","program":"gma","name":"Mynydd Aberdar","coordinates":[-3.420692,51.739607]},{"code":"GB-1010","program":"pota","name":"Dare Valley Country Park","coordinates":[-3.47067,51.7131]},{"code":"GB-1125","program":"pota","name":"Five Round Barrows on Garth Hill National Historic Site","coordinates":[-3.29435,51.5433]},{"code":"GB-1140","program":"pota","name":"The Rocking Stone  (Y Garreg Siglo Bardic Complex) National Historical Site","coordinates":[-3.3275,51.6022]},{"code":"GB-1251","program":"pota","name":"Parc Penallta Park","coordinates":[-3.25463,51.6524]},{"code":"GB-5557","program":"pota","name":"Nelson Wern Park","coordinates":[-3.2779,51.6509]},{"code":"GB-5751","program":"pota","name":"Parc Taff Bargoed Park","coordinates":[-3.2997,51.6704]},{"code":"GB-5752","program":"pota","name":"Parc Cwm Darran Park","coordinates":[-3.28446,51.7227]},{"code":"GB-6451","program":"pota","name":"Barry Sidings Countryside Park","coordinates":[-3.36735,51.6084]},{"code":"GB-6452","program":"pota","name":"Cwm Clydach Country Park","coordinates":[-3.46979,51.6246]},{"code":"GW/SW-025","program":"sota","name":"Cefn Eglwysilan","coordinates":[-3.305212,51.606125]},{"code":"GW/SW-027","program":"sota","name":"Mynydd y Glyn","coordinates":[-3.399066,51.597275]},{"code":"GW/SW-034","program":"sota","name":"Garth Hill - Mynydd y Garth","coordinates":[-3.294328,51.543255]},{"code":"GW/SW-037","program":"sota","name":"Craig yr Allt","coordinates":[-3.251578,51.55774]},{"code":"B/GW-0084","program":"wwbota","name":"ROC Post Pencoed","coordinates":[-3.495399,51.501561]},{"code":"B/GW-0086","program":"wwbota","name":"ROC Post Mountain Ash","coordinates":[-3.368063,51.661014]},{"code":"B/GW-0088","program":"wwbota","name":"ROC Post Pontypridd","coordinates":[-3.347874,51.589673]},{"code":"B/GW-0089","program":"wwbota","name":"ROC Post Pentyrch","coordinates":[-3.299796,51.533746]},{"code":"B/GW-0231","program":"wwbota","name":"Pontypridd Pillbox","coordinates":[-3.3469968,51.603377]}]}