{"lat":51.5,"lon":-10,"programs":["pota","sota","wwbota"],"count":9,"references":[{"code":"IE-0026","program":"pota","name":"Dunboy Forest National Forest","coordinates":[-9.93587,51.6299]},{"code":"EI/IS-023","program":"sota","name":"Hungry Hill","coordinates":[-9.792436,51.686966]},{"code":"EI/IS-041","program":"sota","name":"Maulin","coordinates":[-9.862169,51.69301]},{"code":"EI/IS-043","program":"sota","name":"Lackabane","coordinates":[-9.807888,51.722]},{"code":"EI/IS-060","program":"sota","name":"Knockoura","coordinates":[-9.992931,51.6525]},{"code":"EI/IS-079","program":"sota","name":"Miskish Mountain","coordinates":[-9.96214,51.667725]},{"code":"EI/IS-110","program":"sota","name":"Knockanallig","coordinates":[-9.872301,51.626225]},{"code":"EI/IS-124","program":"sota","name":"Disert","coordinates":[-9.945695,51.621258]},{"code":"B/EI-0031","program":"wwbota","name":"Sheep's Head Lookout Post (LOP 31)","coordinates":[-9.82098,51.54692]}]}