{"lat":51.5,"lon":15.5,"programs":["pota"],"count":7,"references":[{"code":"PL-2643","program":"pota","name":"Dolina Szprotawki Protected Landscape Area","coordinates":[15.7405,51.5742]},{"code":"PL-2756","program":"pota","name":"Buczyna Szprotawsko-Piotrowicka Natura 2000","coordinates":[15.6433,51.5108]},{"code":"PL-2757","program":"pota","name":"Buczyna Piotrowicka Nature Reserve","coordinates":[15.6936,51.5061]},{"code":"PL-1801","program":"pota","name":"Buczyna Szprotawska Nature Reserve","coordinates":[15.6692,51.5181]},{"code":"PL-2645","program":"pota","name":"Borowina Natura 2000","coordinates":[15.6075,51.6333]},{"code":"PL-2647","program":"pota","name":"Park Słowiański Nature and Landscape Complex","coordinates":[15.5178,51.5578]},{"code":"PL-2649","program":"pota","name":"Potok Sucha Nature and Landscape Complex","coordinates":[15.646,51.5839]}]}