{"lat":51.5,"lon":9.5,"programs":["gma","pota","sota"],"count":12,"references":[{"code":"DA/HE-237","program":"gma","name":"Sababurg","coordinates":[9.53559971,51.54449844]},{"code":"DA/HE-488","program":"gma","name":"Hahneberg","coordinates":[9.55580044,51.57580185]},{"code":"DA/NI-083","program":"gma","name":"Strutberg","coordinates":[9.60560036,51.69250107]},{"code":"DA/NI-087","program":"gma","name":"Hengstrücken","coordinates":[9.71829987,51.68690109]},{"code":"DA/NI-088","program":"gma","name":"Tonkuhlenkopf","coordinates":[9.57970047,51.74079895]},{"code":"DA/NI-093","program":"gma","name":"Kalenberg","coordinates":[9.59640026,51.68000031]},{"code":"DA/NI-307","program":"gma","name":"Großer Steinberg","coordinates":[9.66689968,51.70190048]},{"code":"DA/NI-330","program":"gma","name":"Totenberg","coordinates":[9.64830017,51.52939987]},{"code":"DE-0062","program":"pota","name":"Reinhardswald Nature Park","coordinates":[9.55523,51.5229]},{"code":"DE-0067","program":"pota","name":"Solling-Vogler Nature Park","coordinates":[9.51863,51.7445]},{"code":"DM/HE-138","program":"sota","name":"Staufenberg","coordinates":[9.5613,51.5083]},{"code":"DM/NS-143","program":"sota","name":"Heidelberg","coordinates":[9.6853,51.5542]}]}