{"lat":51.5,"lon":14.25,"programs":["gma","wwbota"],"count":11,"references":[{"code":"DA/ND-022","program":"gma","name":"Spitzberg","coordinates":[14.47719955,51.58639908]},{"code":"DA/ND-123","program":"gma","name":"Mühlberg","coordinates":[14.459763,51.584516]},{"code":"DA/ND-124","program":"gma","name":"Georgenberg","coordinates":[14.3859,51.573431]},{"code":"DA/ND-126","program":"gma","name":"Wolkenberg","coordinates":[14.260157,51.609897]},{"code":"DA/ND-128","program":"gma","name":"Stradower Hoehe","coordinates":[14.295861,51.602273]},{"code":"DA/ND-129","program":"gma","name":"Buckwitzberg","coordinates":[14.30331,51.63428]},{"code":"DA/ND-131","program":"gma","name":"Hochkippe Pulsberg","coordinates":[14.306512,51.562808]},{"code":"DA/ND-132","program":"gma","name":"Schäferberg","coordinates":[14.357897,51.653546]},{"code":"B/DL-0106","program":"wwbota","name":"AFüSt – BV Cottbus","coordinates":[14.350963,51.708433]},{"code":"B/DL-0948","program":"wwbota","name":"FRA-311 Groß Döbbern C-Objekt Lagerbunker","coordinates":[14.353287,51.651076]},{"code":"B/DL-0949","program":"wwbota","name":"FRA-311 Groß Döbbern Führungspunkt","coordinates":[14.348818,51.638357]}]}