{"lat":51.5,"lon":10,"programs":["gma","pota","sota"],"count":6,"references":[{"code":"DA/NI-334","program":"gma","name":"Hünstollen","coordinates":[10.0468998,51.57889938]},{"code":"DA/NI-336","program":"gma","name":"Langfast","coordinates":[10.04440022,51.65060043]},{"code":"DA/NI-337","program":"gma","name":"Dünenberg","coordinates":[10.07110023,51.73279953]},{"code":"DA/NI-340","program":"gma","name":"Hengstberg","coordinates":[10.0642004,51.51530075]},{"code":"DE-0467","program":"pota","name":"Stadtwald Göttingen und Kerstlingeröder Feld Provincial Park Reserve","coordinates":[10.0319,51.5431]},{"code":"DM/NS-147","program":"sota","name":"Mackenröder Spitze","coordinates":[10.0494,51.5378]}]}