{"lat":51.5,"lon":-3.75,"programs":["gma","pota","sota","wwbota"],"count":22,"references":[{"code":"GW/HSW-010","program":"gma","name":"Foel Trawsnant","coordinates":[-3.6789,51.63280106]},{"code":"GW/HSW-024","program":"gma","name":"Mynydd Emroch","coordinates":[-3.74423003,51.60306931]},{"code":"GW/HSW-028","program":"gma","name":"Mynydd Margam","coordinates":[-3.69301009,51.58493042]},{"code":"GB-1005","program":"pota","name":"Afan Forest Park","coordinates":[-3.65386,51.6749]},{"code":"GB-1007","program":"pota","name":"Bryngarw Country Park","coordinates":[-3.58074,51.5565]},{"code":"GB-1015","program":"pota","name":"Parc Gwledig Margam Country Park","coordinates":[-3.73022,51.5608]},{"code":"GB-1059","program":"pota","name":"Kenfig Pool and Dunes National Nature Reserve","coordinates":[-3.74657,51.5219]},{"code":"GB-1109","program":"pota","name":"Mynydd y Castell Camp National Historic Site","coordinates":[-3.723,51.566]},{"code":"GB-1123","program":"pota","name":"Mynydd Caerau Round Cairns National Historical Site","coordinates":[-3.6045,51.6374]},{"code":"GB-1164","program":"pota","name":"Blaenrhondda settlement National Historical Site","coordinates":[-3.56017,51.7054]},{"code":"GB-1250","program":"pota","name":"Mynydd Ty-Isaf, Rhondda Site of Significant Scientific Interest","coordinates":[-3.5428,51.6473]},{"code":"GB-1252","program":"pota","name":"Afan Forest Park","coordinates":[-3.70496,51.6425]},{"code":"GB-5887","program":"pota","name":"Craig Y Llyn Site of Significant Scientific Interest","coordinates":[-3.56226,51.7109]},{"code":"GB-6597","program":"pota","name":"Parc Calon Lan Park","coordinates":[-3.592,51.6262]},{"code":"GW/SW-010","program":"sota","name":"Craig y Llyn","coordinates":[-3.583766,51.71642]},{"code":"B/GW-0074","program":"wwbota","name":"ROC Post Resolven","coordinates":[-3.689081,51.712676]},{"code":"B/GW-0075","program":"wwbota","name":"ROC Post Hirwaun","coordinates":[-3.520619,51.743661]},{"code":"B/GW-0083","program":"wwbota","name":"ROC Post Maesteg","coordinates":[-3.666691,51.603652]},{"code":"B/GW-0155","program":"wwbota","name":"1960s SRHQ Wales - Region 8 - Bridgend (Brackla)","coordinates":[-3.560657,51.513929]},{"code":"B/GW-0217","program":"wwbota","name":"Margam Radar Station bunker","coordinates":[-3.7425,51.5697]},{"code":"B/GW-0236","program":"wwbota","name":"RAF Stormy Down Air Raid Shelter","coordinates":[-3.666028,51.510886]},{"code":"B/GW-0237","program":"wwbota","name":"Resolven Decoy Bunker Swansea","coordinates":[-3.666439,51.710256]}]}