{"lat":51.5,"lon":10.75,"programs":["gma","pota"],"count":50,"references":[{"code":"DA/SA-019","program":"gma","name":"Eichenforst","coordinates":[10.92440033,51.55390167]},{"code":"DA/SA-041","program":"gma","name":"Carlshaushöhe","coordinates":[10.79640007,51.65639877]},{"code":"DA/SA-070","program":"gma","name":"Kapitelsberg","coordinates":[10.7514016,51.7050249]},{"code":"DA/SA-138","program":"gma","name":"Großer Stemberg","coordinates":[10.8966111,51.7254722]},{"code":"DA/SA-150","program":"gma","name":"Stahlberg","coordinates":[10.8580278,51.7460833]},{"code":"DA/SA-154","program":"gma","name":"Papenberg","coordinates":[10.7851681,51.7428622]},{"code":"DA/SA-159","program":"gma","name":"Rotestein","coordinates":[10.8816111,51.7290694]},{"code":"DA/SA-179","program":"gma","name":"Kohlenberg","coordinates":[10.8977222,51.73475]},{"code":"DA/SA-180","program":"gma","name":"Nickelsberg","coordinates":[10.8798333,51.7404722]},{"code":"DA/SA-187","program":"gma","name":"Wendefurther Berg","coordinates":[10.9210278,51.7474167]},{"code":"DA/SA-188","program":"gma","name":"Schieferberg","coordinates":[10.8950556,51.7478611]},{"code":"DA/SA-189","program":"gma","name":"Spitzenberg","coordinates":[10.9301062,51.745292]},{"code":"DA/SA-201","program":"gma","name":"Hoppelberg","coordinates":[10.8597142,51.7075347]},{"code":"DA/SA-202","program":"gma","name":"Eichenberg","coordinates":[10.8634722,51.7227778]},{"code":"DA/SA-218","program":"gma","name":"Kirchhofsberg","coordinates":[10.9097222,51.7353889]},{"code":"DA/SA-233","program":"gma","name":"Großer Dambachskopf","coordinates":[10.9938889,51.7152778]},{"code":"DA/SA-247","program":"gma","name":"Katzenberg","coordinates":[10.7700278,51.7436944]},{"code":"DA/SA-248","program":"gma","name":"Murmelberg","coordinates":[10.8492446,51.7011036]},{"code":"DA/SA-253","program":"gma","name":"Heimberg","coordinates":[10.9937778,51.6506667]},{"code":"DA/SA-256","program":"gma","name":"Trogfurter Berg","coordinates":[10.7923083,51.7264982]},{"code":"DA/SA-259","program":"gma","name":"Bremsenköpfe","coordinates":[10.8057765,51.7191086]},{"code":"DA/SA-264","program":"gma","name":"Dornkopf","coordinates":[10.8843714,51.7231048]},{"code":"DA/SA-267","program":"gma","name":"Mühlberg","coordinates":[10.9582457,51.6855901]},{"code":"DA/SA-268","program":"gma","name":"Hoher Berg","coordinates":[10.882974,51.6997651]},{"code":"DA/SA-269","program":"gma","name":"Brandkopf","coordinates":[10.9162587,51.704371]},{"code":"DA/SA-270","program":"gma","name":"Hüttenberg","coordinates":[10.8794168,51.6765709]},{"code":"DA/SA-273","program":"gma","name":"Harmsberg","coordinates":[10.8774477,51.7476123]},{"code":"DA/SA-283","program":"gma","name":"Steinköpfe","coordinates":[10.9905833,51.7415]},{"code":"DA/SA-290","program":"gma","name":"Spitzenkopf","coordinates":[10.8257863,51.7125921]},{"code":"DA/SA-291","program":"gma","name":"Rabenstein","coordinates":[10.8066111,51.7075278]},{"code":"DA/SA-299","program":"gma","name":"Kleiner Stemberg","coordinates":[10.901776,51.7283379]},{"code":"DA/SA-312","program":"gma","name":"Großer Klingenberg","coordinates":[10.9167034,51.6899218]},{"code":"DA/SA-315","program":"gma","name":"Hahnenkopf","coordinates":[10.8254863,51.7431061]},{"code":"DA/SA-316","program":"gma","name":"Baukenberg","coordinates":[10.9768572,51.7447414]},{"code":"DA/SA-318","program":"gma","name":"Krugberg","coordinates":[10.9669716,51.7497727]},{"code":"DA/SA-319","program":"gma","name":"Klingenberg","coordinates":[10.7669968,51.7485803]},{"code":"DA/SA-330","program":"gma","name":"Leckenkopf","coordinates":[10.8589722,51.6506111]},{"code":"DA/SA-335","program":"gma","name":"Hüttenberg","coordinates":[10.9417304,51.7322328]},{"code":"DA/TH-032","program":"gma","name":"Poppenberg","coordinates":[10.8277998,51.58810043]},{"code":"DA/TH-052","program":"gma","name":"Königskopf","coordinates":[10.90890026,51.52719879]},{"code":"DA/TH-859","program":"gma","name":"Buchholzer Berg","coordinates":[10.85315037,51.53937149]},{"code":"DA/TH-863","program":"gma","name":"Brandhai (Gillenkopf)","coordinates":[10.875,51.6094017]},{"code":"DA/TH-915","program":"gma","name":"Birkenkopf","coordinates":[10.89719963,51.60279846]},{"code":"DA/TH-919","program":"gma","name":"Burgruine Hohnstein (Harz) ","coordinates":[10.837803,51.570121]},{"code":"DA/TH-920","program":"gma","name":"Burgberg Burgruine Ebersburg","coordinates":[10.88022,51.554134]},{"code":"DA/TH-924","program":"gma","name":"Stierberg","coordinates":[10.762111,51.6429861]},{"code":"DA/TH-925","program":"gma","name":"Solberg","coordinates":[10.7591389,51.6258333]},{"code":"DA/TH-927","program":"gma","name":"Kleiner Schumannsberg","coordinates":[10.8125556,51.6326389]},{"code":"DA/TH-929","program":"gma","name":"Burgberg (Ruine Ilburg)","coordinates":[10.784872,51.579594]},{"code":"DE-0065","program":"pota","name":"Harz Sachsen-Anhalt Nature Park","coordinates":[10.9067,51.7215]}]}