{"lat":51.5,"lon":-1.25,"programs":["pota","wwbota"],"count":13,"references":[{"code":"GB-1977","program":"pota","name":"Kinecroft Park","coordinates":[-1.12873,51.5993]},{"code":"GB-1978","program":"pota","name":"Bullcroft Park","coordinates":[-1.12703,51.6021]},{"code":"GB-4482","program":"pota","name":"Iffley Meadows Nature Reserve","coordinates":[-1.24477,51.7329]},{"code":"GB-4483","program":"pota","name":"Rivermead Nature Park","coordinates":[-1.23977,51.7254]},{"code":"GB-4549","program":"pota","name":"Mowbray Fields Nature Reserve","coordinates":[-1.24591,51.5946]},{"code":"GB-4648","program":"pota","name":"Wittenham Clumps Scenic Site","coordinates":[-1.18242,51.629]},{"code":"GB-4759","program":"pota","name":"Wallingford Castle Gardens & Meadow Park","coordinates":[-1.12072,51.603]},{"code":"B/G-0015","program":"wwbota","name":"ROC Post Streatley Master Post","coordinates":[-1.173892,51.516193]},{"code":"B/G-0673","program":"wwbota","name":"ROC Post Stadhampton","coordinates":[-1.09623,51.675401]},{"code":"B/G-0674","program":"wwbota","name":"ROC Post Checkendon","coordinates":[-1.03598,51.57044]},{"code":"B/G-1033","program":"wwbota","name":"ROC Group HQ No 3 - Oxford","coordinates":[-1.20338,51.74196]},{"code":"B/G-1202","program":"wwbota","name":"Airfield Battle HQ - Benson","coordinates":[-1.090078,51.614301]},{"code":"B/G-1300","program":"wwbota","name":"Airfield Battle HQ - Mount Farm","coordinates":[-1.152146,51.66269]}]}