{"lat":51.5,"lon":11.75,"programs":["gma","pota","sota","wwbota"],"count":5,"references":[{"code":"DA/SA-046","program":"gma","name":"Haltberg","coordinates":[11.91419983,51.62609863]},{"code":"DA/SA-292","program":"gma","name":"Kolkturmberg (Bischofsberg)","coordinates":[11.91045,51.50182]},{"code":"DE-0725","program":"pota","name":"Dölauer Heide Landscape Reserve","coordinates":[11.8985,51.5011]},{"code":"DM/SA-033","program":"sota","name":"Petersberg","coordinates":[11.9542,51.5961]},{"code":"B/DL-0787","program":"wwbota","name":"BEL -Halle","coordinates":[11.840837,51.603071]}]}