{"lat":51.5,"lon":-10.25,"programs":["sota","wwbota"],"count":5,"references":[{"code":"EI/IS-083","program":"sota","name":"Knocknagallaun","coordinates":[-10.047077,51.659985]},{"code":"EI/IS-113","program":"sota","name":"Lackacroghan","coordinates":[-10.104124,51.612232]},{"code":"EI/IS-115","program":"sota","name":"Cnoc Bolais","coordinates":[-10.205146,51.59575]},{"code":"B/EI-0032","program":"wwbota","name":"Dursey Head Lookout Post (LOP 32)","coordinates":[-10.13147,51.59862]},{"code":"B/EI-0033","program":"wwbota","name":"Lamb's Head Lookout Post (LOP 33)","coordinates":[-10.13161,51.74066]}]}