{"lat":51.5,"lon":5.25,"programs":["pota","wwbota"],"count":5,"references":[{"code":"NL-0041","program":"pota","name":"Mortelen Park","coordinates":[5.33187,51.5409]},{"code":"NL-0055","program":"pota","name":"Kampina Park","coordinates":[5.28533,51.5667]},{"code":"NL-0119","program":"pota","name":"Vlijmens Ven, Moerputten & Bossche Broek Provincial Park","coordinates":[5.26631,51.686]},{"code":"NL-0284","program":"pota","name":"Sonse Heide Park","coordinates":[5.45738,51.5184]},{"code":"B/PA-0031","program":"wwbota","name":"Park Glorieux","coordinates":[5.3001641,51.6524251]}]}