{"lat":51.5,"lon":21.5,"programs":["pota"],"count":6,"references":[{"code":"PL-2069","program":"pota","name":"Podebłocie Natura 2000","coordinates":[21.7292,51.6294]},{"code":"PL-0453","program":"pota","name":"Krępiec Nature Reserve","coordinates":[21.6117,51.5013]},{"code":"PL-0458","program":"pota","name":"Kopiec Kościuszki Nature Reserve","coordinates":[21.6,51.7411]},{"code":"PL-0483","program":"pota","name":"Źródło Królewskie Nature Reserve","coordinates":[21.5297,51.5261]},{"code":"PL-1963","program":"pota","name":"Bagna Orońskie Natura 2000","coordinates":[21.6203,51.6836]},{"code":"PL-2072","program":"pota","name":"Torfy Orońskie Nature Reserve","coordinates":[21.6119,51.6931]}]}