{"lat":51.75,"lon":0.75,"programs":["pota","wwbota"],"count":34,"references":[{"code":"GB-0059","program":"pota","name":"Mid Essex Coast SPA - Colne Estuary - Mersea Island National Nature Reserve","coordinates":[0.990587,51.784]},{"code":"GB-0113","program":"pota","name":"Dedham Vale National Landscape","coordinates":[0.926209,51.9845]},{"code":"GB-0230","program":"pota","name":"Abberton Reservoir SPA/RAMSAR Protected Area","coordinates":[0.872444,51.8285]},{"code":"GB-0346","program":"pota","name":"Mid Essex Coast SPA - Blackwater Estuary National Nature Reserve","coordinates":[0.860658,51.7719]},{"code":"GB-1225","program":"pota","name":"High Woods Country Park","coordinates":[0.909934,51.9065]},{"code":"GB-3569","program":"pota","name":"Westlands Country Park","coordinates":[0.855367,51.8736]},{"code":"GB-3570","program":"pota","name":"Hilly Fields Local Nature Reserve","coordinates":[0.882183,51.8921]},{"code":"GB-3571","program":"pota","name":"Colchester Castle Park","coordinates":[0.903722,51.8926]},{"code":"GB-5067","program":"pota","name":"Cymbeline Meadows Nature Reserve","coordinates":[0.88282,51.8989]},{"code":"GB-5068","program":"pota","name":"Bourne Valley Local Wildlife Area","coordinates":[0.9126,51.8766]},{"code":"GB-5069","program":"pota","name":"Salary Brook Local Nature Reserve","coordinates":[0.945088,51.887]},{"code":"GB-5070","program":"pota","name":"Fingringhoe Wick Nature Discovery Park","coordinates":[0.971533,51.8342]},{"code":"GB-5071","program":"pota","name":"Cockaynes Wood Nature Reserve","coordinates":[0.983698,51.8563]},{"code":"GB-5072","program":"pota","name":"The Wivenhoe National Scenic Trail","coordinates":[0.939664,51.8716]},{"code":"GB-5193","program":"pota","name":"Arger Fen,Tiger Hill & Spouse's Vale Nature Reserve & Site of Significant Scientific Interest","coordinates":[0.809641,51.9829]},{"code":"GB-5249","program":"pota","name":"Colne Local Nature Reserve","coordinates":[0.953761,51.8614]},{"code":"GB-5250","program":"pota","name":"Welsh Wood Local Nature Reserve","coordinates":[0.943876,51.8984]},{"code":"GB-5251","program":"pota","name":"Spring Lane Meadows Local Nature Reserve","coordinates":[0.866453,51.8918]},{"code":"GB-5252","program":"pota","name":"Lexden Park Local Nature Reserve","coordinates":[0.864164,51.888]},{"code":"GB-5284","program":"pota","name":"Cudmore Grove Country Park","coordinates":[0.994648,51.792]},{"code":"GB-5288","program":"pota","name":"Bull Meadow Local Nature Reserve","coordinates":[0.907374,51.8959]},{"code":"GB-5371","program":"pota","name":"Upper Colne Marshes Site of Significant Scientific Interest","coordinates":[0.942584,51.8657]},{"code":"GB-5998","program":"pota","name":"Lexden Gathering Grounds Nature Reserve","coordinates":[0.856293,51.8928]},{"code":"B/G-0261","program":"wwbota","name":"ROC Post Tolleshunt d'Arcy","coordinates":[0.785018,51.769064]},{"code":"B/G-0262","program":"wwbota","name":"ROC Post Lexden","coordinates":[0.861226,51.866881]},{"code":"B/G-0263","program":"wwbota","name":"ROC Post Langham Master Post","coordinates":[0.920234,51.93675]},{"code":"B/G-0265","program":"wwbota","name":"ROC Post West Mersea","coordinates":[0.929548,51.773643]},{"code":"B/G-0266","program":"wwbota","name":"ROC Post Brightlingsea","coordinates":[0.994821,51.828838]},{"code":"B/G-1034","program":"wwbota","name":"ROC Group HQ No 4 - Colchester","coordinates":[0.88295,51.88734]},{"code":"B/G-1533","program":"wwbota","name":"East Mersea WW2 Auxiliary Command Bunker","coordinates":[0.979452,51.800448]},{"code":"B/G-1775","program":"wwbota","name":"East Mersea, WW2 Decoy Command Bunker","coordinates":[0.97964558,51.801253]},{"code":"B/G-1776","program":"wwbota","name":"RAF Boxted, WW2 Bomb storage Bunker","coordinates":[0.939952,51.935493]},{"code":"B/G-1777","program":"wwbota","name":"West Mersea, Coastal Observation Bunker","coordinates":[0.92577354,51.773557]},{"code":"B/G-1778","program":"wwbota","name":"RAF Birch, WW2 Blast Shelter and Ground Defence (cluster)","coordinates":[0.776963,51.838122]}]}