{"lat":51.75,"lon":-3.75,"programs":["gma","pota","sota","wwbota"],"count":19,"references":[{"code":"GW/HSW-018","program":"gma","name":"Moel Penderyn","coordinates":[-3.5395999,51.76718903]},{"code":"GW/HSW-029","program":"gma","name":"Mynydd Myddfai","coordinates":[-3.73754001,51.95317841]},{"code":"GW/HSW-036","program":"gma","name":"Twyn Disgwylfa","coordinates":[-3.52862,51.97563934]},{"code":"MW/SW-004","program":"gma","name":"Fan Frynych","coordinates":[-3.517084,51.893059]},{"code":"MW/SW-006","program":"gma","name":"Fan Bwlch Chwyth","coordinates":[-3.582104,51.882312]},{"code":"MW/SW-011","program":"gma","name":"Gwaun Cefnygarreg","coordinates":[-3.531766,51.811944]},{"code":"MW/SW-016","program":"gma","name":"Pen Maesmerddyn","coordinates":[-3.550779,51.985233]},{"code":"MW/SW-017","program":"gma","name":"Maes y Gawnen","coordinates":[-3.605746,51.811856]},{"code":"MW/SW-020","program":"gma","name":"Cefn Llechid","coordinates":[-3.541803,51.935898]},{"code":"MW/SW-022","program":"gma","name":"Forest Fach North","coordinates":[-3.594178,51.936099]},{"code":"GB-1009","program":"pota","name":"Craig-y-Nos Country Park","coordinates":[-3.6847,51.8263]},{"code":"GB-1067","program":"pota","name":"Ogof Ffynnon Ddu National Nature Reserve","coordinates":[-3.64803,51.8305]},{"code":"GB-1115","program":"pota","name":"Cerrig Duon Stone Circle National Historic Site","coordinates":[-3.67,51.872]},{"code":"GW/SW-003","program":"sota","name":"Fan Brycheiniog - Twr y Fan Foel","coordinates":[-3.709565,51.88467]},{"code":"GW/SW-006","program":"sota","name":"Fan Gyhirych","coordinates":[-3.626991,51.859398]},{"code":"GW/SW-007","program":"sota","name":"Fan Nedd","coordinates":[-3.579186,51.853657]},{"code":"GW/SW-017","program":"sota","name":"Hirfynydd","coordinates":[-3.680015,51.75456]},{"code":"B/GW-0007","program":"wwbota","name":"ROC Post Abercrave","coordinates":[-3.721838,51.801401]},{"code":"B/GW-0009","program":"wwbota","name":"ROC Post Sennybridge","coordinates":[-3.568045,51.945891]}]}