{"lat":51.75,"lon":-10.25,"programs":["pota","sota"],"count":8,"references":[{"code":"IE-0033","program":"pota","name":"Kimego National Forest","coordinates":[-10.2467,51.9759]},{"code":"EI/IS-016","program":"sota","name":"Coomacarrea","coordinates":[-10.0217,51.9779]},{"code":"EI/IS-022","program":"sota","name":"Knocknadobar","coordinates":[-10.175101,51.993103]},{"code":"EI/IS-026","program":"sota","name":"An Bheann Mhor","coordinates":[-10.041784,51.850166]},{"code":"EI/IS-047","program":"sota","name":"Eagles Hill","coordinates":[-10.054591,51.8028]},{"code":"EI/IS-057","program":"sota","name":"Foilclogh","coordinates":[-10.16785,51.90354]},{"code":"EI/IS-084","program":"sota","name":"Bentee","coordinates":[-10.216555,51.933765]},{"code":"EI/IS-087","program":"sota","name":"Castlequin","coordinates":[-10.226831,51.97016]}]}