{"lat":51.75,"lon":10.75,"programs":["gma","wwbota"],"count":101,"references":[{"code":"DA/SA-020","program":"gma","name":"Armeleuteberg","coordinates":[10.78110027,51.81639862]},{"code":"DA/SA-021","program":"gma","name":"Harburg","coordinates":[10.78829956,51.81829834]},{"code":"DA/SA-022","program":"gma","name":"Eichenberg","coordinates":[10.9296944,51.7928472]},{"code":"DA/SA-023","program":"gma","name":"Ziegenkopf","coordinates":[10.93389988,51.78779984]},{"code":"DA/SA-024","program":"gma","name":"Agnesberg","coordinates":[10.7986002,51.83000183]},{"code":"DA/SA-025","program":"gma","name":"Teufelsmauer","coordinates":[10.97140026,51.78530121]},{"code":"DA/SA-026","program":"gma","name":"Ziegenberg bei Heimburg","coordinates":[10.89745722,51.82420823]},{"code":"DA/SA-027","program":"gma","name":"Regenstein","coordinates":[10.96220016,51.81280136]},{"code":"DA/SA-028","program":"gma","name":"Horstberg","coordinates":[10.8203001,51.84109879]},{"code":"DA/SA-044","program":"gma","name":"Stapenberg","coordinates":[10.84689999,51.82580185]},{"code":"DA/SA-045","program":"gma","name":"Henkersberg","coordinates":[10.82110023,51.81169891]},{"code":"DA/SA-065","program":"gma","name":"Austberg","coordinates":[10.859219,51.837689]},{"code":"DA/SA-066","program":"gma","name":"Scharfenstein","coordinates":[10.79821,51.8098]},{"code":"DA/SA-068","program":"gma","name":"Struvenberg","coordinates":[10.890528,51.827944]},{"code":"DA/SA-075","program":"gma","name":"Astberg","coordinates":[10.8072184,51.8111411]},{"code":"DA/SA-076","program":"gma","name":"Eichberg Süd","coordinates":[10.799176,51.813368]},{"code":"DA/SA-077","program":"gma","name":"Galgenberg","coordinates":[10.816875,51.773569]},{"code":"DA/SA-078","program":"gma","name":"Druiberg","coordinates":[10.848782,51.986855]},{"code":"DA/SA-083","program":"gma","name":"Stiefelberg","coordinates":[10.85944,51.82622738]},{"code":"DA/SA-084","program":"gma","name":"Großer Hornberg","coordinates":[10.770969,51.756713]},{"code":"DA/SA-085","program":"gma","name":"Kühnenkopf","coordinates":[10.785611,51.81475]},{"code":"DA/SA-086","program":"gma","name":"Kleiner Hornberg","coordinates":[10.79098,51.76514]},{"code":"DA/SA-096","program":"gma","name":"Burgberg","coordinates":[10.9107778,51.8271944]},{"code":"DA/SA-097","program":"gma","name":"Thyrstein","coordinates":[10.9380556,51.8365278]},{"code":"DA/SA-098","program":"gma","name":"Fenstermacherberg","coordinates":[10.82625,51.8248611]},{"code":"DA/SA-099","program":"gma","name":"Ziegelberg","coordinates":[10.813562,51.8339789]},{"code":"DA/SA-104","program":"gma","name":"Ortberg","coordinates":[10.7890278,51.7832222]},{"code":"DA/SA-105","program":"gma","name":"Hartenberg","coordinates":[10.8272778,51.7900833]},{"code":"DA/SA-106","program":"gma","name":"Großer Papenberg","coordinates":[10.9452045,51.8179261]},{"code":"DA/SA-107","program":"gma","name":"Calviusberg","coordinates":[10.9541667,51.78275]},{"code":"DA/SA-108","program":"gma","name":"Markhardtberg","coordinates":[10.7823311,51.8204325]},{"code":"DA/SA-109","program":"gma","name":"Amelungskopf","coordinates":[10.7825694,51.8228056]},{"code":"DA/SA-110","program":"gma","name":"Organistenkopf","coordinates":[10.7754001,51.8180187]},{"code":"DA/SA-111","program":"gma","name":"Apenberg","coordinates":[10.9723914,51.7781364]},{"code":"DA/SA-112","program":"gma","name":"Dornberg","coordinates":[10.9535301,51.8384015]},{"code":"DA/SA-116","program":"gma","name":"Braunkohlberg","coordinates":[10.7722639,51.8215833]},{"code":"DA/SA-117","program":"gma","name":"Kapitelsberg","coordinates":[10.763009,51.8191579]},{"code":"DA/SA-118","program":"gma","name":"Schmiedeberg","coordinates":[10.755103,51.8157643]},{"code":"DA/SA-119","program":"gma","name":"Jägerkopf","coordinates":[10.7956768,51.8197821]},{"code":"DA/SA-120","program":"gma","name":"Eichberg Nord","coordinates":[10.801112,51.8184097]},{"code":"DA/SA-121","program":"gma","name":"Schützenberg","coordinates":[10.7645977,51.8114714]},{"code":"DA/SA-127","program":"gma","name":"Buchenberg","coordinates":[10.93640041,51.9510994]},{"code":"DA/SA-130","program":"gma","name":"Kakemieke","coordinates":[10.7552222,51.8313889]},{"code":"DA/SA-131","program":"gma","name":"Ratskopf","coordinates":[10.7618889,51.8304583]},{"code":"DA/SA-132","program":"gma","name":"Bielstein","coordinates":[10.9315556,51.7854167]},{"code":"DA/SA-133","program":"gma","name":"Lutherberg","coordinates":[10.949477,51.7837564]},{"code":"DA/SA-134","program":"gma","name":"Staufenberg","coordinates":[10.919875,51.7929583]},{"code":"DA/SA-135","program":"gma","name":"Paulsberg","coordinates":[10.965475,51.9486419]},{"code":"DA/SA-136","program":"gma","name":"Kahlenberg","coordinates":[10.8037192,51.77988]},{"code":"DA/SA-137","program":"gma","name":"Lustberg","coordinates":[10.7656944,51.8564722]},{"code":"DA/SA-139","program":"gma","name":"Kegelkopf","coordinates":[10.8071874,51.8154942]},{"code":"DA/SA-140","program":"gma","name":"Großer Klausberg","coordinates":[10.8224377,51.8041952]},{"code":"DA/SA-141","program":"gma","name":"Mahlberg","coordinates":[10.8340991,51.8103172]},{"code":"DA/SA-143","program":"gma","name":"Hundsrücken","coordinates":[10.8389091,51.8205473]},{"code":"DA/SA-149","program":"gma","name":"Weißer Stahlberg","coordinates":[10.8646801,51.7524887]},{"code":"DA/SA-155","program":"gma","name":"Peterstein","coordinates":[10.780475,51.792281]},{"code":"DA/SA-156","program":"gma","name":"Hilmersberg","coordinates":[10.7750278,51.80575]},{"code":"DA/SA-163","program":"gma","name":"Klobe","coordinates":[10.8851724,51.8185206]},{"code":"DA/SA-164","program":"gma","name":"Heiligenkopf","coordinates":[10.8750663,51.8139946]},{"code":"DA/SA-166","program":"gma","name":"Platenberg","coordinates":[10.9507045,51.8099403]},{"code":"DA/SA-181","program":"gma","name":"Mittelberg","coordinates":[10.8615435,51.7845064]},{"code":"DA/SA-183","program":"gma","name":"Wellbornskopf","coordinates":[10.7591111,51.7925278]},{"code":"DA/SA-199","program":"gma","name":"Hillkopf","coordinates":[10.8411155,51.8276343]},{"code":"DA/SA-203","program":"gma","name":"Zeisberg","coordinates":[10.831283,51.828783]},{"code":"DA/SA-213","program":"gma","name":"Vorberg","coordinates":[10.9794556,51.9520739]},{"code":"DA/SA-214","program":"gma","name":"Spechtsberg","coordinates":[10.990526,51.9563909]},{"code":"DA/SA-216","program":"gma","name":"Eschenberg","coordinates":[10.9593891,51.7532358]},{"code":"DA/SA-219","program":"gma","name":"Voigtsberg","coordinates":[10.8121727,51.8001862]},{"code":"DA/SA-220","program":"gma","name":"Vorderer Voigtsstiegberg","coordinates":[10.8118046,51.80489909]},{"code":"DA/SA-221","program":"gma","name":"Unteres Huhnholz","coordinates":[10.7997784,51.8028196]},{"code":"DA/SA-222","program":"gma","name":"Oberes Huhnholz","coordinates":[10.7905622,51.7939361]},{"code":"DA/SA-223","program":"gma","name":"Schaal-Holzkopf","coordinates":[10.7792181,51.8017316]},{"code":"DA/SA-227","program":"gma","name":"Nackenberg","coordinates":[10.89853333,51.8125]},{"code":"DA/SA-228","program":"gma","name":"Großer Probstberg","coordinates":[10.9091,51.810867]},{"code":"DA/SA-232","program":"gma","name":"Schmiedeberg","coordinates":[10.839351,51.761246]},{"code":"DA/SA-238","program":"gma","name":"Lindenberg","coordinates":[10.9587872,51.7754416]},{"code":"DA/SA-241","program":"gma","name":"Kleiner Schmidtskopf","coordinates":[10.7965412,51.7505126]},{"code":"DA/SA-242","program":"gma","name":"Himmlereichsberg","coordinates":[10.9049021,51.9496894]},{"code":"DA/SA-243","program":"gma","name":"Hardelsberg","coordinates":[10.9191553,51.9572372]},{"code":"DA/SA-245","program":"gma","name":"Bocksberg","coordinates":[10.7596111,51.7518472]},{"code":"DA/SA-246","program":"gma","name":"Öhlertsberg","coordinates":[10.8952657,51.9645361]},{"code":"DA/SA-249","program":"gma","name":"Zimmerberg","coordinates":[10.8764587,51.7931918]},{"code":"DA/SA-252","program":"gma","name":"Eiskenberg","coordinates":[10.9277547,51.8510258]},{"code":"DA/SA-260","program":"gma","name":"Kuhberg","coordinates":[10.9147222,51.7539444]},{"code":"DA/SA-261","program":"gma","name":"Wedenberg","coordinates":[10.9301418,51.8423134]},{"code":"DA/SA-262","program":"gma","name":"Astberg","coordinates":[10.8528091,51.804755]},{"code":"DA/SA-276","program":"gma","name":"Schornsteinberg","coordinates":[10.8505175,51.7596973]},{"code":"DA/SA-279","program":"gma","name":"Bärenstein","coordinates":[10.916837,51.8189333]},{"code":"DA/SA-282","program":"gma","name":"Kunstberg","coordinates":[10.7816392,51.7820786]},{"code":"DA/SA-293","program":"gma","name":"Bodenberg","coordinates":[10.816343,51.7615019]},{"code":"DA/SA-296","program":"gma","name":"Schulberg","coordinates":[10.9853794,51.7736023]},{"code":"DA/SA-300","program":"gma","name":"Eierberg","coordinates":[10.8195337,51.7935574]},{"code":"DA/SA-304","program":"gma","name":"Gänseberg","coordinates":[10.8387744,51.7946086]},{"code":"DA/SA-305","program":"gma","name":"Kleiner Klausberg","coordinates":[10.8221834,51.807693]},{"code":"DA/SA-307","program":"gma","name":"Lindenberg","coordinates":[10.940599,51.8585112]},{"code":"DA/SA-310","program":"gma","name":"Westenburger Berg","coordinates":[10.986404,51.965777]},{"code":"DA/SA-314","program":"gma","name":"Bärenrücken","coordinates":[10.891317,51.7803]},{"code":"DA/SA-328","program":"gma","name":"Triftberg","coordinates":[10.92469,51.863883]},{"code":"DA/SA-331","program":"gma","name":"Mittelberg","coordinates":[10.8320098,51.8228484]},{"code":"DA/SA-339","program":"gma","name":"Herrenberg","coordinates":[10.8648455,51.8255138]},{"code":"B/DL-0130","program":"wwbota","name":"KEL Wernigerode","coordinates":[10.815242,51.785822]}]}