{"lat":51.75,"lon":-116.75,"programs":["gma","pota","sota"],"count":33,"references":[{"code":"XVE6/JS-184","program":"gma","name":"Aiguille Peak","coordinates":[-116.6694,51.8038]},{"code":"CA-6117","program":"pota","name":"North Saskatchewan River National Heritage River National Heritage Area","coordinates":[-116.72,51.9705]},{"code":"VE6/HC-039","program":"sota","name":"Mount Murchison","coordinates":[-116.667915,51.928932]},{"code":"VE6/HC-047","program":"sota","name":"Peak Mu2","coordinates":[-116.65558,51.92134]},{"code":"VE6/HC-052","program":"sota","name":"Englehard Tower","coordinates":[-116.639656,51.91137]},{"code":"VE6/HC-053","program":"sota","name":"Hall Tower","coordinates":[-116.62803,51.911556]},{"code":"VE6/HC-056","program":"sota","name":"Gest Tower","coordinates":[-116.65965,51.90915]},{"code":"VE6/HC-057","program":"sota","name":"Bison Tower","coordinates":[-116.64979,51.913845]},{"code":"VE6/HC-065","program":"sota","name":"Totem Tower","coordinates":[-116.60846,51.89212]},{"code":"VE6/HC-073","program":"sota","name":"Feuz Tower","coordinates":[-116.666954,51.91108]},{"code":"VE6/HC-078","program":"sota","name":"Marmota Peak","coordinates":[-116.51387,51.88155]},{"code":"VE6/HC-084","program":"sota","name":"SE Tower","coordinates":[-116.640175,51.898315]},{"code":"VE6/HC-089","program":"sota","name":"Mount Noyes","coordinates":[-116.54773,51.822807]},{"code":"VE6/HC-090","program":"sota","name":"Mount Weed","coordinates":[-116.52825,51.79248]},{"code":"VE6/HC-093","program":"sota","name":"Spreading Peak","coordinates":[-116.59129,51.873234]},{"code":"VE6/HC-095","program":"sota","name":"South Totem Peak","coordinates":[-116.60826,51.882214]},{"code":"VE6/HC-100","program":"sota","name":"Corona Ridge","coordinates":[-116.570175,51.935562]},{"code":"VE6/HC-114","program":"sota","name":"Corona NW3","coordinates":[-116.61414,51.94937]},{"code":"VE6/HC-151","program":"sota","name":"Peak Mu1","coordinates":[-116.654205,51.89024]},{"code":"VE6/HC-227","program":"sota","name":"Iceface Peak","coordinates":[-116.53799,51.84543]},{"code":"VE6/HC-294","program":"sota","name":"Loudon W4","coordinates":[-116.5005,51.9063]},{"code":"VE6/HC-316","program":"sota","name":"Hall Tower E1","coordinates":[-116.5971,51.9088]},{"code":"VE6/HC-320","program":"sota","name":"Corona Ridge N1","coordinates":[-116.5699,51.9552]},{"code":"VE6/JS-039","program":"sota","name":"Howse Peak","coordinates":[-116.68038,51.813046]},{"code":"VE6/JS-043","program":"sota","name":"Mount Chephren","coordinates":[-116.682976,51.84054]},{"code":"VE6/JS-058","program":"sota","name":"White Pyramid","coordinates":[-116.6948,51.83636]},{"code":"VE6/JS-139","program":"sota","name":"Epaulette Mountain","coordinates":[-116.73407,51.86551]},{"code":"VE6/JS-183","program":"sota","name":"Aries Peak","coordinates":[-116.64603,51.787952]},{"code":"VE6/JS-338","program":"sota","name":"Breaker Mountain","coordinates":[-116.6518,51.7631]},{"code":"VE6/JS-359","program":"sota","name":"White Pyramid NW1","coordinates":[-116.7317,51.8468]},{"code":"VE6/JS-499","program":"sota","name":"VE6/JS-499","coordinates":[-116.6232,51.757]},{"code":"VE6/JS-520","program":"sota","name":"Aiguille NE1","coordinates":[-116.6417,51.8126]},{"code":"VE7/CE-079","program":"sota","name":"Aiguille Peak","coordinates":[-116.66942,51.803837]}]}