{"lat":51.75,"lon":-117,"programs":["pota","sota"],"count":21,"references":[{"code":"CA-4778","program":"pota","name":"Howse Pass National Historic Site","coordinates":[-116.756,51.8004]},{"code":"VE6/JS-001","program":"sota","name":"Mount Forbes","coordinates":[-116.93182,51.8599]},{"code":"VE6/JS-038","program":"sota","name":"Solitaire Mountain","coordinates":[-116.841255,51.750454]},{"code":"VE6/JS-042","program":"sota","name":"Mount Dent","coordinates":[-116.96796,51.754932]},{"code":"VE6/JS-048","program":"sota","name":"Mount Erasmus","coordinates":[-116.92133,51.95979]},{"code":"VE6/JS-053","program":"sota","name":"Mount Outram","coordinates":[-116.87565,51.881763]},{"code":"VE6/JS-078","program":"sota","name":"Mount Bergne","coordinates":[-116.86612,51.76144]},{"code":"VE6/JS-084","program":"sota","name":"Coronation Mountain","coordinates":[-116.909035,51.80623]},{"code":"VE6/JS-086","program":"sota","name":"Cambrai Mountain","coordinates":[-116.97933,51.83302]},{"code":"VE6/JS-093","program":"sota","name":"Mount Sarbach","coordinates":[-116.7678,51.891907]},{"code":"VE6/JS-123","program":"sota","name":"Kaufmann Peak","coordinates":[-116.756775,51.878635]},{"code":"VE6/JS-137","program":"sota","name":"Mount Conway","coordinates":[-116.792564,51.76404]},{"code":"VE6/JS-167","program":"sota","name":"Mount Strahan","coordinates":[-116.84093,51.782207]},{"code":"VE6/JS-197","program":"sota","name":"Mount Niverville","coordinates":[-116.93813,51.790703]},{"code":"VE6/JS-262","program":"sota","name":"Mount David","coordinates":[-116.82668,51.83798]},{"code":"VE6/JS-278","program":"sota","name":"Survey Peak","coordinates":[-116.849686,51.9549]},{"code":"VE6/JS-327","program":"sota","name":"Erasmus E1","coordinates":[-116.8996,51.9653]},{"code":"VE6/JS-436","program":"sota","name":"Erasmus NE1","coordinates":[-116.8906,51.9785]},{"code":"VE6/JS-451","program":"sota","name":"Lagomys Peak","coordinates":[-116.8892,51.9388]},{"code":"VE7/CE-072","program":"sota","name":"Pangman Peak W1","coordinates":[-116.98481,51.759228]},{"code":"VE7/CE-088","program":"sota","name":"Mt. Conway SW1","coordinates":[-116.804085,51.752953]}]}