{"lat":51.75,"lon":-5,"programs":["gma","pota","sota","wwbota"],"count":13,"references":[{"code":"GW/HMW-055","program":"gma","name":"Mynydd Castlebythe","coordinates":[-4.86859989,51.93040085]},{"code":"GW/HMW-074","program":"gma","name":"Pentre Newydd Hill","coordinates":[-4.92976999,51.95899963]},{"code":"GB-1076","program":"pota","name":"Ty Canol National Nature Reserve","coordinates":[-4.78153,51.9936]},{"code":"GB-1216","program":"pota","name":"Mynydd Preseli Site of Significant Scientific Interest","coordinates":[-4.80263,51.9549]},{"code":"GB-1217","program":"pota","name":"Carn Ingli Site of Significant Scientific Interest","coordinates":[-4.8144,51.9985]},{"code":"GB-1253","program":"pota","name":"Scolton Manor Park","coordinates":[-4.91951,51.8575]},{"code":"GW/MW-011","program":"sota","name":"Foel Cwmcerwyn","coordinates":[-4.774568,51.946175]},{"code":"GW/MW-033","program":"sota","name":"Mynydd Carningli","coordinates":[-4.824017,51.999588]},{"code":"B/GW-0128","program":"wwbota","name":"ROC Post Letterston","coordinates":[-4.984241,51.924788]},{"code":"B/GW-0129","program":"wwbota","name":"ROC Post Fishguard","coordinates":[-4.981287,51.983321]},{"code":"B/GW-0130","program":"wwbota","name":"ROC Post Haverfordwest","coordinates":[-4.882478,51.803124]},{"code":"B/GW-0133","program":"wwbota","name":"ROC Post Maenclochog","coordinates":[-4.806516,51.915942]},{"code":"B/GW-0170","program":"wwbota","name":"Airfield Battle HQ - Templeton","coordinates":[-4.760304,51.764688]}]}