{"lat":51.75,"lon":-4.75,"programs":["gma","sota","wwbota"],"count":7,"references":[{"code":"GW/HMW-036","program":"gma","name":"Foel Dyrch","coordinates":[-4.67673016,51.93894958]},{"code":"GW/MW-028","program":"sota","name":"Frenni Fawr","coordinates":[-4.618265,51.983524]},{"code":"GW/MW-037","program":"sota","name":"Brandy Hill","coordinates":[-4.591895,51.790478]},{"code":"B/GW-0045","program":"wwbota","name":"ROC Post Llanboidy","coordinates":[-4.607594,51.878703]},{"code":"B/GW-0134","program":"wwbota","name":"ROC Post Narberth","coordinates":[-4.739388,51.778308]},{"code":"B/GW-0136","program":"wwbota","name":"ROC Post Crymmych","coordinates":[-4.652071,51.975104]},{"code":"B/GW-0246","program":"wwbota","name":"RAF Templeton UNITER Bunker","coordinates":[-4.747009,51.764308]}]}