{"lat":51.75,"lon":-8.25,"programs":["pota","wwbota"],"count":7,"references":[{"code":"IE-0016","program":"pota","name":"Ballyannan Wood Nature Reserve","coordinates":[-8.18019,51.9027]},{"code":"IE-0028","program":"pota","name":"Marlogue Forest National Forest","coordinates":[-8.22035,51.8596]},{"code":"IE-0029","program":"pota","name":"Rostellan Forest National Forest","coordinates":[-8.18329,51.8503]},{"code":"IE-0246","program":"pota","name":"Curragh Woods Forest Reserve","coordinates":[-8.2311,51.9417]},{"code":"B/EI-0022","program":"wwbota","name":"Ballycotton Lookout Post (LOP 22)","coordinates":[-8.01188,51.82419]},{"code":"B/EI-0023","program":"wwbota","name":"Power Head Lookout Post (LOP 23)","coordinates":[-8.1737,51.78538]},{"code":"B/EI-0172","program":"wwbota","name":"Ladybridge pillbox","coordinates":[-8.0463268888877,51.8984089993413]}]}