{"lat":51.75,"lon":-4,"programs":["gma","pota","sota","wwbota"],"count":17,"references":[{"code":"GW/HMW-001","program":"gma","name":"Allt Ddu","coordinates":[-3.83778,51.99008179]},{"code":"GW/HMW-058","program":"gma","name":"Mynydd Llansadwrn","coordinates":[-3.91195011,51.99700928]},{"code":"GW/HMW-077","program":"gma","name":"Taliaris Hill","coordinates":[-3.9911499,51.93852997]},{"code":"GW/HMW-085","program":"gma","name":"Pentir-bach","coordinates":[-3.83614,51.9543]},{"code":"GW/HSW-011","program":"gma","name":"Garreg Lwyd [Moel Gornach]","coordinates":[-3.82996011,51.84571838]},{"code":"MW/SW-009","program":"gma","name":"Tair Carn","coordinates":[-3.911341,51.834261]},{"code":"MW/SW-025","program":"gma","name":"Rhiwiau","coordinates":[-3.814691,51.921216]},{"code":"MW/SW-026","program":"gma","name":"Bryn Mawr","coordinates":[-3.899576,51.761615]},{"code":"MW/SW-031","program":"gma","name":"Wern Ty-isaf","coordinates":[-3.98547,51.836629]},{"code":"GB-1171","program":"pota","name":"Penlle'r Castell National Historic Site","coordinates":[-3.93567,51.7693]},{"code":"GB-1206","program":"pota","name":"Mynydd Du Site of Significant Scientific Interest","coordinates":[-3.84477,51.8572]},{"code":"GW/SW-022","program":"sota","name":"Trichrug","coordinates":[-3.892048,51.88964]},{"code":"GW/SW-028","program":"sota","name":"Mynydd y Betws","coordinates":[-3.936512,51.768047]},{"code":"GW/SW-031","program":"sota","name":"Mynydd Uchaf","coordinates":[-3.863052,51.776672]},{"code":"GW/SW-032","program":"sota","name":"Mynydd Allt-y-grug","coordinates":[-3.807727,51.75798]},{"code":"B/GW-0052","program":"wwbota","name":"ROC Post Talley","coordinates":[-3.986366,51.975542]},{"code":"B/GW-0073","program":"wwbota","name":"ROC Post River Amman","coordinates":[-3.887952,51.792106]}]}