{"lat":51.75,"lon":12.5,"programs":["gma"],"count":7,"references":[{"code":"DA/SA-047","program":"gma","name":"Michelsberg","coordinates":[12.67171001,51.95430374]},{"code":"DA/SA-050","program":"gma","name":"Hubertusberg","coordinates":[12.5149484,51.909858]},{"code":"DA/SA-054","program":"gma","name":"Apollensberg","coordinates":[12.536719,51.882867]},{"code":"DA/SA-055","program":"gma","name":"Hirseberg","coordinates":[12.64417,51.97109]},{"code":"DA/SA-063","program":"gma","name":"Schwarzer Berg","coordinates":[12.676452,51.943099]},{"code":"DA/SA-169","program":"gma","name":"Gallunberg","coordinates":[12.57999,51.90455]},{"code":"DA/SA-275","program":"gma","name":"Krähenberg","coordinates":[12.5417,51.9615]}]}