{"lat":51.75,"lon":19.75,"programs":["pota"],"count":10,"references":[{"code":"PL-0960","program":"pota","name":"Źródła Borówki Nature Reserve","coordinates":[19.9597,51.9465]},{"code":"PL-0964","program":"pota","name":"Popień Nature Reserve","coordinates":[19.9289,51.7777]},{"code":"PL-0969","program":"pota","name":"Zimna Woda I Nature Reserve","coordinates":[19.9175,51.8355]},{"code":"PL-0973","program":"pota","name":"Bukowiec Nature Reserve","coordinates":[19.8994,51.9193]},{"code":"PL-0975","program":"pota","name":"Doliska Nature Reserve","coordinates":[19.8928,51.8406]},{"code":"PL-0978","program":"pota","name":"Kwaśna Buczyna Nature Reserve","coordinates":[19.8769,51.9196]},{"code":"PL-0991","program":"pota","name":"Dolina Mrogi Nature and Landscape Complex","coordinates":[19.8312,51.8205]},{"code":"PL-1001","program":"pota","name":"Rochna Nature and Landscape Complex","coordinates":[19.8017,51.7679]},{"code":"PL-1004","program":"pota","name":"Doliny Mrogi i Mrożycy Protected Landscape Area","coordinates":[19.7761,51.8567]},{"code":"PL-1018","program":"pota","name":"Górna Mrożyca Nature and Landscape Complex","coordinates":[19.7584,51.8302]}]}