{"lat":51.75,"lon":0,"programs":["pota","wwbota"],"count":19,"references":[{"code":"GB-0296","program":"pota","name":"Lee Valley SPA (including Rye Meads RSPB) Protected Area","coordinates":[0.009493,51.7733]},{"code":"GB-0305","program":"pota","name":"Hatfield Forest National Nature Reserve","coordinates":[0.229061,51.8598]},{"code":"GB-3256","program":"pota","name":"Grange Paddocks Park","coordinates":[0.163988,51.8757]},{"code":"GB-3742","program":"pota","name":"Harlow Town Park","coordinates":[0.100945,51.7775]},{"code":"GB-3743","program":"pota","name":"Thorley Wash Nature Reserve","coordinates":[0.160622,51.8424]},{"code":"GB-3744","program":"pota","name":"Southern Country Park","coordinates":[0.140657,51.8519]},{"code":"GB-3745","program":"pota","name":"Bat Willow Hurst Country Park","coordinates":[0.172294,51.8874]},{"code":"GB-4640","program":"pota","name":"Pishiobury Country Park","coordinates":[0.144113,51.8048]},{"code":"GB-6547","program":"pota","name":"Terlings Park","coordinates":[0.0995324,51.7841]},{"code":"GB-6548","program":"pota","name":"Parndon Lock Meadows & Harlow Marsh Nature Reserve","coordinates":[0.0850045,51.781]},{"code":"GB-6550","program":"pota","name":"Hawkenbury Meadow Nature Reserve","coordinates":[0.0777209,51.7601]},{"code":"GB-6611","program":"pota","name":"Rushy Mead (Bluebell Wood) Nature Reserve","coordinates":[0.172005,51.8551]},{"code":"B/G-0244","program":"wwbota","name":"ROC Post Hatfield Broad Oak","coordinates":[0.2368,51.818457]},{"code":"B/G-0368","program":"wwbota","name":"ROC Post Brent Pelham","coordinates":[0.072871,51.964438]},{"code":"B/G-0369","program":"wwbota","name":"ROC Post Much Hadham","coordinates":[0.083736,51.859667]},{"code":"B/G-1127","program":"wwbota","name":"1960s SRHQ Eastern - Region 4 - Hertford","coordinates":[0.080131,51.793666]},{"code":"B/G-1272","program":"wwbota","name":"Airfield Battle HQ - Hunsdon","coordinates":[0.065457,51.79983]},{"code":"B/G-1319","program":"wwbota","name":"Airfield Battle HQ - Sawbridgeworth","coordinates":[0.123485,51.843309]},{"code":"B/G-1918","program":"wwbota","name":"RAF Hundson, WW2 base defence bunker cluster","coordinates":[0.065682,51.8085]}]}