{"lat":51.75,"lon":10,"programs":["gma","sota"],"count":5,"references":[{"code":"DA/NI-343","program":"gma","name":"Hohe Dehne","coordinates":[10.04749966,51.95999908]},{"code":"DA/NI-348","program":"gma","name":"Buchenberg","coordinates":[10.19690037,51.93889999]},{"code":"DM/NS-110","program":"sota","name":"Fahrenberg","coordinates":[10.1539,51.8206]},{"code":"DM/NS-152","program":"sota","name":"Kahlberg","coordinates":[10.0614,51.8144]},{"code":"DM/NS-178","program":"sota","name":"Westerberg","coordinates":[10.0048,51.79]}]}