{"lat":51.75,"lon":16.5,"programs":["pota"],"count":6,"references":[{"code":"PL-1658","program":"pota","name":"Zachodnie Pojezierze Krzywińskie Natura 2000","coordinates":[16.7167,51.9181]},{"code":"PL-1673","program":"pota","name":"Zbiornik Wonieść Natura 2000","coordinates":[16.7062,51.941]},{"code":"PL-1681","program":"pota","name":"Dolinka Nature Reserve","coordinates":[16.611,51.9114]},{"code":"PL-2304","program":"pota","name":"Ostoja Żółwia Błotnego Nature Reserve","coordinates":[16.6936,51.9431]},{"code":"PL-2367","program":"pota","name":"Czarne Doły Nature Reserve","coordinates":[16.6773,51.9383]},{"code":"PL-2573","program":"pota","name":"Kompleks leśny Śmigiel-Święciechowa Protected Landscape Area","coordinates":[16.5106,51.9331]}]}