{"lat":51.75,"lon":-116,"programs":["gma","sota"],"count":23,"references":[{"code":"XVE6/HC-244","program":"gma","name":"Peak LG3","coordinates":[-115.8959,51.9237]},{"code":"VE6/HC-098","program":"sota","name":"Bellow Peak","coordinates":[-115.995926,51.76035]},{"code":"VE6/HC-110","program":"sota","name":"Peak 47-48","coordinates":[-115.794525,51.78749]},{"code":"VE6/HC-139","program":"sota","name":"Condor Peak","coordinates":[-115.92164,51.793804]},{"code":"VE6/HC-158","program":"sota","name":"Forbidden Peak","coordinates":[-115.86031,51.832226]},{"code":"VE6/HC-170","program":"sota","name":"Mount Peters","coordinates":[-115.9795,51.8232]},{"code":"VE6/HC-177","program":"sota","name":"Chirp Peak","coordinates":[-115.945885,51.7523]},{"code":"VE6/HC-234","program":"sota","name":"Lost Guide Peak","coordinates":[-115.9364,51.89021]},{"code":"VE6/HC-235","program":"sota","name":"North Guide Peak","coordinates":[-115.95229,51.90705]},{"code":"VE6/HC-236","program":"sota","name":"Peak LG5","coordinates":[-115.81564,51.94511]},{"code":"VE6/HC-237","program":"sota","name":"Peak LG6","coordinates":[-115.78285,51.94093]},{"code":"VE6/HC-238","program":"sota","name":"Peak LG9","coordinates":[-115.99519,51.94828]},{"code":"VE6/HC-239","program":"sota","name":"Peak LG2","coordinates":[-115.99228,51.92797]},{"code":"VE6/HC-240","program":"sota","name":"Peak LG4","coordinates":[-115.83976,51.92871]},{"code":"VE6/HC-241","program":"sota","name":"Peak WA4","coordinates":[-115.85384,51.98203]},{"code":"VE6/HC-242","program":"sota","name":"Peak LG7","coordinates":[-115.75522,51.93172]},{"code":"VE6/HC-243","program":"sota","name":"Peak LG1","coordinates":[-115.91503,51.91706]},{"code":"VE6/HC-250","program":"sota","name":"Peak WA1","coordinates":[-115.77169,51.96696]},{"code":"VE6/HC-252","program":"sota","name":"Peak WA2","coordinates":[-115.8074,51.97663]},{"code":"VE6/HC-253","program":"sota","name":"Peak WA6","coordinates":[-115.83075,51.96627]},{"code":"VE6/HC-303","program":"sota","name":"Clover Peak","coordinates":[-115.8942,51.7503]},{"code":"VE6/HC-309","program":"sota","name":"VE6/HC-309","coordinates":[-115.9201,51.8797]},{"code":"VE6/HC-351","program":"sota","name":"Lost Guide E1","coordinates":[-115.8852,51.894]}]}