{"lat":51.75,"lon":-10.5,"programs":["sota","wwbota"],"count":9,"references":[{"code":"EI/IS-071","program":"sota","name":"Bolus","coordinates":[-10.321626,51.801834]},{"code":"EI/IS-076","program":"sota","name":"Knocknaskereighta","coordinates":[-10.313559,51.868977]},{"code":"EI/IS-094","program":"sota","name":"Killurly","coordinates":[-10.313305,51.83572]},{"code":"EI/IS-107","program":"sota","name":"Killelan Mountain","coordinates":[-10.30646,51.957207]},{"code":"EI/IS-112","program":"sota","name":"Geokaun","coordinates":[-10.346325,51.92274]},{"code":"EI/IS-117","program":"sota","name":"Bray Head","coordinates":[-10.421397,51.890827]},{"code":"EI/IS-131","program":"sota","name":"Puffin Island","coordinates":[-10.410609,51.83736]},{"code":"B/EI-0034","program":"wwbota","name":"Bolus Head Lookout Post (LOP 34)","coordinates":[-10.33629,51.79261]},{"code":"B/EI-0035","program":"wwbota","name":"Bray Head Lookout Post (LOP 35)","coordinates":[-10.42493,51.88541]}]}