{"lat":51.75,"lon":-1.25,"programs":["gma","pota","wwbota"],"count":26,"references":[{"code":"G/HCE-016","program":"gma","name":"Muswell Hill","coordinates":[-1.07116997,51.8326416]},{"code":"G/HCE-021","program":"gma","name":"Shotover Hill","coordinates":[-1.18583,51.75167084]},{"code":"GB-0245","program":"pota","name":"Otmoor RSPB Reserve","coordinates":[-1.17472,51.8095]},{"code":"GB-0724","program":"pota","name":"Shotover Country Park","coordinates":[-1.18453,51.7526]},{"code":"GB-4244","program":"pota","name":"Bure Park Nature Reserve","coordinates":[-1.16229,51.9082]},{"code":"GB-4245","program":"pota","name":"Pingle Brook Open Space Park Reserve","coordinates":[-1.1664,51.8962]},{"code":"GB-4579","program":"pota","name":"Calvert Jubilee Nature Reserve","coordinates":[-1.00926,51.9197]},{"code":"GB-4583","program":"pota","name":"Island Pond Wood Nature Reserve","coordinates":[-1.116,51.896]},{"code":"GB-4584","program":"pota","name":"Upper Ray Meadows Nature Reserve","coordinates":[-1.07461,51.876]},{"code":"GB-5133","program":"pota","name":"Brill Common & Windmill Scenic Reserve","coordinates":[-1.05612,51.8226]},{"code":"GB-5811","program":"pota","name":"Rushbeds Woodland Reserve","coordinates":[-1.03565,51.8376]},{"code":"GB-6661","program":"pota","name":"Whitecross Green Wood Nature Reserve","coordinates":[-1.1286,51.8265]},{"code":"GB-6662","program":"pota","name":"Asham Meads Nature Reserve","coordinates":[-1.14485,51.8233]},{"code":"GB-6663","program":"pota","name":"Sydlings Copse Nature Reserve","coordinates":[-1.19206,51.782]},{"code":"B/G-0669","program":"wwbota","name":"ROC Post Middleton Stoney","coordinates":[-1.213796,51.909568]},{"code":"B/G-0670","program":"wwbota","name":"ROC Post Brill","coordinates":[-1.072367,51.831035]},{"code":"B/G-1203","program":"wwbota","name":"Airfield Battle HQ - Bicester","coordinates":[-1.136338,51.915859]},{"code":"B/G-1232","program":"wwbota","name":"Airfield Battle HQ - Croughton","coordinates":[-1.184363,51.993523]},{"code":"B/G-1249","program":"wwbota","name":"Airfield Battle HQ - Finmere","coordinates":[-1.07475,51.983723]},{"code":"B/G-1303","program":"wwbota","name":"Airfield Battle HQ - Oakley","coordinates":[-1.072299,51.777806]},{"code":"B/G-1576","program":"wwbota","name":"RAF Finmere, WW2 bomb store bunker","coordinates":[-1.065888,51.978893]},{"code":"B/G-1714","program":"wwbota","name":"RAF Croughton, WW2 bomb store bunker","coordinates":[-1.191391,51.984848]},{"code":"B/G-1729","program":"wwbota","name":"RAF Croughton, WW2 ground defence bunker cluster","coordinates":[-1.167625,51.992871]},{"code":"B/G-2200","program":"wwbota","name":"St Olaves WW2 Pillbox cluster","coordinates":[-1.2285608,51.804067]},{"code":"B/G-2277","program":"wwbota","name":"RAF Weson on the Green WW2 Ground Defence","coordinates":[-1.222668,51.884094]},{"code":"B/G-2637","program":"wwbota","name":"Bombing decoy bunker, Grendon","coordinates":[-1.022651,51.870684]}]}