{"lat":52,"lon":9.5,"programs":["gma","pota","sota"],"count":15,"references":[{"code":"DA/NI-256","program":"gma","name":"Kalenberg","coordinates":[9.59897804,52.23361969]},{"code":"DA/NI-319","program":"gma","name":"Duinger Berg","coordinates":[9.73779964,52.00139999]},{"code":"DA/NI-400","program":"gma","name":"Mangel","coordinates":[9.572629,52.158929]},{"code":"DA/NI-402","program":"gma","name":"Hirschkoepfe","coordinates":[9.52407,52.24352]},{"code":"DA/NI-403","program":"gma","name":"Bielstein","coordinates":[9.559716,52.236545]},{"code":"DA/NI-404","program":"gma","name":"Fahrenbrink","coordinates":[9.525254,52.222084]},{"code":"DE-0210","program":"pota","name":"Köllnischfeld Bröhn Nature Reserve","coordinates":[9.52809,52.2409]},{"code":"DE-0212","program":"pota","name":"Ith Nature Reserve","coordinates":[9.57478,52.0416]},{"code":"DE-0782","program":"pota","name":"Saupark National Nature Reserve","coordinates":[9.57592,52.1696]},{"code":"DE-0988","program":"pota","name":"Kulturroute National Recreation Trail","coordinates":[9.57777,52.2499]},{"code":"DM/NS-107","program":"sota","name":"Grasberg","coordinates":[9.5639,52.1644]},{"code":"DM/NS-121","program":"sota","name":"Fast","coordinates":[9.6125,52.1286]},{"code":"DM/NS-122","program":"sota","name":"Bröhn","coordinates":[9.5083,52.2472]},{"code":"DM/NS-127","program":"sota","name":"Thüster Berg / Kanstein","coordinates":[9.6228,52.0581]},{"code":"DM/NS-135","program":"sota","name":"Lauensteiner Kopf","coordinates":[9.52694,52.08583]}]}