{"lat":52,"lon":5,"programs":["pota","wwbota"],"count":17,"references":[{"code":"NL-0044","program":"pota","name":"De Vuursche - Lage Vuursche Park","coordinates":[5.22175,52.1933]},{"code":"NL-0196","program":"pota","name":"Noorderparkruigenhoek National Park","coordinates":[5.11439,52.133]},{"code":"NL-0217","program":"pota","name":"De Westbroekse Zodden National Park","coordinates":[5.14059,52.1796]},{"code":"NL-0226","program":"pota","name":"Panbos Park","coordinates":[5.22617,52.1141]},{"code":"NL-0232","program":"pota","name":"Molenpolder Natura 2000","coordinates":[5.09408,52.146]},{"code":"NL-0261","program":"pota","name":"Fort bij ’t Hemeltje Historic Site","coordinates":[5.14527,52.0497]},{"code":"NL-0268","program":"pota","name":"Fort bij Vechten Historic Site","coordinates":[5.1668,52.0593]},{"code":"B/PA-0009","program":"wwbota","name":"Ruigenhoeksedijk","coordinates":[5.1296735,52.1290337]},{"code":"B/PA-0091","program":"wwbota","name":"Unknown","coordinates":[5.1306634,52.0858946]},{"code":"B/PA-0096","program":"wwbota","name":"Voormalige WO2-bunker Duitse leger (1942)","coordinates":[5.1461239,52.1959238]},{"code":"B/PA-0164","program":"wwbota","name":"Unknown","coordinates":[5.2021678,52.137676]},{"code":"B/PA-0248","program":"wwbota","name":"Unknown","coordinates":[5.0435718,52.0696826]},{"code":"B/PA-0249","program":"wwbota","name":"Unknown","coordinates":[5.0377966,52.0707379]},{"code":"B/PA-0272","program":"wwbota","name":"Voormalige WO2-bunker Duitse leger (1942)","coordinates":[5.1468583,52.1954455]},{"code":"B/PA-0405","program":"wwbota","name":"Unknown","coordinates":[5.0777138,52.1053752]},{"code":"B/PA-0501","program":"wwbota","name":"Unknown","coordinates":[5.1583447,52.2403188]},{"code":"B/PA-1308","program":"wwbota","name":"Fort Kijkuit","coordinates":[5.05883403535746,52.2358506358108]}]}