{"lat":52,"lon":1,"programs":["pota","wwbota"],"count":27,"references":[{"code":"GB-0672","program":"pota","name":"Orwell Country Park","coordinates":[1.18421,52.019]},{"code":"GB-3572","program":"pota","name":"Christchurch Park","coordinates":[1.15626,52.0637]},{"code":"GB-3573","program":"pota","name":"Holywells Park","coordinates":[1.17082,52.0477]},{"code":"GB-4559","program":"pota","name":"Bobbits Lane Local Nature Reserve","coordinates":[1.12659,52.0317]},{"code":"GB-4560","program":"pota","name":"Chantry Park","coordinates":[1.12032,52.0545]},{"code":"GB-4561","program":"pota","name":"Gippeswyk Park","coordinates":[1.13559,52.0509]},{"code":"GB-4562","program":"pota","name":"Rushmere Common Country Park","coordinates":[1.20963,52.0578]},{"code":"GB-5262","program":"pota","name":"Railway Walk Hadleigh Local Nature Reserve","coordinates":[1.00064,52.0243]},{"code":"GB-5584","program":"pota","name":"Bramford Meadows Local Nature Reserve","coordinates":[1.10174,52.0812]},{"code":"GB-5585","program":"pota","name":"The Dales Open Space Local Nature Reserve","coordinates":[1.14238,52.0723]},{"code":"GB-5586","program":"pota","name":"Alderman Canal West Local Nature Reserve","coordinates":[1.14054,52.0558]},{"code":"GB-5587","program":"pota","name":"Alderman Canal East Local Nature Reserve","coordinates":[1.14271,52.0566]},{"code":"GB-5588","program":"pota","name":"Bixley Heath Local Nature Reserve","coordinates":[1.20511,52.0419]},{"code":"GB-5589","program":"pota","name":"Mill Stream Local Nature Reserve","coordinates":[1.2223,52.0544]},{"code":"GB-5590","program":"pota","name":"Pipers Vale Local Nature Reserve","coordinates":[1.17196,52.03]},{"code":"GB-5591","program":"pota","name":"Stoke Park Wood Local Nature Reserve","coordinates":[1.13376,52.0347]},{"code":"GB-5592","program":"pota","name":"Bourne Park Reed Beds Local Nature Reserve","coordinates":[1.13857,52.0324]},{"code":"GB-5593","program":"pota","name":"Milllenium Wood Local Nature Reserve","coordinates":[1.12751,52.0287]},{"code":"GB-5594","program":"pota","name":"Spring Wood Belstead Local Nature Reserve","coordinates":[1.12483,52.0291]},{"code":"GB-5595","program":"pota","name":"Needham Lake Local Nature Reserve","coordinates":[1.0583,52.1523]},{"code":"GB-5606","program":"pota","name":"Sandlings Local Nature Reserve","coordinates":[1.2127,52.0555]},{"code":"GB-5740","program":"pota","name":"Combs Wood Nature Reserve","coordinates":[1.00308,52.1717]},{"code":"GB-6001","program":"pota","name":"Stonelodge Park","coordinates":[1.11902,52.0433]},{"code":"B/G-0770","program":"wwbota","name":"ROC Post Claydon","coordinates":[1.115595,52.101633]},{"code":"B/G-0771","program":"wwbota","name":"ROC Post Crowfield","coordinates":[1.154994,52.161113]},{"code":"B/G-0772","program":"wwbota","name":"ROC Post Debenham","coordinates":[1.175362,52.231437]},{"code":"B/G-2079","program":"wwbota","name":"Jermin's Farm bunker (Ipswich)","coordinates":[1.0401,52.01134]}]}