{"lat":52,"lon":21,"programs":["pota","wwbota"],"count":31,"references":[{"code":"PL-0567","program":"pota","name":"Dolina Środkowej Wisły Natura 2000","coordinates":[21.2175,52.0778]},{"code":"PL-0554","program":"pota","name":"Mazowiecki Landscape Park","coordinates":[21.2264,52.2088]},{"code":"PL-0565","program":"pota","name":"Łachy Brzeskie Nature Reserve","coordinates":[21.2262,52.0248]},{"code":"PL-0569","program":"pota","name":"Wyspy Świderskie Nature Reserve","coordinates":[21.2061,52.1059]},{"code":"PL-0585","program":"pota","name":"im. Jana III Sobieskiego Nature Reserve","coordinates":[21.1659,52.2298]},{"code":"PL-0586","program":"pota","name":"Wyspy Zawadowskie Nature Reserve","coordinates":[21.1711,52.1464]},{"code":"PL-0592","program":"pota","name":"Olszyna Łyczyńska Nature Reserve","coordinates":[21.1562,52.0777]},{"code":"PL-0594","program":"pota","name":"Łęgi Oborskie Nature Reserve","coordinates":[21.1415,52.087]},{"code":"PL-0597","program":"pota","name":"Obory Nature Reserve","coordinates":[21.1394,52.0641]},{"code":"PL-0600","program":"pota","name":"Skarpa Oborska Nature Reserve","coordinates":[21.1372,52.0833]},{"code":"PL-0608","program":"pota","name":"Olszynka Grochowska Nature Reserve","coordinates":[21.1231,52.2464]},{"code":"PL-0611","program":"pota","name":"Łąki Soleckie Natura 2000","coordinates":[21.1019,52.0333]},{"code":"PL-0612","program":"pota","name":"Morysin Nature Reserve","coordinates":[21.0989,52.1728]},{"code":"PL-0614","program":"pota","name":"Pilawski Grąd Nature Reserve","coordinates":[21.0926,52.0301]},{"code":"PL-0615","program":"pota","name":"Skarpa Ursynowska Nature Reserve","coordinates":[21.0524,52.1651]},{"code":"PL-0618","program":"pota","name":"Las Natoliński Nature Reserve","coordinates":[21.0837,52.1438]},{"code":"PL-0624","program":"pota","name":"Jeziorko Czerniakowskie Nature Reserve","coordinates":[21.0728,52.1935]},{"code":"PL-0625","program":"pota","name":"Chojnów Nature Reserve","coordinates":[21.082,52.0505]},{"code":"PL-0627","program":"pota","name":"Las Kabacki im. Stefana Starzyńskiego Nature Reserve","coordinates":[21.0613,52.1165]},{"code":"PL-0630","program":"pota","name":"Uroczysko Stephana Nature Reserve","coordinates":[21.0589,52.0387]},{"code":"PL-0634","program":"pota","name":"Stawy w Żabieńcu Natura 2000","coordinates":[21.0344,52.0492]},{"code":"PL-0636","program":"pota","name":"Arkadia Nature and Landscape Complex","coordinates":[21.0288,52.1907]},{"code":"PL-0637","program":"pota","name":"Górki Szymona Nature and Landscape Complex","coordinates":[21.0222,52.0507]},{"code":"PL-0638","program":"pota","name":"Zakole Wawerskie Nature and Landscape Complex","coordinates":[21.1269,52.2307]},{"code":"PL-0639","program":"pota","name":"Park SGGW Nature and Landscape Complex","coordinates":[21.0055,52.2088]},{"code":"PL-0658","program":"pota","name":"Chojnowski Landscape Park","coordinates":[21.1253,52.0653]},{"code":"B/SP-0209","program":"wwbota","name":"Bunkier Regelbau514, Warszawa-Wesoła","coordinates":[21.23207,52.24503]},{"code":"B/SP-0237","program":"wwbota","name":"Fundament schronu Regelbau 514","coordinates":[21.2464024,52.2326764]},{"code":"B/SP-0238","program":"wwbota","name":"Schron Regelbau 514","coordinates":[21.2158601,52.2450467]},{"code":"B/SP-0239","program":"wwbota","name":"Schron obserwacyjny z 1915 roku","coordinates":[21.24899465623592,52.204750944688485]},{"code":"B/SP-0241","program":"wwbota","name":"Fort IX Twierdzy Warszawa","coordinates":[21.06778,52.1825]}]}