{"lat":52,"lon":0.5,"programs":["pota","wwbota"],"count":18,"references":[{"code":"GB-0408","program":"pota","name":"Long Melford Country Park","coordinates":[0.708301,52.0606]},{"code":"GB-1696","program":"pota","name":"Clare Castle Country Park","coordinates":[0.582304,52.0768]},{"code":"GB-1697","program":"pota","name":"Nowton Park Country Park","coordinates":[0.733736,52.2233]},{"code":"GB-2034","program":"pota","name":"Hardwick Heath Park","coordinates":[0.714825,52.2304]},{"code":"GB-5192","program":"pota","name":"Sudbury Common Lands Nature Reserve","coordinates":[0.721402,52.0389]},{"code":"GB-5259","program":"pota","name":"The Railway Walks Local Nature Reserve","coordinates":[0.715986,52.0447]},{"code":"GB-5265","program":"pota","name":"Kone Vale Park","coordinates":[0.719703,52.0335]},{"code":"GB-5266","program":"pota","name":"Friars Meadow Park Reserve","coordinates":[0.73364,52.0344]},{"code":"GB-5290","program":"pota","name":"Great Cornard Walk National Scenic Trail","coordinates":[0.733219,52.0355]},{"code":"GB-5615","program":"pota","name":"Moreton Hall Community Woods Local Nature Reserve","coordinates":[0.732858,52.2484]},{"code":"GB-5739","program":"pota","name":"Foxearth Meadows Nature Reserve","coordinates":[0.673891,52.0825]},{"code":"B/G-0252","program":"wwbota","name":"ROC Post Clare","coordinates":[0.581454,52.064726]},{"code":"B/G-0758","program":"wwbota","name":"ROC Post Wickhambrook","coordinates":[0.557292,52.157608]},{"code":"B/G-0759","program":"wwbota","name":"ROC Post Bury St. Edmunds","coordinates":[0.678017,52.229838]},{"code":"B/G-0760","program":"wwbota","name":"ROC Post Hartest","coordinates":[0.689533,52.138017]},{"code":"B/G-0762","program":"wwbota","name":"ROC Post Sudbury","coordinates":[0.749379,52.057329]},{"code":"B/G-2363","program":"wwbota","name":"Chedburgh Battle Head Quarters","coordinates":[0.611387,52.183926]},{"code":"B/G-2374","program":"wwbota","name":"RAF Ridgewell Bomb Store","coordinates":[0.56099444,52.055892]}]}