{"lat":52,"lon":11,"programs":["gma","pota","wwbota"],"count":5,"references":[{"code":"DA/SA-032","program":"gma","name":"Rodenberg","coordinates":[11.0777998,52.19860077]},{"code":"DA/SA-033","program":"gma","name":"Edelberg","coordinates":[11.2145819,52.0977612]},{"code":"DA/SA-069","program":"gma","name":"Heidberg","coordinates":[11.112467,52.16684]},{"code":"DE-0385","program":"pota","name":"Wiesenpark Regional Reserve","coordinates":[11.2375,52.0222]},{"code":"B/DL-0747","program":"wwbota","name":"FB-3 Hötensleben","coordinates":[11.012553,52.120871]}]}