{"lat":52,"lon":20,"programs":["pota"],"count":6,"references":[{"code":"PL-0880","program":"pota","name":"Bolimowski Landscape Park","coordinates":[20.1544,52.0207]},{"code":"PL-0882","program":"pota","name":"Grabinka Natura 2000","coordinates":[20.2202,52.0341]},{"code":"PL-0889","program":"pota","name":"Kopanicha Nature Reserve","coordinates":[20.1895,52.0097]},{"code":"PL-0903","program":"pota","name":"Polany Puszczy Bolimowskiej Natura 2000","coordinates":[20.1457,52.0099]},{"code":"PL-0915","program":"pota","name":"Polana Siwica Nature Reserve","coordinates":[20.1071,52.0389]},{"code":"PL-0923","program":"pota","name":"Nieborów Nature and Landscape Complex","coordinates":[20.0736,52.0593]}]}