{"lat":52,"lon":8.75,"programs":["gma","pota"],"count":24,"references":[{"code":"DA/NW-093","program":"gma","name":"Boberg","coordinates":[8.81639957,52.09109879]},{"code":"DA/NW-096","program":"gma","name":"Klusberg","coordinates":[8.83749962,52.15499878]},{"code":"DA/NW-100","program":"gma","name":"Ebenoede","coordinates":[8.84189987,52.1753006]},{"code":"DA/NW-102","program":"gma","name":"Steinberg","coordinates":[8.84939957,52.18080139]},{"code":"DA/NW-103","program":"gma","name":"Eiberg","coordinates":[8.84939957,52.1330986]},{"code":"DA/NW-104","program":"gma","name":"Moenkeberg","coordinates":[8.84889984,52.06280136]},{"code":"DA/NW-106","program":"gma","name":"Bickplecken","coordinates":[8.85439968,52.10419846]},{"code":"DA/NW-111","program":"gma","name":"Haverstädter Berg","coordinates":[8.87586,52.24891]},{"code":"DA/NW-113","program":"gma","name":"Saalegge","coordinates":[8.88329983,52.14310074]},{"code":"DA/NW-114","program":"gma","name":"Ruschberg","coordinates":[8.88780022,52.15140152]},{"code":"DA/NW-122","program":"gma","name":"Kleeberg","coordinates":[8.98060036,52.06389999]},{"code":"DA/NW-165","program":"gma","name":"Jacobsberg","coordinates":[8.93599033,52.24148941]},{"code":"DA/NW-166","program":"gma","name":"Koenigsberg","coordinates":[8.94981956,52.24087143]},{"code":"DA/NW-167","program":"gma","name":"Roter Brink","coordinates":[8.96496964,52.2385788]},{"code":"DA/NW-170","program":"gma","name":"NammerKopf","coordinates":[8.99337006,52.23472977]},{"code":"DA/NW-260","program":"gma","name":"Steinegge","coordinates":[8.80060005,52.15330124]},{"code":"DA/NW-261","program":"gma","name":"Bonstapel","coordinates":[8.88000011,52.10889816]},{"code":"DA/NW-273","program":"gma","name":"Wittekindsberg","coordinates":[8.88971,52.24623]},{"code":"DA/NW-328","program":"gma","name":"Rafelder Berg","coordinates":[8.97389984,52.11640167]},{"code":"DA/NW-382","program":"gma","name":"Windmuehle Bavenhausen","coordinates":[8.9510257,52.0814573]},{"code":"DE-0150","program":"pota","name":"Porta Westfalica & Kaiser-Wilhelm-Denkmal Historic Site","coordinates":[8.90443,52.2458]},{"code":"DE-0540","program":"pota","name":"Lemgoer Mark Provincial Recreation Area","coordinates":[8.9459,52.0479]},{"code":"DE-0569","program":"pota","name":"Lagenser Stadtwald National Recreation Area","coordinates":[8.78795,52.0007]},{"code":"DE-0783","program":"pota","name":"Kurpark Bad Oeynhausen National Historical Park","coordinates":[8.79513,52.2005]}]}