{"lat":52,"lon":10,"programs":["gma","pota","sota"],"count":6,"references":[{"code":"DA/NI-344","program":"gma","name":"Turmberg","coordinates":[10.0642004,52.07559967]},{"code":"DA/NI-346","program":"gma","name":"Kalter Buschkopf","coordinates":[10.22220039,52.03310013]},{"code":"DA/NI-410","program":"gma","name":"Emilienhoehe","coordinates":[10.00819,52.070221]},{"code":"DA/NI-411","program":"gma","name":"Wohldenberg","coordinates":[10.1534657,52.058605]},{"code":"DE-0209","program":"pota","name":"Mittleres Innerstetal mit Kanstein Nature Reserve","coordinates":[10.1324,52.1012]},{"code":"DM/NS-163","program":"sota","name":"Hammersteins Höhe","coordinates":[10.0406,52.0575]}]}