{"lat":52,"lon":10.25,"programs":["gma","pota","wwbota"],"count":7,"references":[{"code":"DA/NI-271","program":"gma","name":"Galgenberg","coordinates":[10.402856,52.008176]},{"code":"DA/NI-272","program":"gma","name":"Bärenkopf","coordinates":[10.39748,52.018936]},{"code":"DA/NI-369","program":"gma","name":"Hamberg","coordinates":[10.3574,52.06353]},{"code":"DE-0245","program":"pota","name":"Heerter See und Heerter Strauchholz Nature Reserve","coordinates":[10.3889,52.1137]},{"code":"DE-0246","program":"pota","name":"Tagebau Haverlahwiese Nature Reserve","coordinates":[10.3154,52.1081]},{"code":"DE-0753","program":"pota","name":"Gutspark Flachstöckheim National Historical Park","coordinates":[10.4378,52.0864]},{"code":"B/DL-0151","program":"wwbota","name":"Hochbunker Salzgitter Heerte","coordinates":[10.386983,52.125133]}]}