{"lat":52,"lon":8,"programs":["gma","pota","sota"],"count":62,"references":[{"code":"DA/NI-021","program":"gma","name":"Heidhornberg","coordinates":[8.00720024,52.17610168]},{"code":"DA/NI-023","program":"gma","name":"Kahle Berg","coordinates":[8.01249981,52.15890121]},{"code":"DA/NI-024","program":"gma","name":"Nottberg","coordinates":[8.01609993,52.18310165]},{"code":"DA/NI-025","program":"gma","name":"Baumannsknollen","coordinates":[8.01808,52.19405]},{"code":"DA/NI-026","program":"gma","name":"Grafensundern","coordinates":[8.03554,52.18105]},{"code":"DA/NI-027","program":"gma","name":"Bardinghaussundern","coordinates":[8.03359985,52.19250107]},{"code":"DA/NI-028","program":"gma","name":"Rehremberg","coordinates":[8.05109978,52.18920135]},{"code":"DA/NI-029","program":"gma","name":"Hochholz","coordinates":[8.06830025,52.18000031]},{"code":"DA/NI-030","program":"gma","name":"Kleiner Freeden","coordinates":[8.07610035,52.1568985]},{"code":"DA/NI-031","program":"gma","name":"Großer Freeden","coordinates":[8.09060001,52.15890121]},{"code":"DA/NI-032","program":"gma","name":"Musenberg","coordinates":[8.09189987,52.18080139]},{"code":"DA/NI-034","program":"gma","name":"Hohnsberg","coordinates":[8.10309982,52.16360092]},{"code":"DA/NI-036","program":"gma","name":"Lüdenstein","coordinates":[8.12749958,52.11389923]},{"code":"DA/NI-038","program":"gma","name":"Evensbrink","coordinates":[8.16250038,52.15330124]},{"code":"DA/NI-039","program":"gma","name":"Hülsberg","coordinates":[8.17228,52.15516]},{"code":"DA/NI-040","program":"gma","name":"Hohnangel","coordinates":[8.17529964,52.14390182]},{"code":"DA/NI-041","program":"gma","name":"Wehdeberg","coordinates":[8.17940044,52.13970184]},{"code":"DA/NI-042","program":"gma","name":"Borgloher Egge","coordinates":[8.18529987,52.15530014]},{"code":"DA/NI-043","program":"gma","name":"Asberg","coordinates":[8.18999958,52.13750076]},{"code":"DA/NI-044","program":"gma","name":"Lohnberg","coordinates":[8.20110035,52.15719986]},{"code":"DA/NI-045","program":"gma","name":"Petersbrink","coordinates":[8.2019,52.1302]},{"code":"DA/NI-046","program":"gma","name":"Steinbrink","coordinates":[8.20189953,52.14580154]},{"code":"DA/NI-047","program":"gma","name":"Schollegge","coordinates":[8.21189976,52.12939835]},{"code":"DA/NI-048","program":"gma","name":"Sahlbrink","coordinates":[8.22280025,52.13439941]},{"code":"DA/NI-049","program":"gma","name":"Steinegge","coordinates":[8.22280025,52.12810135]},{"code":"DA/NI-158","program":"gma","name":"Holzhauser Berg","coordinates":[8.01629,52.20895]},{"code":"DA/NI-159","program":"gma","name":"Lammersbrink","coordinates":[8.0320797,52.19818878]},{"code":"DA/NI-160","program":"gma","name":"Urberg","coordinates":[8.02215004,52.17052078]},{"code":"DA/NI-161","program":"gma","name":"Barenbrink","coordinates":[8.04380035,52.18035889]},{"code":"DA/NI-162","program":"gma","name":"Twalsbrink","coordinates":[8.06011009,52.17985916]},{"code":"DA/NI-163","program":"gma","name":"Vossbrink","coordinates":[8.07703972,52.18458176]},{"code":"DA/NI-164","program":"gma","name":"Limberg","coordinates":[8.08673954,52.16793823]},{"code":"DA/NI-165","program":"gma","name":"Langer Berg","coordinates":[8.02363014,52.16001129]},{"code":"DA/NI-166","program":"gma","name":"Heidbrink","coordinates":[8.14391041,52.15538025]},{"code":"DA/NI-167","program":"gma","name":"Aschendorfer Berg","coordinates":[8.13469982,52.11019135]},{"code":"DA/NI-168","program":"gma","name":"Rudolfshoehe","coordinates":[8.16792011,52.22735977]},{"code":"DA/NI-169","program":"gma","name":"Holter Berg","coordinates":[8.1919899,52.22343826]},{"code":"DA/NI-170","program":"gma","name":"Selberg","coordinates":[8.16707993,52.22533035]},{"code":"DA/NI-171","program":"gma","name":"Hollenberg","coordinates":[8.18447971,52.18603897]},{"code":"DA/NI-172","program":"gma","name":"Hasberg","coordinates":[8.1834898,52.17210007]},{"code":"DA/NI-173","program":"gma","name":"Weinberg","coordinates":[8.20151997,52.21010971]},{"code":"DA/NI-174","program":"gma","name":"Asberg","coordinates":[8.21926975,52.20344162]},{"code":"DA/NI-177","program":"gma","name":"Rechenbrink","coordinates":[8.21061039,52.1430397]},{"code":"DA/NI-178","program":"gma","name":"Timmer Egge","coordinates":[8.1906004,52.13489914]},{"code":"DA/NI-180","program":"gma","name":"Bietendorfer Berg","coordinates":[8.24571991,52.1445694]},{"code":"DA/NI-274","program":"gma","name":"Teckelhagen","coordinates":[8.0424,52.19198]},{"code":"DA/NI-284","program":"gma","name":"Harderberg","coordinates":[8.05805,52.23476]},{"code":"DA/NI-285","program":"gma","name":"Große Egge","coordinates":[8.09755,52.21463]},{"code":"DA/NI-288","program":"gma","name":"Werscher Berg","coordinates":[8.19865,52.24476]},{"code":"DA/NI-289","program":"gma","name":"Achelrieder Berg","coordinates":[8.18451,52.24174]},{"code":"DA/NI-290","program":"gma","name":"Stockumer Berg","coordinates":[8.17668,52.24932]},{"code":"DA/NI-291","program":"gma","name":"Eistruper Berg","coordinates":[8.14041,52.24487]},{"code":"DA/NI-293","program":"gma","name":"Haller Berg","coordinates":[8.23206,52.23986]},{"code":"DA/NI-294","program":"gma","name":"Holtingbänken","coordinates":[8.2152,52.2242]},{"code":"DA/NI-295","program":"gma","name":"Hengelsberg","coordinates":[8.11967,52.2297]},{"code":"DA/NI-306","program":"gma","name":"Hankenüll","coordinates":[8.24639988,52.12139893]},{"code":"DA/NI-357","program":"gma","name":"Osterberg","coordinates":[8.07272,52.23651]},{"code":"DA/NI-359","program":"gma","name":"Osterberg","coordinates":[8.07274,52.23652]},{"code":"DA/NW-154","program":"gma","name":"Buddelberg","coordinates":[8.01189995,52.16500092]},{"code":"DE-0079","program":"pota","name":"Terra.vita UNESCO Geopark","coordinates":[8.06985,52.2478]},{"code":"DE-0861","program":"pota","name":"Versmolder Bruch National Nature Reserve","coordinates":[8.17516,52.0167]},{"code":"DM/NS-036","program":"sota","name":"Dörenberg","coordinates":[8.0533,52.1756]}]}