{"lat":52,"lon":11.75,"programs":["gma","wwbota"],"count":5,"references":[{"code":"DA/SA-338","program":"gma","name":"Kapaunberg","coordinates":[11.8366852,52.2191446]},{"code":"B/DL-0107","program":"wwbota","name":"AFüSt – BV Magdeburg","coordinates":[11.828733,52.180369]},{"code":"B/DL-0423","program":"wwbota","name":"Luftbeobachtungsbunker","coordinates":[11.7552,52.200755]},{"code":"B/DL-0799","program":"wwbota","name":"abges. Sendestelle AFüSt BV Magdeburg","coordinates":[11.874256,52.179997]},{"code":"B/DL-0911","program":"wwbota","name":"NUP Wörmlitz","coordinates":[11.833938,52.175832]}]}