{"lat":52,"lon":16.75,"programs":["pota"],"count":5,"references":[{"code":"PL-1622","program":"pota","name":"Krajkowo Nature Reserve","coordinates":[16.9861,52.1968]},{"code":"PL-1633","program":"pota","name":"Rogaliński Landscape Park","coordinates":[16.9277,52.2337]},{"code":"PL-1642","program":"pota","name":"Goździk Siny w Grzybnie Nature Reserve","coordinates":[16.8308,52.1954]},{"code":"PL-1644","program":"pota","name":"Im. gen. D. Chłapowskiego Landscape Park","coordinates":[16.818,52.0602]},{"code":"PL-1645","program":"pota","name":"Ostoja Rogalińska Natura 2000","coordinates":[16.9488,52.1817]}]}