{"lat":52,"lon":-2.75,"programs":["gma","pota","sota","wwbota"],"count":13,"references":[{"code":"G/HWB-037","program":"gma","name":"White Hill","coordinates":[-2.5919199,52.08774185]},{"code":"GB-0421","program":"pota","name":"Queenswood Arboretum Country Park","coordinates":[-2.72233,52.1597]},{"code":"GB-4153","program":"pota","name":"Lugg Meadow and Lower Lugg Meadow Nature Reserve","coordinates":[-2.68283,52.0654]},{"code":"GB-4154","program":"pota","name":"Belmont Haywood National Park","coordinates":[-2.74713,52.0379]},{"code":"GB-4155","program":"pota","name":"Fownhope Wood and Park","coordinates":[-2.62058,52.0135]},{"code":"GB-4156","program":"pota","name":"Haugh Woods Site of Significant Scientific Interest","coordinates":[-2.59091,52.0278]},{"code":"GB-4158","program":"pota","name":"Castle Green Park","coordinates":[-2.71184,52.0527]},{"code":"GB-4159","program":"pota","name":"Aylestone Park","coordinates":[-2.69916,52.0705]},{"code":"G/WB-022","program":"sota","name":"Seager Hill","coordinates":[-2.549786,52.038593]},{"code":"G/WB-023","program":"sota","name":"Hegdon Hill","coordinates":[-2.607979,52.181973]},{"code":"B/G-0345","program":"wwbota","name":"ROC Post Pencombe Master Post","coordinates":[-2.560174,52.175185]},{"code":"B/G-0351","program":"wwbota","name":"ROC Post Leominster Master Post","coordinates":[-2.712025,52.215543]},{"code":"B/G-0353","program":"wwbota","name":"ROC Post Fownhope","coordinates":[-2.59546,52.003111]}]}