{"lat":52,"lon":-7.5,"programs":["pota","sota","wwbota"],"count":5,"references":[{"code":"IE-0162","program":"pota","name":"Mid-Waterford Coast Natura 2000","coordinates":[-7.34376,52.1383]},{"code":"IE-0163","program":"pota","name":"Tankardstown Copper Mine National Historic Site","coordinates":[-7.34277,52.1397]},{"code":"EI/IS-078","program":"sota","name":"Croughaun Hill","coordinates":[-7.445797,52.249897]},{"code":"B/EI-0018","program":"wwbota","name":"Dunbratton Head Lookout Post (LOP 18)","coordinates":[-7.30608,52.13314]},{"code":"B/EI-0168","program":"wwbota","name":"Kilmacthomas pillbox","coordinates":[-7.42296850739052,52.2065615679605]}]}