{"lat":52,"lon":6.75,"programs":["pota"],"count":6,"references":[{"code":"DE-0361","program":"pota","name":"Amtsvenn-Hündfelder Moor Nature Conservation Reserve","coordinates":[6.96044,52.1666]},{"code":"DE-1206","program":"pota","name":"Eper-Graeser Venn Nature Reserve","coordinates":[6.99705,52.1568]},{"code":"NL-0052","program":"pota","name":"Buurserzand Provincial Park","coordinates":[6.80369,52.158]},{"code":"NL-0053","program":"pota","name":"Haaksbergseveen Provincial Park","coordinates":[6.77347,52.1242]},{"code":"NL-0088","program":"pota","name":"Aamsveen Provincial Park","coordinates":[6.94304,52.1865]},{"code":"NL-0089","program":"pota","name":"Witte Veen Provincial Park","coordinates":[6.8763,52.151]}]}