{"lat":52,"lon":-118.5,"programs":["pota","sota","wwbota"],"count":12,"references":[{"code":"CA-3560","program":"pota","name":"Goosegrass Creek Ecological Reserve","coordinates":[-118.258,52.0239]},{"code":"VE7/CE-178","program":"sota","name":"CD31","coordinates":[-118.311844,52.233826]},{"code":"VE7/CE-212","program":"sota","name":"Mt. Dainard","coordinates":[-118.36715,52.204548]},{"code":"VE7/CE-235","program":"sota","name":"DC03","coordinates":[-118.33116,52.204792]},{"code":"VE7/CE-240","program":"sota","name":"Mt. Cummins","coordinates":[-118.25672,52.094753]},{"code":"VE7/CE-255","program":"sota","name":"CD20","coordinates":[-118.30757,52.221287]},{"code":"VE7/CE-274","program":"sota","name":"Dainard E1","coordinates":[-118.2875,52.208534]},{"code":"VE7/CE-297","program":"sota","name":"Cummins NW1","coordinates":[-118.29478,52.10679]},{"code":"VE7/CE-312","program":"sota","name":"Molson N1","coordinates":[-118.25779,52.17518]},{"code":"VE7/CE-319","program":"sota","name":"Dainard NW1","coordinates":[-118.39489,52.207928]},{"code":"VE7/CE-324","program":"sota","name":"Molson W1","coordinates":[-118.35294,52.16539]},{"code":"B/CA-0309","program":"wwbota","name":"FRP BH4","coordinates":[-118.4333333,52.11666669]}]}