{"lat":52,"lon":-117.75,"programs":["sota"],"count":26,"references":[{"code":"VE6/JS-019","program":"sota","name":"Mount King Edward","coordinates":[-117.51843,52.14958]},{"code":"VE6/JS-071","program":"sota","name":"Eden Peak","coordinates":[-117.732086,52.187775]},{"code":"VE6/JS-083","program":"sota","name":"Sundial Mountain","coordinates":[-117.63169,52.23282]},{"code":"VE6/JS-087","program":"sota","name":"Listening Mountain","coordinates":[-117.73284,52.24675]},{"code":"VE6/JS-104","program":"sota","name":"False Chaba Peak","coordinates":[-117.65106,52.2077]},{"code":"VE6/JS-105","program":"sota","name":"Sundial E4","coordinates":[-117.58227,52.22346]},{"code":"VE6/JS-116","program":"sota","name":"Wales Peak","coordinates":[-117.65563,52.185036]},{"code":"VE6/JS-121","program":"sota","name":"Omega Peak","coordinates":[-117.5794,52.129444]},{"code":"VE6/JS-160","program":"sota","name":"Triad Peak","coordinates":[-117.55822,52.12872]},{"code":"VE6/JS-208","program":"sota","name":"Warwick Mountain","coordinates":[-117.55847,52.23311]},{"code":"VE6/JS-315","program":"sota","name":"Chaba Peak","coordinates":[-117.672,52.1981]},{"code":"VE6/JS-318","program":"sota","name":"Omega Peak","coordinates":[-117.604,52.1401]},{"code":"VE7/CE-040","program":"sota","name":"Aqueduct Mountain","coordinates":[-117.634995,52.105595]},{"code":"VE7/CE-056","program":"sota","name":"Central Aqueduct Peak","coordinates":[-117.64689,52.120342]},{"code":"VE7/CE-057","program":"sota","name":"Queen Peak","coordinates":[-117.54117,52.046696]},{"code":"VE7/CE-059","program":"sota","name":"Rook Peak","coordinates":[-117.58791,52.009052]},{"code":"VE7/CE-061","program":"sota","name":"King Peak","coordinates":[-117.51564,52.0471]},{"code":"VE7/CE-081","program":"sota","name":"Aqueduct Peak SW2","coordinates":[-117.65008,52.0879]},{"code":"VE7/CE-102","program":"sota","name":"Mt. Fischer","coordinates":[-117.52628,52.09006]},{"code":"VE7/CE-107","program":"sota","name":"Triad Peak S1","coordinates":[-117.53575,52.116924]},{"code":"VE7/CE-132","program":"sota","name":"Rook NW1","coordinates":[-117.60023,52.025272]},{"code":"VE7/CE-159","program":"sota","name":"Spassky Peak","coordinates":[-117.52901,52.102215]},{"code":"VE7/CE-170","program":"sota","name":"Aqueduct Peak SW3","coordinates":[-117.647194,52.077305]},{"code":"VE7/CE-196","program":"sota","name":"Tsar SE8","coordinates":[-117.73555,52.035065]},{"code":"VE7/CE-219","program":"sota","name":"Rook N1","coordinates":[-117.572235,52.031143]},{"code":"VE7/CE-251","program":"sota","name":"GR480618","coordinates":[-117.74877,52.000565]}]}