{"lat":52,"lon":-3.75,"programs":["gma","pota","sota","wwbota"],"count":22,"references":[{"code":"GW/HMW-031","program":"gma","name":"Drum Ddu","coordinates":[-3.50783992,52.23258972]},{"code":"GW/HMW-061","program":"gma","name":"Mynydd Trawsnant","coordinates":[-3.72290993,52.12145996]},{"code":"GW/HMW-080","program":"gma","name":"Y Garth","coordinates":[-3.56086993,52.19100952]},{"code":"GW/HSW-016","program":"gma","name":"Moel Bylchau","coordinates":[-3.68390989,52.07872009]},{"code":"GW/HSW-020","program":"gma","name":"Mwmffri","coordinates":[-3.74344993,52.01042938]},{"code":"GW/HSW-022","program":"gma","name":"Mynydd Bwlch-y-Groes","coordinates":[-3.64976001,52.00754166]},{"code":"GW/HSW-031","program":"gma","name":"Noethgrug","coordinates":[-3.6963799,52.02280045]},{"code":"MW/MW-016","program":"gma","name":"Y Gamriw","coordinates":[-3.544962,52.238865]},{"code":"MW/MW-018","program":"gma","name":"Garn Wen South","coordinates":[-3.687593,52.099343]},{"code":"MW/MW-019","program":"gma","name":"Pen Carreg Dan","coordinates":[-3.665802,52.180576]},{"code":"MW/MW-021","program":"gma","name":"Garn Wen North","coordinates":[-3.605313,52.166129]},{"code":"MW/MW-024","program":"gma","name":"Craig Chwefri","coordinates":[-3.51897,52.206834]},{"code":"MW/MW-031","program":"gma","name":"Garth Bank","coordinates":[-3.541599,52.141804]},{"code":"MW/SW-012","program":"gma","name":"Garreg Fawr","coordinates":[-3.522734,52.017069]},{"code":"MW/SW-014","program":"gma","name":"Cefn Bola-maen","coordinates":[-3.50911,52.001959]},{"code":"GB-1065","program":"pota","name":"Nant Irfon National Nature Reserve","coordinates":[-3.70509,52.1859]},{"code":"GB-1311","program":"pota","name":"Epynt Way National Scenic Trail","coordinates":[-3.51502,52.1088]},{"code":"GW/MW-003","program":"sota","name":"Drygarn Fawr","coordinates":[-3.665713,52.212143]},{"code":"GW/MW-016","program":"sota","name":"Pen y Garn-goch","coordinates":[-3.630927,52.139545]},{"code":"GW/SW-018","program":"sota","name":"Mynydd Epynt","coordinates":[-3.518126,52.106415]},{"code":"B/GW-0008","program":"wwbota","name":"ROC Post Abergwesyn","coordinates":[-3.669004,52.164526]},{"code":"B/GW-0010","program":"wwbota","name":"ROC Post Llangammarch Wells","coordinates":[-3.566567,52.116209]}]}