{"lat":52,"lon":-4.5,"programs":["pota","sota","wwbota"],"count":7,"references":[{"code":"GB-1071","program":"pota","name":"Rhos Llawr Cwrt National Nature Reserve","coordinates":[-4.31915,52.1238]},{"code":"GW/MW-035","program":"sota","name":"Rhos Ymryson","coordinates":[-4.250624,52.126934]},{"code":"B/GW-0035","program":"wwbota","name":"ROC Post Newcastle Emlyn Master Post","coordinates":[-4.46581,52.048937]},{"code":"B/GW-0036","program":"wwbota","name":"ROC Post New Quay","coordinates":[-4.368442,52.215316]},{"code":"B/GW-0037","program":"wwbota","name":"ROC Post Llandysul","coordinates":[-4.346383,52.063337]},{"code":"B/GW-0050","program":"wwbota","name":"ROC Post Pencader","coordinates":[-4.257922,52.010303]},{"code":"B/GW-0224","program":"wwbota","name":"Garn-wen WW2 Pillbox","coordinates":[-4.377393,52.118814]}]}