{"lat":52,"lon":0.75,"programs":["pota","wwbota"],"count":14,"references":[{"code":"GB-0092","program":"pota","name":"Bradfield Woods National Nature Reserve","coordinates":[0.830029,52.1864]},{"code":"GB-0255","program":"pota","name":"Wolves Wood RSPB Reserve","coordinates":[0.995044,52.056]},{"code":"GB-4240","program":"pota","name":"Great Cornard Country Park","coordinates":[0.759671,52.0207]},{"code":"GB-5260","program":"pota","name":"Groton Wood Nature Reserve & Site of Significant Scientific Interest","coordinates":[0.880658,52.0495]},{"code":"GB-5263","program":"pota","name":"Riverside Walk Hadleigh Local Nature Reserve","coordinates":[0.951363,52.0414]},{"code":"GB-5264","program":"pota","name":"Broom Hill Hadleigh Local Nature Reserve","coordinates":[0.944083,52.0442]},{"code":"GB-5289","program":"pota","name":"Shawlands Wood Local Nature Reserve","coordinates":[0.751504,52.0374]},{"code":"GB-5597","program":"pota","name":"Church Meadow Local Nature Reserve","coordinates":[0.996396,52.1734]},{"code":"B/G-0763","program":"wwbota","name":"ROC Post Lavenham","coordinates":[0.79803,52.102768]},{"code":"B/G-0764","program":"wwbota","name":"ROC Post Beyton","coordinates":[0.842248,52.228423]},{"code":"B/G-0766","program":"wwbota","name":"ROC Post Hadleigh","coordinates":[0.965989,52.043529]},{"code":"B/G-0767","program":"wwbota","name":"ROC Post Coombes","coordinates":[0.986633,52.173593]},{"code":"B/G-1318","program":"wwbota","name":"Airfield Battle HQ - Rougham","coordinates":[0.776845,52.24347]},{"code":"B/G-2422","program":"wwbota","name":"Hadley Ammunition Store","coordinates":[0.95465995,52.049327]}]}