{"lat":52,"lon":-1.5,"programs":["pota","wwbota"],"count":16,"references":[{"code":"GB-0540","program":"pota","name":"Burton Dasset Hills Country Park","coordinates":[-1.42418,52.1659]},{"code":"GB-0723","program":"pota","name":"Spiceball Country Park","coordinates":[-1.3338,52.0673]},{"code":"GB-4477","program":"pota","name":"Bishop's Hill Nature Reserve","coordinates":[-1.42756,52.2229]},{"code":"GB-4547","program":"pota","name":"The Slade Local Nature Reserve","coordinates":[-1.38604,52.0165]},{"code":"GB-4548","program":"pota","name":"Adderbury Lakes Nature Reserve","coordinates":[-1.30618,52.0167]},{"code":"GB-4984","program":"pota","name":"Oxford Canal Towpath National Scenic Trail","coordinates":[-1.28671,52.0249]},{"code":"B/G-0596","program":"wwbota","name":"ROC Post Chipping Warden","coordinates":[-1.262995,52.162888]},{"code":"B/G-0665","program":"wwbota","name":"ROC Post Swalcliffe","coordinates":[-1.457485,52.038253]},{"code":"B/G-0666","program":"wwbota","name":"ROC Post Bloxham","coordinates":[-1.343524,52.005307]},{"code":"B/G-0860","program":"wwbota","name":"ROC Post Harbury","coordinates":[-1.474283,52.234144]},{"code":"B/G-0861","program":"wwbota","name":"ROC Post Edge Hill","coordinates":[-1.455192,52.118979]},{"code":"B/G-0864","program":"wwbota","name":"ROC Post Napton-on-the-Hill","coordinates":[-1.328809,52.248601]},{"code":"B/G-1199","program":"wwbota","name":"Airfield Battle HQ - Barford St John","coordinates":[-1.36046,52.002703]},{"code":"B/G-1375","program":"wwbota","name":"Cherwell District Council Emergency Centre, Banbury","coordinates":[-1.3362557,52.062784]},{"code":"B/G-1713","program":"wwbota","name":"Airfield Battle HQ, RAF Chipping Warden","coordinates":[-1.287553,52.144795]},{"code":"B/G-2675","program":"wwbota","name":"RAF Chipping Warden, ground defence bunker","coordinates":[-1.278618,52.136381]}]}