{"lat":52,"lon":-119.5,"programs":["pota","sota","wwbota"],"count":16,"references":[{"code":"CA-3235","program":"pota","name":"Blue River Black Spruce Provincial Park","coordinates":[-119.274,52.1386]},{"code":"CA-3236","program":"pota","name":"Blue River Pine Provincial Park","coordinates":[-119.289,52.1136]},{"code":"VE7/TN-150","program":"sota","name":"Amnesty Peak","coordinates":[-119.3895,52.2342]},{"code":"VE7/TN-192","program":"sota","name":"Mount Nelson","coordinates":[-119.3825,52.2053]},{"code":"VE7/TN-243","program":"sota","name":"Rouge Peak","coordinates":[-119.4871,52.2028]},{"code":"VE7/TN-278","program":"sota","name":"Exile Peak","coordinates":[-119.4937,52.1528]},{"code":"VE7/TN-311","program":"sota","name":"VE7/TN-311","coordinates":[-119.4643,52.1489]},{"code":"VE7/TN-339","program":"sota","name":"Mount Cook","coordinates":[-119.3393,52.2018]},{"code":"VE7/TN-343","program":"sota","name":"Detention Peak","coordinates":[-119.4836,52.1099]},{"code":"VE7/TN-352","program":"sota","name":"Exile Peak","coordinates":[-119.482,52.1572]},{"code":"VE7/TN-377","program":"sota","name":"VE7/TN-377","coordinates":[-119.3368,52.1824]},{"code":"VE7/TN-417","program":"sota","name":"VE7/TN-417","coordinates":[-119.3867,52.1522]},{"code":"VE7/TN-424","program":"sota","name":"VE7/TN-424","coordinates":[-119.4404,52.2413]},{"code":"VE7/TN-493","program":"sota","name":"VE7/TN-493","coordinates":[-119.4302,52.0324]},{"code":"VE7/TN-779","program":"sota","name":"VE7/TN-779","coordinates":[-119.2537,52.1174]},{"code":"B/CA-0308","program":"wwbota","name":"FRP AH4","coordinates":[-119.3048807,52.10646493]}]}