{"lat":52,"lon":-119.75,"programs":["sota"],"count":14,"references":[{"code":"VE7/TN-013","program":"sota","name":"Central Mountain","coordinates":[-119.7283,52.1483]},{"code":"VE7/TN-219","program":"sota","name":"Fetch Peak","coordinates":[-119.6347,52.2362]},{"code":"VE7/TN-228","program":"sota","name":"Wave Crest Peak","coordinates":[-119.5802,52.2059]},{"code":"VE7/TN-238","program":"sota","name":"Foam Peak","coordinates":[-119.6145,52.2043]},{"code":"VE7/TN-246","program":"sota","name":"VE7/TN-246","coordinates":[-119.5826,52.2257]},{"code":"VE7/TN-268","program":"sota","name":"Outcast Peak","coordinates":[-119.5421,52.2203]},{"code":"VE7/TN-274","program":"sota","name":"VE7/TN-274","coordinates":[-119.6073,52.2382]},{"code":"VE7/TN-312","program":"sota","name":"Strait Peak","coordinates":[-119.5294,52.1724]},{"code":"VE7/TN-313","program":"sota","name":"Rouge SW2","coordinates":[-119.5101,52.189]},{"code":"VE7/TN-326","program":"sota","name":"VE7/TN-326","coordinates":[-119.512,52.1461]},{"code":"VE7/TN-335","program":"sota","name":"VE7/TN-335","coordinates":[-119.592,52.1882]},{"code":"VE7/TN-470","program":"sota","name":"VE7/TN-470","coordinates":[-119.73,52.1617]},{"code":"VE7/TN-477","program":"sota","name":"AH73","coordinates":[-119.7322,52.0732]},{"code":"VE7/TN-526","program":"sota","name":"VE7/TN-526","coordinates":[-119.7241,52.2125]}]}