{"lat":52,"lon":8.5,"programs":["gma","pota"],"count":14,"references":[{"code":"DA/NW-057","program":"gma","name":"Kahler Berg","coordinates":[8.50469971,52.01670074]},{"code":"DA/NW-070","program":"gma","name":"Schweichler Berg","coordinates":[8.65110016,52.15530014]},{"code":"DA/NW-073","program":"gma","name":"Homberg","coordinates":[8.69690037,52.15110016]},{"code":"DA/NW-076","program":"gma","name":"Heuberg","coordinates":[8.70829964,52.14530182]},{"code":"DA/NW-078","program":"gma","name":"Eggeberg","coordinates":[8.72220039,52.14440155]},{"code":"DA/NW-079","program":"gma","name":"Obernberg","coordinates":[8.73560047,52.10390091]},{"code":"DA/NW-081","program":"gma","name":"Schwarzen Moor","coordinates":[8.74310017,52.14310074]},{"code":"DA/NW-206","program":"gma","name":"Sparrenberg","coordinates":[8.52696991,52.01478958]},{"code":"DE-0573","program":"pota","name":"Stadtwald Bad Salzuflen Recreation Park","coordinates":[8.7333,52.1064]},{"code":"DE-0614","program":"pota","name":"Obersee und Johannisbachtal National Recreation Area","coordinates":[8.56387,52.0584]},{"code":"DE-0818","program":"pota","name":"Nordpark Bielefeld Recreation Park","coordinates":[8.52873,52.0381]},{"code":"DE-0821","program":"pota","name":"Luttergrünzug Recreation Park","coordinates":[8.57115,52.025]},{"code":"DE-0822","program":"pota","name":"Bultkamp-Grünzug Recreation Park","coordinates":[8.53433,52.0515]},{"code":"DE-0873","program":"pota","name":"Aawiesenpark Recreation Park","coordinates":[8.66689,52.1121]}]}