{"lat":52,"lon":0,"programs":["pota","wwbota"],"count":28,"references":[{"code":"GB-0045","program":"pota","name":"Fowlmere RSPB Reserve","coordinates":[0.053272,52.0904]},{"code":"GB-1656","program":"pota","name":"Coton Countryside Reserve Country Park","coordinates":[0.067779,52.2008]},{"code":"GB-2324","program":"pota","name":"Wandlebury Country Park","coordinates":[0.185614,52.1581]},{"code":"GB-2326","program":"pota","name":"Milton Country Park","coordinates":[0.163336,52.2362]},{"code":"GB-3800","program":"pota","name":"Melwood Local Nature Reserve","coordinates":[0.010875,52.0951]},{"code":"GB-3801","program":"pota","name":"Byron's Pool Local Nature Reserve","coordinates":[0.100732,52.1727]},{"code":"GB-4433","program":"pota","name":"Icknield Way Path National Scenic Trail","coordinates":[0.017343,52.0506]},{"code":"GB-5292","program":"pota","name":"The Beechwoods Local Nature Reserve","coordinates":[0.169798,52.1693]},{"code":"GB-5459","program":"pota","name":"Nine Wells Local Nature Reserve","coordinates":[0.135215,52.1665]},{"code":"GB-5460","program":"pota","name":"Limekiln Close (West and East Pit) Local Nature Reserve","coordinates":[0.17008,52.1805]},{"code":"GB-5461","program":"pota","name":"Coldham's Common Local Nature Reserve","coordinates":[0.15668,52.2067]},{"code":"GB-5462","program":"pota","name":"Barnwell (East and West) Local Nature Reserve","coordinates":[0.1625,52.2024]},{"code":"GB-5463","program":"pota","name":"Bramblefields Local Nature Reserve","coordinates":[0.154237,52.2243]},{"code":"GB-5464","program":"pota","name":"Logan's Meadow Local Nature Reserve","coordinates":[0.14088,52.2123]},{"code":"GB-5465","program":"pota","name":"Paradise Local Nature Reserve","coordinates":[0.114231,52.1943]},{"code":"GB-5466","program":"pota","name":"Sheep's Green and Coe Fen Local Nature Reserve","coordinates":[0.115987,52.1983]},{"code":"GB-5467","program":"pota","name":"Stourbridge Common Local Nature Reserve","coordinates":[0.149593,52.217]},{"code":"B/G-0040","program":"wwbota","name":"ROC Post Harston","coordinates":[0.090901,52.129574]},{"code":"B/G-0043","program":"wwbota","name":"ROC Post Cherry Hinton","coordinates":[0.181091,52.169303]},{"code":"B/G-0243","program":"wwbota","name":"ROC Post Ickleton","coordinates":[0.151044,52.052598]},{"code":"B/G-1112","program":"wwbota","name":"1950s War Room Cambridge - Region 4","coordinates":[0.127558,52.187705]},{"code":"B/G-1241","program":"wwbota","name":"Airfield Battle HQ Duxford","coordinates":[0.131021,52.093101]},{"code":"B/G-1251","program":"wwbota","name":"Airfield Battle HQ - Fowlmere","coordinates":[0.05965,52.082376]},{"code":"B/G-1393","program":"wwbota","name":"South Cambridgeshire District Emergency Centre","coordinates":[0.12873643,52.198413]},{"code":"B/G-1529","program":"wwbota","name":"Cambridge WW2 Underground Air-Raid Shelter (Coleridge Road)","coordinates":[0.146207,52.192657]},{"code":"B/G-1581","program":"wwbota","name":"RAF Duxford, WW2 air raid shelter","coordinates":[0.125448,52.095319]},{"code":"B/G-2419","program":"wwbota","name":"Lords Bridge chemical bunker","coordinates":[0.030738889,52.164422]},{"code":"B/G-2421","program":"wwbota","name":"Lords Bridge Bomb Store","coordinates":[0.03683567,52.165904]}]}