{"lat":52.25,"lon":1.5,"programs":["pota","wwbota"],"count":31,"references":[{"code":"GB-0019","program":"pota","name":"Minsmere-Walberswick SPA - Westleton Heath National Nature Reserve","coordinates":[1.59651,52.2719]},{"code":"GB-0176","program":"pota","name":"Benacre Broad to Easton Bavents Lagoons SPA Protected Area","coordinates":[1.70161,52.3644]},{"code":"GB-0192","program":"pota","name":"Suffolk Coast National Nature Reserve","coordinates":[1.6506,52.3022]},{"code":"GB-2432","program":"pota","name":"Halesworth Town Park","coordinates":[1.5048,52.3439]},{"code":"GB-2433","program":"pota","name":"Halesworth Millennium Green Area of Outstanding Natural Beauty","coordinates":[1.50686,52.3424]},{"code":"GB-2437","program":"pota","name":"Beccles Quay Reserve","coordinates":[1.56609,52.4649]},{"code":"GB-2438","program":"pota","name":"Beccles Common Reserve","coordinates":[1.57609,52.4592]},{"code":"GB-6211","program":"pota","name":"Leathes Ham Nature Reserve","coordinates":[1.72672,52.4791]},{"code":"GB-6212","program":"pota","name":"Normanston Park","coordinates":[1.72555,52.4804]},{"code":"B/G-0594","program":"wwbota","name":"ROC Post Aldeby","coordinates":[1.582919,52.4824]},{"code":"B/G-0782","program":"wwbota","name":"ROC Post Halesworth","coordinates":[1.524553,52.354905]},{"code":"B/G-0784","program":"wwbota","name":"ROC Post Westleton","coordinates":[1.581536,52.265762]},{"code":"B/G-0785","program":"wwbota","name":"ROC Post Barnby","coordinates":[1.621136,52.432934]},{"code":"B/G-0787","program":"wwbota","name":"ROC Post Southwold","coordinates":[1.687851,52.338402]},{"code":"B/G-0788","program":"wwbota","name":"ROC Post Kessingland","coordinates":[1.714561,52.395942]},{"code":"B/G-0789","program":"wwbota","name":"ROC Post Pakefield","coordinates":[1.728804,52.432282]},{"code":"B/G-1080","program":"wwbota","name":"Chain Home - Darsham","coordinates":[1.529635,52.291522]},{"code":"B/G-1098","program":"wwbota","name":"Chain Home - Saxmundham","coordinates":[1.534168,52.293185]},{"code":"B/G-1201","program":"wwbota","name":"Airfield Battle HQ - Beccles","coordinates":[1.603058,52.436814]},{"code":"B/G-1455","program":"wwbota","name":"Holton Auxiliary Unit Operational Base (OB)","coordinates":[1.5264683,52.342076]},{"code":"B/G-1965","program":"wwbota","name":"Kessingland #2, coastal defence bunkers (cluster)","coordinates":[1.717497,52.415602]},{"code":"B/G-1966","program":"wwbota","name":"Kessingland #1, coastal defence bunkers (cluster)","coordinates":[1.728042,52.42038]},{"code":"B/G-2086","program":"wwbota","name":"Lowestoft bunker (1)","coordinates":[1.7404,52.48195]},{"code":"B/G-2087","program":"wwbota","name":"Lowestoft bunker (2)","coordinates":[1.7367,52.47619]},{"code":"B/G-2101","program":"wwbota","name":"Lowestoft Heavy AA Battery, Command Post","coordinates":[1.7271698,52.458059]},{"code":"B/G-2112","program":"wwbota","name":"Pakefield CH Low","coordinates":[1.728563,52.432398]},{"code":"B/G-2216","program":"wwbota","name":"Rushmere Pillbox Cluster","coordinates":[1.6613408,52.425668]},{"code":"B/G-2344","program":"wwbota","name":"Wangford Ax Patrol Base","coordinates":[1.60416,52.359433]},{"code":"B/G-2364","program":"wwbota","name":"GCI Greyfriars radar","coordinates":[1.628732,52.267398]},{"code":"B/G-2445","program":"wwbota","name":"Pakefield Coastal Battery","coordinates":[1.740929,52.459558]},{"code":"B/G-2471","program":"wwbota","name":"RAF Halesworth Bomb Store","coordinates":[1.5380556,52.357533]}]}