{"lat":52.25,"lon":7.75,"programs":["gma"],"count":10,"references":[{"code":"DA/NI-098","program":"gma","name":"Penter Knapp","coordinates":[7.99720001,52.3821907]},{"code":"DA/NI-128","program":"gma","name":"Kettelsberg","coordinates":[7.90473986,52.44054031]},{"code":"DA/NI-146","program":"gma","name":"Rocksberg","coordinates":[7.81351995,52.49539185]},{"code":"DA/NI-149","program":"gma","name":"Glinsberg","coordinates":[7.84257984,52.48003006]},{"code":"DA/NI-150","program":"gma","name":"Frettberg","coordinates":[7.92958021,52.42575836]},{"code":"DA/NI-393","program":"gma","name":"Hollager Berg","coordinates":[7.98099,52.34155]},{"code":"DA/NI-394","program":"gma","name":"Große Egge","coordinates":[7.96896,52.38674]},{"code":"DA/NW-182","program":"gma","name":"Hagenberg","coordinates":[7.89049006,52.25799942]},{"code":"DA/NW-183","program":"gma","name":"Hoher Hügel","coordinates":[7.89674997,52.25370026]},{"code":"DA/NW-248","program":"gma","name":"Schafberg","coordinates":[7.776667,52.300278]}]}