{"lat":52.25,"lon":-117.5,"programs":["sota"],"count":26,"references":[{"code":"VE6/JS-002","program":"sota","name":"Sunwapta Peak","coordinates":[-117.27506,52.349197]},{"code":"VE6/JS-003","program":"sota","name":"Tangle Peak","coordinates":[-117.286736,52.298325]},{"code":"VE6/JS-014","program":"sota","name":"Mount Alberta","coordinates":[-117.47649,52.287914]},{"code":"VE6/JS-024","program":"sota","name":"Mount Woolley","coordinates":[-117.42589,52.297825]},{"code":"VE6/JS-026","program":"sota","name":"Mount Cromwell","coordinates":[-117.39333,52.269154]},{"code":"VE6/JS-027","program":"sota","name":"Stutfield NE2","coordinates":[-117.38557,52.251976]},{"code":"VE6/JS-028","program":"sota","name":"Diadem Peak","coordinates":[-117.42119,52.310658]},{"code":"VE6/JS-044","program":"sota","name":"Mount Englehard","coordinates":[-117.40664,52.27539]},{"code":"VE6/JS-049","program":"sota","name":"Mount Smythe","coordinates":[-117.4809,52.355972]},{"code":"VE6/JS-055","program":"sota","name":"Mount GEC","coordinates":[-117.45031,52.33644]},{"code":"VE6/JS-061","program":"sota","name":"Mushroom Peak","coordinates":[-117.39722,52.311943]},{"code":"VE6/JS-079","program":"sota","name":"Mount Nelson","coordinates":[-117.46966,52.34614]},{"code":"VE6/JS-117","program":"sota","name":"Gong Peak","coordinates":[-117.45913,52.36999]},{"code":"VE6/JS-125","program":"sota","name":"Weiss W1","coordinates":[-117.49028,52.389534]},{"code":"VE6/JS-142","program":"sota","name":"Mount Weiss","coordinates":[-117.47539,52.391132]},{"code":"VE6/JS-191","program":"sota","name":"Little Alberta","coordinates":[-117.43827,52.274067]},{"code":"VE6/JS-195","program":"sota","name":"Waterfall Peak","coordinates":[-117.30845,52.415665]},{"code":"VE6/JS-324","program":"sota","name":"Sunwapta N1","coordinates":[-117.2996,52.3788]},{"code":"VE6/JS-386","program":"sota","name":"Waterfall NW1","coordinates":[-117.3579,52.4329]},{"code":"VE6/JS-409","program":"sota","name":"Coronet SE1","coordinates":[-117.2877,52.4995]},{"code":"VE6/JS-419","program":"sota","name":"Endless Chain Ridge","coordinates":[-117.4853,52.4981]},{"code":"VE6/JS-424","program":"sota","name":"Windrip","coordinates":[-117.2912,52.4793]},{"code":"VE6/JS-427","program":"sota","name":"GEC W1","coordinates":[-117.3987,52.3452]},{"code":"VE6/JS-447","program":"sota","name":"Waterfall Peaks SE1","coordinates":[-117.2789,52.4068]},{"code":"VE6/JS-454","program":"sota","name":"Mount McGuire NE1","coordinates":[-117.4276,52.3801]},{"code":"VE6/JS-489","program":"sota","name":"VE6/JS-489","coordinates":[-117.418,52.4728]}]}