{"lat":52.25,"lon":0,"programs":["pota","wwbota"],"count":17,"references":[{"code":"GB-0167","program":"pota","name":"Ouse Washes SPA (and RSPB) Protected Area","coordinates":[0.162732,52.4516]},{"code":"GB-0670","program":"pota","name":"RSPB Ouse Fen Nature Reserve","coordinates":[0.0364257,52.3476]},{"code":"GB-0740","program":"pota","name":"Berry Fen Site of Significant Scientific Interest","coordinates":[0.0235757,52.3517]},{"code":"GB-3782","program":"pota","name":"Somersham Local Nature Reserve","coordinates":[0.00667827,52.3836]},{"code":"GB-3783","program":"pota","name":"Little Downham Local Nature Reserve","coordinates":[0.241249,52.428]},{"code":"GB-3784","program":"pota","name":"Worts Meadow Local Nature Reserve","coordinates":[0.158747,52.2641]},{"code":"GB-4204","program":"pota","name":"Mare Fen Local Nature Reserve","coordinates":[0.000836468,52.3102]},{"code":"GB-5821","program":"pota","name":"Somersham Pocket Park","coordinates":[0.0125811,52.3916]},{"code":"B/G-0039","program":"wwbota","name":"ROC Post Willingham","coordinates":[0.067101,52.2655]},{"code":"B/G-0041","program":"wwbota","name":"ROC Post Sutton Master Post","coordinates":[0.115838,52.38099]},{"code":"B/G-0042","program":"wwbota","name":"ROC Post Manea","coordinates":[0.168945,52.478126]},{"code":"B/G-0044","program":"wwbota","name":"ROC Post Stretham","coordinates":[0.218837,52.351586]},{"code":"B/G-1302","program":"wwbota","name":"Airfield Battle HQ - Oakington","coordinates":[0.070636,52.265888]},{"code":"B/G-1340","program":"wwbota","name":"Airfield Battle HQ - Waterbeach","coordinates":[0.184091,52.27823]},{"code":"B/G-1582","program":"wwbota","name":"RAF Mepal, WW2 air raid shelter","coordinates":[0.142124,52.397474]},{"code":"B/G-1583","program":"wwbota","name":"RAF Oakington, WW2 ground defence bunker cluster","coordinates":[0.056748,52.277911]},{"code":"B/G-2075","program":"wwbota","name":"RAF Mepal bunker","coordinates":[0.12225,52.39535]}]}