{"lat":52.25,"lon":-117.75,"programs":["pota","sota"],"count":26,"references":[{"code":"CA-6116","program":"pota","name":"Athabasca River National Heritage River National Heritage Area","coordinates":[-117.741,52.292]},{"code":"VE6/EC-034","program":"sota","name":"Fortress Mountain","coordinates":[-117.72165,52.389763]},{"code":"VE6/EC-046","program":"sota","name":"Peak 30-44","coordinates":[-117.728676,52.49808]},{"code":"VE6/EC-059","program":"sota","name":"Dragon Peak","coordinates":[-117.69621,52.449535]},{"code":"VE6/EC-101","program":"sota","name":"Dragon NW1","coordinates":[-117.7456,52.4678]},{"code":"VE6/EC-106","program":"sota","name":"Fortress NW1","coordinates":[-117.744,52.4001]},{"code":"VE6/EC-108","program":"sota","name":"30-44 S1","coordinates":[-117.7216,52.4851]},{"code":"VE6/JS-054","program":"sota","name":"Dais Mountain","coordinates":[-117.64044,52.27652]},{"code":"VE6/JS-072","program":"sota","name":"Blackfriars Peak","coordinates":[-117.61752,52.32607]},{"code":"VE6/JS-092","program":"sota","name":"Thorington Tower","coordinates":[-117.50275,52.35769]},{"code":"VE6/JS-097","program":"sota","name":"Mount Palmer","coordinates":[-117.520325,52.352524]},{"code":"VE6/JS-098","program":"sota","name":"Mount Quincy","coordinates":[-117.66263,52.329426]},{"code":"VE6/JS-141","program":"sota","name":"Mount Adam Joachim","coordinates":[-117.52779,52.404606]},{"code":"VE6/JS-165","program":"sota","name":"Mount Mitchell","coordinates":[-117.50375,52.403362]},{"code":"VE6/JS-168","program":"sota","name":"Mount Morden Long","coordinates":[-117.537766,52.42259]},{"code":"VE6/JS-172","program":"sota","name":"Palmer S2","coordinates":[-117.52414,52.3324]},{"code":"VE6/JS-192","program":"sota","name":"Mount Confederation","coordinates":[-117.57611,52.40365]},{"code":"VE6/JS-200","program":"sota","name":"Mount Massey","coordinates":[-117.59459,52.297234]},{"code":"VE6/JS-352","program":"sota","name":"Quincy SE1","coordinates":[-117.6505,52.3299]},{"code":"VE6/JS-361","program":"sota","name":"Mt. Quincy","coordinates":[-117.6732,52.3134]},{"code":"VE6/JS-373","program":"sota","name":"Blackfriars N1","coordinates":[-117.6415,52.3558]},{"code":"VE6/JS-374","program":"sota","name":"Alberta NW1","coordinates":[-117.5067,52.2994]},{"code":"VE6/JS-394","program":"sota","name":"Mount Adam Joachim N1","coordinates":[-117.5342,52.4122]},{"code":"VE6/JS-439","program":"sota","name":"Sadleir S1","coordinates":[-117.7468,52.3291]},{"code":"VE6/JS-491","program":"sota","name":"Mount Gandhi","coordinates":[-117.5766,52.4705]},{"code":"VE6/ST-094","program":"sota","name":"Peak WC1","coordinates":[-117.55817,52.43257]}]}