{"lat":52.25,"lon":22.75,"programs":["pota"],"count":5,"references":[{"code":"PL-0118","program":"pota","name":"Dolina Bugu Protected Landscape Area","coordinates":[22.8197,52.3802]},{"code":"PL-0126","program":"pota","name":"Mierzwice Nature Reserve","coordinates":[22.986,52.3309]},{"code":"PL-0149","program":"pota","name":"Kózki Nature Reserve","coordinates":[22.8604,52.3586]},{"code":"PL-2871","program":"pota","name":"Zabuże Nature Reserve","coordinates":[22.9798,52.3286]},{"code":"PL-0140","program":"pota","name":"Schrony Brzeskiego Rejonu Umocnionego Natura 2000","coordinates":[22.925,52.3919]}]}