{"lat":52.25,"lon":-0.5,"programs":["pota","wwbota"],"count":20,"references":[{"code":"GB-0543","program":"pota","name":"Barnwell Country Park","coordinates":[-0.475196,52.474]},{"code":"GB-0556","program":"pota","name":"Grafham Water Site of Significant Scientific Interest","coordinates":[-0.291176,52.2987]},{"code":"GB-0558","program":"pota","name":"Paxton Pits Site of Significant Scientific Interest","coordinates":[-0.250039,52.2517]},{"code":"GB-3835","program":"pota","name":"Brampton Wood Site of Significant Scientific Interest","coordinates":[-0.269016,52.3177]},{"code":"GB-6524","program":"pota","name":"Shepherd's Close Nature Reserve","coordinates":[-0.338706,52.3233]},{"code":"GB-6525","program":"pota","name":"Perry Woods Site of Significant Scientific Interest","coordinates":[-0.334324,52.2861]},{"code":"GB-6526","program":"pota","name":"Swineshead Wood Site of Significant Scientific Interest","coordinates":[-0.442875,52.2888]},{"code":"B/G-0004","program":"wwbota","name":"ROC Post Riseley","coordinates":[-0.467544,52.251622]},{"code":"B/G-0372","program":"wwbota","name":"ROC Post Sawtry","coordinates":[-0.297608,52.438828]},{"code":"B/G-0374","program":"wwbota","name":"ROC Post Abbots Ripton","coordinates":[-0.251649,52.380794]},{"code":"B/G-0615","program":"wwbota","name":"ROC Post Oundle","coordinates":[-0.401497,52.462575]},{"code":"B/G-1312","program":"wwbota","name":"Airfield Battle HQ - Polebrook","coordinates":[-0.381074,52.46958]},{"code":"B/G-1483","program":"wwbota","name":"Polebrook Air Raid Shelter","coordinates":[-0.39126994,52.468551]},{"code":"B/G-1552","program":"wwbota","name":"WW2 Command Bunker (Starfish Decoy), Great Gidding","coordinates":[-0.358783,52.42643]},{"code":"B/G-1718","program":"wwbota","name":"RAF Polebrook, WW2 blast shelter","coordinates":[-0.384501,52.465006]},{"code":"B/G-2010","program":"wwbota","name":"Mustard Gas Store, Riseley","coordinates":[-0.47806729,52.27073]},{"code":"B/G-2073","program":"wwbota","name":"RAF Polebrook bunker","coordinates":[-0.38516,52.46631]},{"code":"B/G-2345","program":"wwbota","name":"RAF Molesworth bunker","coordinates":[-0.42785,52.382494]},{"code":"B/G-2438","program":"wwbota","name":"RAF Kimbolton Bomb Store","coordinates":[-0.39265931,52.310158]},{"code":"B/G-2666","program":"wwbota","name":"Polebrook Airfield Blast Shelter cluster","coordinates":[-0.397205,52.479588]}]}