{"lat":52.25,"lon":-118,"programs":["pota","sota"],"count":30,"references":[{"code":"CA-3582","program":"pota","name":"Hamber Provincial Park","coordinates":[-117.793,52.3703]},{"code":"VE6/EC-010","program":"sota","name":"Catacombs Mountain","coordinates":[-117.75245,52.429916]},{"code":"VE6/EC-039","program":"sota","name":"Karpathos Peak","coordinates":[-117.91085,52.48291]},{"code":"VE6/EC-043","program":"sota","name":"Xerxes Peak","coordinates":[-117.8877,52.486412]},{"code":"VE6/EC-049","program":"sota","name":"Siege Peak","coordinates":[-117.844505,52.418415]},{"code":"VE6/EC-062","program":"sota","name":"Convergence Peak","coordinates":[-117.9802,52.481342]},{"code":"VE6/EC-064","program":"sota","name":"Lick Peak","coordinates":[-117.91557,52.44654]},{"code":"VE6/EC-066","program":"sota","name":"Catacombs SW3","coordinates":[-117.79015,52.40969]},{"code":"VE6/EC-084","program":"sota","name":"Catacombs SW4","coordinates":[-117.81099,52.41289]},{"code":"VE6/EC-111","program":"sota","name":"Lick SE1","coordinates":[-117.8981,52.4295]},{"code":"VE6/EC-117","program":"sota","name":"Lick NW1","coordinates":[-117.9557,52.4584]},{"code":"VE6/EC-119","program":"sota","name":"Siege N1","coordinates":[-117.8514,52.4381]},{"code":"VE6/EC-121","program":"sota","name":"Catacombs W1","coordinates":[-117.8271,52.4458]},{"code":"VE6/EC-125","program":"sota","name":"Lick NE1","coordinates":[-117.8824,52.454]},{"code":"VE6/JS-073","program":"sota","name":"Mount Franklin","coordinates":[-117.823006,52.290264]},{"code":"VE6/JS-101","program":"sota","name":"Mount Amundsen","coordinates":[-117.83292,52.253777]},{"code":"VE6/JS-175","program":"sota","name":"Franklin E2","coordinates":[-117.791695,52.2938]},{"code":"VE6/JS-351","program":"sota","name":"DH17","coordinates":[-117.7743,52.3188]},{"code":"VE7/CE-036","program":"sota","name":"Ghost Mountain","coordinates":[-117.88697,52.309994]},{"code":"VE7/CE-063","program":"sota","name":"Brouillard Mountain","coordinates":[-117.85987,52.281116]},{"code":"VE7/CE-069","program":"sota","name":"Chisel Peak","coordinates":[-117.830696,52.349968]},{"code":"VE7/CE-093","program":"sota","name":"Chisel Peak SW1","coordinates":[-117.848854,52.337307]},{"code":"VE7/CE-099","program":"sota","name":"Chisel Peak SW2","coordinates":[-117.86777,52.338146]},{"code":"VE7/CE-119","program":"sota","name":"Mt. Sadleir","coordinates":[-117.75934,52.339508]},{"code":"VE7/CE-131","program":"sota","name":"Minke Peak","coordinates":[-117.97483,52.471252]},{"code":"VE7/CE-150","program":"sota","name":"Serenity NE1","coordinates":[-117.98965,52.40745]},{"code":"VE7/CE-162","program":"sota","name":"Lick W1","coordinates":[-117.92868,52.44626]},{"code":"VE7/CE-180","program":"sota","name":"Siege SE1","coordinates":[-117.83481,52.4087]},{"code":"VE7/CE-189","program":"sota","name":"Serenity E1","coordinates":[-117.93165,52.399323]},{"code":"VE7/CE-247","program":"sota","name":"Serenity SE1","coordinates":[-117.984024,52.376637]}]}