{"lat":52.25,"lon":-1.5,"programs":["pota","wwbota"],"count":26,"references":[{"code":"GB-0542","program":"pota","name":"Ryton Pools Country Park","coordinates":[-1.45594,52.3491]},{"code":"GB-1692","program":"pota","name":"Draycote Water Country Park","coordinates":[-1.32054,52.319]},{"code":"GB-1748","program":"pota","name":"Newbold Quarry Country Park","coordinates":[-1.27464,52.388]},{"code":"GB-1749","program":"pota","name":"Swift Valley Nature Reserve","coordinates":[-1.25988,52.3979]},{"code":"GB-1752","program":"pota","name":"Coombe Abbey Country Park","coordinates":[-1.40829,52.4099]},{"code":"GB-3072","program":"pota","name":"Wyken Croft Nature Park","coordinates":[-1.45725,52.4244]},{"code":"GB-3073","program":"pota","name":"The Sowe Valley Footpath National Scenic Trail","coordinates":[-1.45635,52.4251]},{"code":"GB-3074","program":"pota","name":"River Sowe Floodplain Parkland Park","coordinates":[-1.46874,52.437]},{"code":"GB-3075","program":"pota","name":"Wyken Slough and Pool Nature Reserve","coordinates":[-1.4672,52.4468]},{"code":"GB-5247","program":"pota","name":"Longford Park","coordinates":[-1.48181,52.4474]},{"code":"GB-5248","program":"pota","name":"Brandon Marsh Nature Reserve & Site of Significant Scientific Interest","coordinates":[-1.43504,52.3799]},{"code":"GB-5278","program":"pota","name":"Whites Spinney Nature Reserve","coordinates":[-1.40611,52.2789]},{"code":"GB-5434","program":"pota","name":"Stoke Floods Local Nature Reserve","coordinates":[-1.45029,52.4061]},{"code":"GB-5608","program":"pota","name":"The Nook Local Nature Reserve","coordinates":[-1.49719,52.479]},{"code":"GB-5609","program":"pota","name":"Bedworth Sloughs Local Nature Reserve","coordinates":[-1.48657,52.4805]},{"code":"GB-5610","program":"pota","name":"Miners Welfare Park & Bayton Lake Nature Reserve","coordinates":[-1.46712,52.4709]},{"code":"B/G-0862","program":"wwbota","name":"ROC Post Bedworth","coordinates":[-1.443547,52.467031]},{"code":"B/G-0863","program":"wwbota","name":"ROC Post Wolston","coordinates":[-1.385454,52.368121]},{"code":"B/G-1038","program":"wwbota","name":"ROC Group HQ No 8 - Coventry","coordinates":[-1.33033,52.35839]},{"code":"B/G-1196","program":"wwbota","name":"Airfield Battle HQ - Baginton","coordinates":[-1.497254,52.365323]},{"code":"B/G-1211","program":"wwbota","name":"Airfield Battle HQ - Bramcote","coordinates":[-1.395525,52.48028]},{"code":"B/G-1224","program":"wwbota","name":"Airfield Battle HQ - Church Lawford","coordinates":[-1.347835,52.349489]},{"code":"B/G-1755","program":"wwbota","name":"RAF Bramcote, WW2 ground defence bunker cluster","coordinates":[-1.385254,52.484188]},{"code":"B/G-2431","program":"wwbota","name":"BBC Brinklow Heath bunker","coordinates":[-1.3910499,52.395172]},{"code":"B/G-2626","program":"wwbota","name":"Bombing decoy bunker, Wibtoft","coordinates":[-1.313208,52.47467]},{"code":"B/G-2638","program":"wwbota","name":"Bombing decoy bunker, Bretford","coordinates":[-1.390144,52.391107]}]}