{"lat":52.25,"lon":5.5,"programs":["pota"],"count":6,"references":[{"code":"NL-0288","program":"pota","name":"Kievitslanden Park","coordinates":[5.64901,52.4021]},{"code":"NL-0289","program":"pota","name":"Harderbos Park","coordinates":[5.61123,52.3962]},{"code":"NL-0291","program":"pota","name":"Spijk-Bremerberg Park","coordinates":[5.7318,52.4289]},{"code":"NL-0023","program":"pota","name":"Speulder en Sprielderbos Provincial Park","coordinates":[5.68884,52.2578]},{"code":"NL-0029","program":"pota","name":"Leuvenumse bos Provincial Park","coordinates":[5.68361,52.3153]},{"code":"NL-0218","program":"pota","name":"Ermeloose Heide Nature Reserve","coordinates":[5.6691,52.2853]}]}