{"lat":52.25,"lon":-117.25,"programs":["sota","wwbota"],"count":25,"references":[{"code":"VE6/JS-037","program":"sota","name":"Poboktan Mountain","coordinates":[-117.215004,52.440853]},{"code":"VE6/JS-056","program":"sota","name":"Mount Willis","coordinates":[-117.013794,52.27139]},{"code":"VE6/JS-089","program":"sota","name":"Andover Peak","coordinates":[-117.189575,52.29339]},{"code":"VE6/JS-120","program":"sota","name":"Mount Aztec","coordinates":[-117.02162,52.448296]},{"code":"VE6/JS-122","program":"sota","name":"Struan Peak","coordinates":[-117.226135,52.338593]},{"code":"VE6/JS-145","program":"sota","name":"Mount Olympus","coordinates":[-117.03564,52.469162]},{"code":"VE6/JS-164","program":"sota","name":"Chocolate Mountain","coordinates":[-117.10391,52.472298]},{"code":"VE6/JS-166","program":"sota","name":"Nosecone Peak","coordinates":[-117.130135,52.2561]},{"code":"VE6/JS-177","program":"sota","name":"Skye Peak","coordinates":[-117.199104,52.26661]},{"code":"VE6/JS-180","program":"sota","name":"Wurzburg Peak","coordinates":[-117.23882,52.321545]},{"code":"VE6/JS-186","program":"sota","name":"Peak 24-08","coordinates":[-117.14121,52.407234]},{"code":"VE6/JS-194","program":"sota","name":"Marble Mountain","coordinates":[-117.05643,52.345432]},{"code":"VE6/JS-206","program":"sota","name":"Marble NW4","coordinates":[-117.09662,52.375782]},{"code":"VE6/JS-341","program":"sota","name":"Jonas Shoulder","coordinates":[-117.2282,52.3563]},{"code":"VE6/JS-344","program":"sota","name":"Struan SE1","coordinates":[-117.2052,52.3251]},{"code":"VE6/JS-347","program":"sota","name":"Chocolate Mountain NE1","coordinates":[-117.086,52.4779]},{"code":"VE6/JS-370","program":"sota","name":"Poboktan N1","coordinates":[-117.243,52.4745]},{"code":"VE6/JS-378","program":"sota","name":"Chocolate SE1","coordinates":[-117.0817,52.445]},{"code":"VE6/JS-379","program":"sota","name":"Struan SE2","coordinates":[-117.1467,52.296]},{"code":"VE6/JS-407","program":"sota","name":"Flat Ridge","coordinates":[-117.1343,52.3246]},{"code":"VE6/JS-408","program":"sota","name":"Poboktan SE1","coordinates":[-117.1995,52.422]},{"code":"VE6/JS-425","program":"sota","name":"Poboktan N2","coordinates":[-117.2207,52.4744]},{"code":"VE6/JS-428","program":"sota","name":"VE6/JS-428","coordinates":[-117.0189,52.4182]},{"code":"VE6/JS-438","program":"sota","name":"24-08 SE","coordinates":[-117.1701,52.4116]},{"code":"B/CA-0136","program":"wwbota","name":"FRP CH4","coordinates":[-117.2130555,52.44194443]}]}