{"lat":52.25,"lon":-118.25,"programs":["gma","pota","sota"],"count":30,"references":[{"code":"XVE6/EC-013","program":"gma","name":"Serenity Mountain","coordinates":[-118.0124,52.4023]},{"code":"CA-4772","program":"pota","name":"Athabasca Pass National Historic Site","coordinates":[-118.186,52.3802]},{"code":"VE6/EC-009","program":"sota","name":"Mount Scott","coordinates":[-118.05578,52.44837]},{"code":"VE6/EC-011","program":"sota","name":"Mount Hooker","coordinates":[-118.09382,52.4056]},{"code":"VE6/EC-014","program":"sota","name":"Mount Evans","coordinates":[-118.1292,52.442043]},{"code":"VE6/EC-021","program":"sota","name":"Mount Oates","coordinates":[-118.03432,52.438446]},{"code":"VE6/EC-027","program":"sota","name":"Mount Ermatinger","coordinates":[-118.04685,52.417656]},{"code":"VE6/EC-030","program":"sota","name":"Mount Kane","coordinates":[-118.1568,52.43223]},{"code":"VE6/EC-036","program":"sota","name":"Mount Ross Cox","coordinates":[-118.01804,52.45855]},{"code":"VE6/EC-045","program":"sota","name":"Alnus Peak","coordinates":[-118.00716,52.487823]},{"code":"VE6/EC-047","program":"sota","name":"Alnus SW2","coordinates":[-118.0238,52.473633]},{"code":"VE6/EC-065","program":"sota","name":"Mallard Peak","coordinates":[-118.22911,52.458115]},{"code":"VE6/EC-079","program":"sota","name":"Mount Brown","coordinates":[-118.2298,52.380287]},{"code":"VE6/EC-102","program":"sota","name":"Hooker W1","coordinates":[-118.1386,52.4063]},{"code":"VE6/EC-112","program":"sota","name":"Ainus W1","coordinates":[-118.0503,52.4941]},{"code":"VE6/EC-118","program":"sota","name":"McGillvray Ridge","coordinates":[-118.1731,52.3906]},{"code":"VE6/EC-122","program":"sota","name":"Mallard NE1","coordinates":[-118.1945,52.4768]},{"code":"VE6/EC-126","program":"sota","name":"Mallard NW1","coordinates":[-118.1703,52.4868]},{"code":"VE7/CE-027","program":"sota","name":"Bras Croche Mountain","coordinates":[-118.00393,52.31983]},{"code":"VE7/CE-029","program":"sota","name":"Mt. Mallory","coordinates":[-118.02209,52.29441]},{"code":"VE7/CE-033","program":"sota","name":"Mt. Farrar","coordinates":[-118.00821,52.28801]},{"code":"VE7/CE-035","program":"sota","name":"Serenity Mountain","coordinates":[-118.012436,52.40234]},{"code":"VE7/CE-055","program":"sota","name":"Mt. Bruce","coordinates":[-118.05557,52.28158]},{"code":"VE7/CE-073","program":"sota","name":"Mt. Ostheimer","coordinates":[-118.02957,52.30881]},{"code":"VE7/CE-109","program":"sota","name":"Oates E1","coordinates":[-118.0171,52.43796]},{"code":"VE7/CE-199","program":"sota","name":"Bruce SW1","coordinates":[-118.09163,52.27539]},{"code":"VE7/CE-214","program":"sota","name":"Jeffrey Peak","coordinates":[-118.24705,52.302544]},{"code":"VE7/CE-317","program":"sota","name":"Hooker SW5","coordinates":[-118.13975,52.33524]},{"code":"VE7/CE-320","program":"sota","name":"CC80","coordinates":[-118.20112,52.284313]},{"code":"VE7/CE-327","program":"sota","name":"Brown SE","coordinates":[-118.14518,52.312836]}]}