{"lat":52.25,"lon":20.5,"programs":["pota","wwbota"],"count":8,"references":[{"code":"PL-0723","program":"pota","name":"Pomiechówek Nature Reserve","coordinates":[20.7299,52.4966]},{"code":"PL-0733","program":"pota","name":"Kępy Kazuńskie Nature Reserve","coordinates":[20.7274,52.4078]},{"code":"PL-0737","program":"pota","name":"Łąki Kazuńskie Natura 2000","coordinates":[20.6911,52.3961]},{"code":"PL-0742","program":"pota","name":"Dolina Wkry Nature Reserve","coordinates":[20.6881,52.4936]},{"code":"PL-0759","program":"pota","name":"Zakole Zakroczymskie Nature Reserve","coordinates":[20.6224,52.4205]},{"code":"PL-0779","program":"pota","name":"Wikliny Wiślane Nature Reserve","coordinates":[20.5666,52.4279]},{"code":"B/SP-0250","program":"wwbota","name":"Fort V Dębina (Twierdza Modlin)","coordinates":[20.7178,52.3889]},{"code":"B/SP-0253","program":"wwbota","name":"Twierdza Modlin","coordinates":[20.675583,52.436758]}]}