{"lat":52.25,"lon":9.5,"programs":["gma","pota","wwbota"],"count":12,"references":[{"code":"DA/NI-297","program":"gma","name":"Benther Berg","coordinates":[9.61641,52.33816]},{"code":"DA/NI-362","program":"gma","name":"Süllberg(Calenberger Land)","coordinates":[9.654114,52.255128]},{"code":"DA/NI-386","program":"gma","name":"Zungenberg","coordinates":[9.52902,52.34742]},{"code":"DA/NI-396","program":"gma","name":"Süerser Berg","coordinates":[9.59293,52.29942]},{"code":"DA/NI-399","program":"gma","name":"Burgberg","coordinates":[9.585705,52.314544]},{"code":"DA/NI-407","program":"gma","name":"Stemmer Berg","coordinates":[9.5347,52.3442]},{"code":"DE-1002","program":"pota","name":"Leine-Heide-Radweg National Recreation Trail","coordinates":[9.50529,52.4306]},{"code":"DE-0230","program":"pota","name":"Georgengarten Recreation Park","coordinates":[9.7085,52.3858]},{"code":"DE-0313","program":"pota","name":"Stadtpark Langenhagen Recreation Park","coordinates":[9.74758,52.4451]},{"code":"DE-0684","program":"pota","name":"Von-Alten-Garten National Recreation Area","coordinates":[9.71301,52.3647]},{"code":"B/DL-0127","program":"wwbota","name":"GSVBw 21 Lüdersen","coordinates":[9.6642,52.250706]},{"code":"B/DL-0357","program":"wwbota","name":"Museumsbunker Hannover","coordinates":[9.7131,52.341801]}]}