{"lat":52.5,"lon":14.75,"programs":["pota"],"count":7,"references":[{"code":"PL-1864","program":"pota","name":"Lemierzyce Nature Reserve","coordinates":[14.9053,52.5689]},{"code":"PL-1865","program":"pota","name":"Dolina Postomii Nature Reserve","coordinates":[14.8711,52.5658]},{"code":"PL-1878","program":"pota","name":"Ujście Warty Landscape Park","coordinates":[14.8872,52.5966]},{"code":"PL-1888","program":"pota","name":"Ujście Warty National Park","coordinates":[14.8038,52.6134]},{"code":"PL-2206","program":"pota","name":"Ośniańska Rynna z Jeziorem Radachowskim Protected Landscape Area","coordinates":[14.8531,52.5356]},{"code":"PL-2218","program":"pota","name":"Lasy Witnicko-Dzieduszyckie Protected Landscape Area","coordinates":[14.9767,52.7075]},{"code":"PL-2306","program":"pota","name":"Jezioro Wielkie Nature and Landscape Complex","coordinates":[14.8628,52.7117]}]}