{"lat":52.5,"lon":-3.25,"programs":["gma","pota","sota","wwbota"],"count":16,"references":[{"code":"GW/HMW-011","program":"gma","name":"Breidden Hill","coordinates":[-3.0450201,52.72283936]},{"code":"GW/HNW-089","program":"gma","name":"Yr Allt","coordinates":[-3.12133002,52.68466949]},{"code":"MW/MW-015","program":"gma","name":"Gorllwyn","coordinates":[-3.159223,52.553459]},{"code":"MW/MW-029","program":"gma","name":"Town Hill","coordinates":[-3.159223,52.553459]},{"code":"GB-1072","program":"pota","name":"Roundton Hill National Nature Reserve","coordinates":[-3.04341,52.5481]},{"code":"GB-1183","program":"pota","name":"Llyn Coed y Dinas Nature Reserve","coordinates":[-3.153,52.6386]},{"code":"GB-1211","program":"pota","name":"Corndon Hill Site of Significant Scientific Interest","coordinates":[-3.02091,52.5644]},{"code":"GW/MW-013","program":"sota","name":"Corndon Hill","coordinates":[-3.025292,52.5657]},{"code":"GW/MW-026","program":"sota","name":"Long Mountain-Beacon Ring","coordinates":[-3.088133,52.645153]},{"code":"GW/MW-027","program":"sota","name":"Moel y Golfa","coordinates":[-3.051158,52.705776]},{"code":"GW/MW-031","program":"sota","name":"Caeliber Isaf","coordinates":[-3.163639,52.532856]},{"code":"GW/MW-032","program":"sota","name":"Upper Park","coordinates":[-3.198793,52.639114]},{"code":"GW/NW-059","program":"sota","name":"Allt y Main","coordinates":[-3.24216,52.727448]},{"code":"GW/NW-061","program":"sota","name":"Y Golfa","coordinates":[-3.20997,52.655346]},{"code":"B/GW-0118","program":"wwbota","name":"ROC Post Welshpool","coordinates":[-3.145609,52.670554]},{"code":"B/GW-0124","program":"wwbota","name":"ROC Post Montgomery","coordinates":[-3.153094,52.56161]}]}