{"lat":52.5,"lon":-116.75,"programs":["gma","sota"],"count":12,"references":[{"code":"XVE6/JS-297","program":"gma","name":"Kidd Peak","coordinates":[-116.5311,52.5576]},{"code":"VE6/JS-296","program":"sota","name":"Chungo Peak","coordinates":[-116.62648,52.645718]},{"code":"VE6/JS-492","program":"sota","name":"VE6/JS-492","coordinates":[-116.5195,52.5745]},{"code":"VE6/JS-527","program":"sota","name":"George","coordinates":[-116.6282,52.5495]},{"code":"VE6/JS-537","program":"sota","name":"VE6/JS-537","coordinates":[-116.5701,52.5116]},{"code":"VE6/JS-539","program":"sota","name":"Chungo SW1","coordinates":[-116.6958,52.6075]},{"code":"VE6/JS-544","program":"sota","name":"VE6/JS-544","coordinates":[-116.6541,52.5711]},{"code":"VE6/JS-551","program":"sota","name":"Cutoff","coordinates":[-116.5036,52.6572]},{"code":"VE6/ST-168","program":"sota","name":"Blackstone Lookout","coordinates":[-116.6996,52.6882]},{"code":"VE6/ST-204","program":"sota","name":"Blackstone E1","coordinates":[-116.6637,52.6938]},{"code":"VE6/ST-211","program":"sota","name":"Brown Creek Hill","coordinates":[-116.7105,52.7485]},{"code":"VE6/ST-213","program":"sota","name":"Chungo Hill","coordinates":[-116.6015,52.7093]}]}