{"lat":52.5,"lon":-3,"programs":["gma","pota","sota","wwbota"],"count":24,"references":[{"code":"G/HWB-016","program":"gma","name":"Earl's Hill","coordinates":[-2.874033,52.638095]},{"code":"G/HWB-023","program":"gma","name":"Hope Bowdler Hill","coordinates":[-2.76892996,52.54172897]},{"code":"G/HWB-032","program":"gma","name":"Ragleth Hill","coordinates":[-2.80609989,52.5240593]},{"code":"GB-0143","program":"pota","name":"Shropshire Hills National Landscape","coordinates":[-2.85172,52.5542]},{"code":"GB-0221","program":"pota","name":"The Stiperstones and The Hollies SAC Conservation Reserve","coordinates":[-2.93199,52.5737]},{"code":"GB-0751","program":"pota","name":"Quarry Park","coordinates":[-2.76217,52.7064]},{"code":"GB-2042","program":"pota","name":"Jack Mytton Way National Scenic Trail","coordinates":[-2.80185,52.538]},{"code":"GB-2043","program":"pota","name":"Shropshire Way National Scenic Trail","coordinates":[-2.75044,52.6944]},{"code":"GB-2044","program":"pota","name":"Longmynd Site of Significant Scientific Interest","coordinates":[-2.81887,52.5411]},{"code":"GB-4827","program":"pota","name":"Burrs Field Country Park","coordinates":[-2.7573,52.7025]},{"code":"GB-4828","program":"pota","name":"Copthorne Park Nature Reserve","coordinates":[-2.78058,52.7115]},{"code":"GB-4829","program":"pota","name":"Coton Hill Country Park","coordinates":[-2.75775,52.7216]},{"code":"GB-4830","program":"pota","name":"Poplar Island Country Park","coordinates":[-2.75447,52.7143]},{"code":"GB-6358","program":"pota","name":"Lyth Hill Local Nature Reserve","coordinates":[-2.78163,52.6566]},{"code":"GB-6459","program":"pota","name":"Nills Hill Quarry Nature Reserve","coordinates":[-2.89529,52.6426]},{"code":"GB-6460","program":"pota","name":"Poles Coppice Woodland Reserve","coordinates":[-2.90856,52.6326]},{"code":"GB-6461","program":"pota","name":"Rectory Wood & Field Nature Reserve","coordinates":[-2.81237,52.5402]},{"code":"G/WB-003","program":"sota","name":"Stiperstones","coordinates":[-2.934858,52.58192]},{"code":"G/WB-005","program":"sota","name":"Long Mynd - Pole Bank","coordinates":[-2.863784,52.544666]},{"code":"G/WB-006","program":"sota","name":"Caer Caradoc Hill","coordinates":[-2.772119,52.55384]},{"code":"G/WB-007","program":"sota","name":"Heath Mynd","coordinates":[-2.981031,52.540596]},{"code":"B/G-0680","program":"wwbota","name":"ROC Post Minsterley","coordinates":[-2.92969,52.642508]},{"code":"B/G-0695","program":"wwbota","name":"ROC Post Church Stretton","coordinates":[-2.790389,52.531324]},{"code":"B/G-2034","program":"wwbota","name":"Music Hall, Shrewsbury bunker","coordinates":[-2.7547,52.70695]}]}