{"lat":52.5,"lon":-3.5,"programs":["gma","pota","sota","wwbota"],"count":16,"references":[{"code":"GW/HMW-024","program":"gma","name":"Cefn Crin","coordinates":[-3.26471996,52.63151169]},{"code":"GW/HMW-071","program":"gma","name":"Pen-caenion","coordinates":[-3.26852012,52.55865097]},{"code":"GW/HNW-001","program":"gma","name":"Allt y Gader","coordinates":[-3.26220012,52.74930954]},{"code":"GW/HNW-032","program":"gma","name":"Gallt y Goedhwch","coordinates":[-3.27952003,52.73384094]},{"code":"GW/HNW-042","program":"gma","name":"Moel Bentyrch","coordinates":[-3.39836001,52.67522812]},{"code":"GW/HNW-055","program":"gma","name":"Moel y Fronllwyd","coordinates":[-3.30366993,52.74885941]},{"code":"GW/HNW-079","program":"gma","name":"Pen y Berth","coordinates":[-3.36154008,52.70415878]},{"code":"GW/HNW-090","program":"gma","name":"Gallt yr Ancr","coordinates":[-3.265835,52.708415]},{"code":"MW/MW-032","program":"gma","name":"Cefn Mawr","coordinates":[-3.303298,52.537575]},{"code":"GB-1209","program":"pota","name":"Gregynog National Nature Reserve","coordinates":[-3.35036,52.5689]},{"code":"GB-1210","program":"pota","name":"Gregynog Site of Significant Scientific Interest","coordinates":[-3.34256,52.5694]},{"code":"GW/MW-017","program":"sota","name":"Garreg-hir","coordinates":[-3.47883,52.569836]},{"code":"GW/MW-030","program":"sota","name":"Stingwern Hill","coordinates":[-3.28187,52.603947]},{"code":"B/GW-0114","program":"wwbota","name":"ROC Post Llangadfan","coordinates":[-3.451609,52.693272]},{"code":"B/GW-0116","program":"wwbota","name":"ROC Post Llanfair Caereinion","coordinates":[-3.329,52.646433]},{"code":"B/GW-0123","program":"wwbota","name":"ROC Post Newtown","coordinates":[-3.306931,52.520903]}]}