{"lat":52.5,"lon":-116.5,"programs":["pota","sota"],"count":8,"references":[{"code":"CA-2944","program":"pota","name":"Blackstone Provincial Recreation Area","coordinates":[-116.327,52.614]},{"code":"CA-3156","program":"pota","name":"Wapiabi Provincial Recreation Area","coordinates":[-116.329,52.536]},{"code":"VE6/JS-291","program":"sota","name":"Largehorn Peak","coordinates":[-116.47834,52.53575]},{"code":"VE6/JS-549","program":"sota","name":"Bighorn","coordinates":[-116.414,52.5572]},{"code":"VE6/JS-552","program":"sota","name":"Sturrock","coordinates":[-116.2926,52.5254]},{"code":"VE6/JS-553","program":"sota","name":"Shanks","coordinates":[-116.3407,52.5651]},{"code":"VE6/JS-554","program":"sota","name":"Shankland NE1","coordinates":[-116.3441,52.5199]},{"code":"VE6/ST-219","program":"sota","name":"Hanson Creek Hill","coordinates":[-116.3351,52.6454]}]}