{"lat":52.5,"lon":1,"programs":["pota","wwbota"],"count":24,"references":[{"code":"GB-0598","program":"pota","name":"Alderford common Site of Significant Scientific Interest","coordinates":[1.1494,52.7225]},{"code":"GB-0600","program":"pota","name":"Buxton heath Site of Significant Scientific Interest","coordinates":[1.21501,52.7461]},{"code":"GB-2038","program":"pota","name":"Whitwell Common Site of Significant Scientific Interest","coordinates":[1.08811,52.7412]},{"code":"GB-2606","program":"pota","name":"River Wensum Site of Significant Scientific Interest","coordinates":[1.04531,52.7245]},{"code":"GB-4125","program":"pota","name":"Broadland Country Park","coordinates":[1.22462,52.7113]},{"code":"GB-5955","program":"pota","name":"Ashwellthorpe Woods Site of Significant Scientific Interest","coordinates":[1.15821,52.5373]},{"code":"GB-6027","program":"pota","name":"Earlham Country Park","coordinates":[1.23406,52.6256]},{"code":"GB-6477","program":"pota","name":"Bowthorpe Marsh Nature Reserve","coordinates":[1.23308,52.6296]},{"code":"GB-6478","program":"pota","name":"Swannington Upgate Common Site of Significant Scientific Interest","coordinates":[1.17763,52.7171]},{"code":"B/G-0563","program":"wwbota","name":"ROC Post Hingham","coordinates":[1.006905,52.576965]},{"code":"B/G-0564","program":"wwbota","name":"ROC Post Reepham","coordinates":[1.088114,52.728207]},{"code":"B/G-0565","program":"wwbota","name":"ROC Post Honingham","coordinates":[1.091557,52.649157]},{"code":"B/G-0590","program":"wwbota","name":"ROC Post Wymondham","coordinates":[1.133523,52.545351]},{"code":"B/G-1126","program":"wwbota","name":"1960s SRHQ Eastern - Region 4 - Bawburgh","coordinates":[1.197407,52.626561]},{"code":"B/G-1146","program":"wwbota","name":"ROTOR Radar - Bawburgh (WRK)","coordinates":[1.197407,52.626561]},{"code":"B/G-1195","program":"wwbota","name":"Airfield Battle HQ - Attlebridge","coordinates":[1.114844,52.687577]},{"code":"B/G-1679","program":"wwbota","name":"RAF Attlebridge, WW2 blast shelter","coordinates":[1.10576,52.690519]},{"code":"B/G-1695","program":"wwbota","name":"RAF Swannington, WW2 air raid shelter","coordinates":[1.185138,52.746256]},{"code":"B/G-1700","program":"wwbota","name":"Taverham Cold War Bunker","coordinates":[1.21491,52.67884]},{"code":"B/G-2059","program":"wwbota","name":"RAF Hockering bunker","coordinates":[1.06511,52.68743]},{"code":"B/G-2060","program":"wwbota","name":"Hethel bunker","coordinates":[1.1794,52.56229]},{"code":"B/G-2223","program":"wwbota","name":"Wymondham WW2 Pillbox Cluster","coordinates":[1.0963333,52.567752]},{"code":"B/G-2280","program":"wwbota","name":"USAAF Old Buckenham WW2 Bomb store bunker","coordinates":[1.066848,52.508412]},{"code":"B/G-2283","program":"wwbota","name":"USAAF Deopham Green WW2 bomb store bunker","coordinates":[1.000384,52.552312]}]}