{"lat":52.5,"lon":-120.25,"programs":["sota"],"count":18,"references":[{"code":"VE7/TN-049","program":"sota","name":"Mount Hugh Neave","coordinates":[-120.2291,52.5098]},{"code":"VE7/TN-077","program":"sota","name":"Hugh Neave E3","coordinates":[-120.1884,52.5021]},{"code":"VE7/TN-088","program":"sota","name":"Gombe SW3","coordinates":[-120.0063,52.5423]},{"code":"VE7/TN-094","program":"sota","name":"Gombe NW4","coordinates":[-120.0276,52.5828]},{"code":"VE7/TN-102","program":"sota","name":"FA57","coordinates":[-120.0781,52.5535]},{"code":"VE7/TN-119","program":"sota","name":"Mount Aves","coordinates":[-120.116,52.7018]},{"code":"VE7/TN-128","program":"sota","name":"VE7/TN-128","coordinates":[-120.0865,52.71]},{"code":"VE7/TN-129","program":"sota","name":"Napier Peak","coordinates":[-120.1386,52.5826]},{"code":"VE7/TN-141","program":"sota","name":"FA09","coordinates":[-120.0903,52.5028]},{"code":"VE7/TN-145","program":"sota","name":"Gombe W5","coordinates":[-120.0429,52.5542]},{"code":"VE7/TN-157","program":"sota","name":"VE7/TN-157","coordinates":[-120.1393,52.6958]},{"code":"VE7/TN-167","program":"sota","name":"FA79","coordinates":[-120.0905,52.571]},{"code":"VE7/TN-201","program":"sota","name":"Napier S2","coordinates":[-120.1428,52.5678]},{"code":"VE7/TN-230","program":"sota","name":"Grennier Peak","coordinates":[-120.0347,52.6316]},{"code":"VE7/TN-254","program":"sota","name":"Blue Lead Peak","coordinates":[-120.242,52.6846]},{"code":"VE7/TN-294","program":"sota","name":"Grennier W2","coordinates":[-120.058,52.6298]},{"code":"VE7/TN-302","program":"sota","name":"FB56","coordinates":[-120.1605,52.5531]},{"code":"VE7/TN-549","program":"sota","name":"VE7/TN-549","coordinates":[-120.2357,52.6363]}]}