{"lat":52.75,"lon":-117.5,"programs":["gma","sota"],"count":20,"references":[{"code":"XVE6/JS-212","program":"gma","name":"Mount Balcarres","coordinates":[-117.3536,52.7981]},{"code":"VE6/JS-112","program":"sota","name":"Mount Balinhard","coordinates":[-117.29984,52.760605]},{"code":"VE6/JS-215","program":"sota","name":"Helmet Mountain","coordinates":[-117.48972,52.773186]},{"code":"VE6/JS-220","program":"sota","name":"Blackface Mountain","coordinates":[-117.41026,52.899635]},{"code":"VE6/JS-224","program":"sota","name":"Mount Meda","coordinates":[-117.27227,52.763332]},{"code":"VE6/JS-236","program":"sota","name":"Deception Mountain","coordinates":[-117.3975,52.869442]},{"code":"VE6/JS-237","program":"sota","name":"Prospect Mountain","coordinates":[-117.39707,52.911957]},{"code":"VE6/JS-248","program":"sota","name":"Helmet NE5","coordinates":[-117.45282,52.808937]},{"code":"VE6/JS-258","program":"sota","name":"Mount Lindsay","coordinates":[-117.37379,52.86031]},{"code":"VE6/JS-265","program":"sota","name":"Cheviot Mountain","coordinates":[-117.35179,52.911232]},{"code":"VE6/JS-279","program":"sota","name":"Peak 50-26","coordinates":[-117.43119,52.826366]},{"code":"VE6/JS-285","program":"sota","name":"Tripoli Mountain","coordinates":[-117.33021,52.899452]},{"code":"VE6/JS-300","program":"sota","name":"Mount Cardinal","coordinates":[-117.31695,52.844772]},{"code":"VE6/JS-305","program":"sota","name":"Cadomin Mountain","coordinates":[-117.27768,52.98857]},{"code":"VE6/JS-448","program":"sota","name":"Mount Balcarres","coordinates":[-117.342,52.7964]},{"code":"VE6/JS-457","program":"sota","name":"Balcarres SE1","coordinates":[-117.3276,52.7899]},{"code":"VE6/JS-466","program":"sota","name":"MacKenzie S1","coordinates":[-117.2537,52.8344]},{"code":"VE6/JS-482","program":"sota","name":"Blackface NW1","coordinates":[-117.4544,52.9178]},{"code":"VE6/JS-496","program":"sota","name":"Chivalry NW2","coordinates":[-117.3981,52.7774]},{"code":"VE6/JS-531","program":"sota","name":"Prospect N1","coordinates":[-117.3691,52.9611]}]}