{"lat":52.75,"lon":-6.25,"programs":["pota","sota"],"count":8,"references":[{"code":"IE-0098","program":"pota","name":"Glenart Wood Nature Reserve","coordinates":[-6.17981,52.7999]},{"code":"IE-0099","program":"pota","name":"Vale of Clara Nature Reserve","coordinates":[-6.23816,52.9414]},{"code":"IE-0100","program":"pota","name":"Ballymoyle Forest National Forest","coordinates":[-6.13692,52.8586]},{"code":"IE-0101","program":"pota","name":"Avondale Forest National Forest","coordinates":[-6.22284,52.9073]},{"code":"IE-0103","program":"pota","name":"Red Kite Walk State Park","coordinates":[-6.20991,52.8595]},{"code":"EI/IE-046","program":"sota","name":"Carrick Mountain","coordinates":[-6.166397,52.9829]},{"code":"EI/IE-062","program":"sota","name":"Barranisky","coordinates":[-6.136479,52.84763]},{"code":"EI/IE-067","program":"sota","name":"Collon Hill","coordinates":[-6.063681,52.915665]}]}