{"lat":52.75,"lon":10,"programs":["gma","pota","wwbota"],"count":8,"references":[{"code":"DA/NI-211","program":"gma","name":"Wietzer Berg","coordinates":[10.08366013,52.87094879]},{"code":"DA/NI-213","program":"gma","name":"Schillohsberg","coordinates":[10.23406029,52.82984924]},{"code":"DA/NI-214","program":"gma","name":"Hesterberg","coordinates":[10.20800972,52.8431015]},{"code":"DA/NI-215","program":"gma","name":"Hausselberg","coordinates":[10.18474007,52.85779953]},{"code":"DA/NI-216","program":"gma","name":"Eicksberg","coordinates":[10.1602602,52.8085289]},{"code":"DE-0087","program":"pota","name":"Südheide Nature Park","coordinates":[10.2379,52.7804]},{"code":"DE-0689","program":"pota","name":"LSG Örtze Natura 2000","coordinates":[10.0918,52.8324]},{"code":"B/DL-0263","program":"wwbota","name":"Hindenburg Bunker","coordinates":[10.034589,52.943463]}]}