{"lat":52.75,"lon":-0.5,"programs":["pota","wwbota"],"count":16,"references":[{"code":"GB-3709","program":"pota","name":"Wellhead Park","coordinates":[-0.37985,52.7658]},{"code":"GB-5036","program":"pota","name":"Mareham Pastures Local Nature Reserve","coordinates":[-0.40506,52.9896]},{"code":"GB-5671","program":"pota","name":"Heckington Playing Fields Recreation Park","coordinates":[-0.300566,52.9847]},{"code":"B/G-0499","program":"wwbota","name":"ROC Post Ingoldsby","coordinates":[-0.499729,52.85405]},{"code":"B/G-0502","program":"wwbota","name":"ROC Post Bourne","coordinates":[-0.37586,52.790476]},{"code":"B/G-0503","program":"wwbota","name":"ROC Post Billingborough","coordinates":[-0.356792,52.88713]},{"code":"B/G-2052","program":"wwbota","name":"RAF Folkingham Decoy Airfield Q/K22a bunker","coordinates":[-0.41701,52.88028]},{"code":"B/G-2331","program":"wwbota","name":"RAF Folkingham Thor Missile Control Bunker","coordinates":[-0.440098,52.860294]},{"code":"B/G-2362","program":"wwbota","name":"RAF Braceby Decoy Airfield","coordinates":[-0.49554,52.910659]},{"code":"B/G-2403","program":"wwbota","name":"Donnington High Bridge Pillbox","coordinates":[-0.256026,52.905861]},{"code":"B/G-2404","program":"wwbota","name":"Helpringham Auxilary Unit Operational Base","coordinates":[-0.317173,52.934695]},{"code":"B/G-2503","program":"wwbota","name":"Creeton Pillbox","coordinates":[-0.499034,52.771364]},{"code":"B/G-2506","program":"wwbota","name":"RAF Folkingham Blast Shelter Cluster","coordinates":[-0.43234,52.869209]},{"code":"B/G-2521","program":"wwbota","name":"Willoughby Walk Decoy Airfield Q171(a) Control Bunker","coordinates":[-0.461,52.956]},{"code":"B/G-2522","program":"wwbota","name":"Swinstead Decoy Airfield Q133(b) Control Bunker","coordinates":[-0.49,52.8]},{"code":"B/G-2594","program":"wwbota","name":"RAF Folkingham Bomb Stores","coordinates":[-0.43395996,52.85158828]}]}