{"lat":52.75,"lon":-2.75,"programs":["gma","pota","wwbota"],"count":27,"references":[{"code":"G/HWB-021","program":"gma","name":"Grinshill Hill","coordinates":[-2.7146101,52.80897903]},{"code":"G/HWB-039","program":"gma","name":"Hawkstone Hill","coordinates":[-2.6269,52.8588]},{"code":"GB-0035","program":"pota","name":"Brown Moss SAC Conservation Reserve","coordinates":[-2.65365,52.9504]},{"code":"GB-1600","program":"pota","name":"Whitchurch Waterways Country Park","coordinates":[-2.69681,52.9697]},{"code":"GB-1601","program":"pota","name":"Prees Heath Common Nature Reserve","coordinates":[-2.65973,52.9225]},{"code":"GB-1603","program":"pota","name":"Corbet Wood National Heritage Site","coordinates":[-2.70803,52.8099]},{"code":"GB-2470","program":"pota","name":"Hodnet Heath Site of Significant Scientific Interest","coordinates":[-2.56538,52.8358]},{"code":"GB-2472","program":"pota","name":"Hodnet Hall Gardens Park","coordinates":[-2.58155,52.8525]},{"code":"GB-3468","program":"pota","name":"Greenfields Nature Reserve","coordinates":[-2.70013,52.9711]},{"code":"GB-3469","program":"pota","name":"Victoria Jubilee Park","coordinates":[-2.68859,52.9688]},{"code":"GB-5298","program":"pota","name":"Ruewood Nature Reserve","coordinates":[-2.74995,52.8454]},{"code":"GB-5374","program":"pota","name":"Lee Hill Scenic Reserve","coordinates":[-2.67138,52.8385]},{"code":"GB-6274","program":"pota","name":"Prees Branch Canal Nature Reserve","coordinates":[-2.748,52.8991]},{"code":"GB-6326","program":"pota","name":"Moreton Corbet Castle Grounds & National Park","coordinates":[-2.65242,52.8043]},{"code":"B/G-0058","program":"wwbota","name":"ROC Post Audlem","coordinates":[-2.506573,52.99989]},{"code":"B/G-0685","program":"wwbota","name":"ROC Post Whitchurch - Shropshire","coordinates":[-2.663675,52.974036]},{"code":"B/G-0686","program":"wwbota","name":"ROC Post Prees","coordinates":[-2.655458,52.893537]},{"code":"B/G-0687","program":"wwbota","name":"ROC Post Great Bolas","coordinates":[-2.550045,52.785748]},{"code":"B/G-0688","program":"wwbota","name":"ROC Post Market Drayton","coordinates":[-2.506688,52.907929]},{"code":"B/G-1263","program":"wwbota","name":"Airfield Battle HQ - High Ercall","coordinates":[-2.581829,52.75638]},{"code":"B/G-1321","program":"wwbota","name":"Airfield Battle HQ - Shawbury","coordinates":[-2.674844,52.801825]},{"code":"B/G-1334","program":"wwbota","name":"Airfield Battle HQ - Ternhill","coordinates":[-2.65436,52.939029]},{"code":"B/G-1487","program":"wwbota","name":"Sutton-upon-Tern Air Raid Shelter","coordinates":[-2.5288912,52.87529]},{"code":"B/G-1735","program":"wwbota","name":"RAF High Ercall, WW2 ground defence bunker cluster","coordinates":[-2.598995,52.761336]},{"code":"B/G-1736","program":"wwbota","name":"RAF Shawbury, WW2 air raid shelter","coordinates":[-2.652009,52.800077]},{"code":"B/G-1737","program":"wwbota","name":"RAF Shawbury, WW2 ground defence bunker cluster","coordinates":[-2.667941,52.793764]},{"code":"B/G-1739","program":"wwbota","name":"RAF Tilstock, WW2 blast shelter","coordinates":[-2.64838,52.924856]}]}