{"lat":53,"lon":12.75,"programs":["gma"],"count":5,"references":[{"code":"DA/ND-058","program":"gma","name":"Krähenberge","coordinates":[12.8665,53.07904]},{"code":"DA/ND-059","program":"gma","name":"Blocksberge","coordinates":[12.7508297,53.11693954]},{"code":"DA/ND-060","program":"gma","name":"Eichholzberge","coordinates":[12.75967979,53.13932037]},{"code":"DA/ND-093","program":"gma","name":"Trudelberg","coordinates":[12.82030773,53.09933472]},{"code":"DA/ND-121","program":"gma","name":"Wartberg","coordinates":[12.788136,53.063601]}]}