{"lat":53,"lon":-117.75,"programs":["sota"],"count":23,"references":[{"code":"VE6/BF-001","program":"sota","name":"Lyra Peak","coordinates":[-117.52416,53.011826]},{"code":"VE6/BF-004","program":"sota","name":"Sphinx Mountain","coordinates":[-117.56105,53.0668]},{"code":"VE6/BF-005","program":"sota","name":"Fiddle Peak","coordinates":[-117.745094,53.179523]},{"code":"VE6/BF-007","program":"sota","name":"Folding Mountain","coordinates":[-117.7043,53.212357]},{"code":"VE6/BF-008","program":"sota","name":"Mount Drinnan","coordinates":[-117.65216,53.118137]},{"code":"VE6/BF-011","program":"sota","name":"Berry W1","coordinates":[-117.5264,53.0505]},{"code":"VE6/BF-013","program":"sota","name":"FD2","coordinates":[-117.747,53.1332]},{"code":"VE6/BF-014","program":"sota","name":"BH14","coordinates":[-117.7457,53.1155]},{"code":"VE6/BF-015","program":"sota","name":"Drinnan W1","coordinates":[-117.708,53.1118]},{"code":"VE6/JS-011","program":"sota","name":"Cap Ridge","coordinates":[-117.66411,53.23264]},{"code":"VE6/JS-271","program":"sota","name":"Violin Peak","coordinates":[-117.6801,53.040955]},{"code":"VE6/JS-283","program":"sota","name":"Mount Bryant","coordinates":[-117.58345,53.01633]},{"code":"VE6/JS-294","program":"sota","name":"Overturn Mountain","coordinates":[-117.703186,53.054176]},{"code":"VE6/JS-306","program":"sota","name":"Slide Mountain","coordinates":[-117.61371,53.07817]},{"code":"VE6/JS-506","program":"sota","name":"Overturn N1","coordinates":[-117.692,53.068]},{"code":"VE6/JS-510","program":"sota","name":"Mount Bryant SW1","coordinates":[-117.6076,53.0014]},{"code":"VE6/JS-512","program":"sota","name":"Violin SE1","coordinates":[-117.645,53.0228]},{"code":"VE6/JS-516","program":"sota","name":"VE6/JS-516","coordinates":[-117.6703,53.0574]},{"code":"VE6/JS-535","program":"sota","name":"Violin SW1","coordinates":[-117.7257,53.0202]},{"code":"VE6/JS-540","program":"sota","name":"Violin S1","coordinates":[-117.6819,53.0049]},{"code":"VE6/JS-547","program":"sota","name":"Overturn S1","coordinates":[-117.7482,53.0288]},{"code":"VE6/ST-232","program":"sota","name":"VE6/ST-232","coordinates":[-117.5784,53.2489]},{"code":"VE6/ST-233","program":"sota","name":"Teepee Creek Hill","coordinates":[-117.5324,53.2212]}]}