{"lat":53,"lon":-1.75,"programs":["gma","pota","wwbota"],"count":28,"references":[{"code":"G/HSP-005","program":"gma","name":"Bolehill","coordinates":[-1.56242001,53.09500122]},{"code":"G/HSP-016","program":"gma","name":"Lees Moor","coordinates":[-1.62830997,53.20349884]},{"code":"G/HSP-025","program":"gma","name":"Stanton Moor","coordinates":[-1.63502002,53.16265869]},{"code":"GB-0136","program":"pota","name":"Peak District Dales SAC - Derbyshire Dales NNR - Long Dale Site of Significant Scientific Interest","coordinates":[-1.70944,53.1359]},{"code":"GB-0149","program":"pota","name":"Peak District Dales SAC - Derbyshire Dales NNR - Lathkill Dale Site of Significant Scientific Interest","coordinates":[-1.7374,53.1862]},{"code":"GB-0456","program":"pota","name":"Chatsworth House and Estate Country Park","coordinates":[-1.6132,53.2287]},{"code":"GB-0662","program":"pota","name":"Carsington Water RSPB Reserve","coordinates":[-1.6411,53.0609]},{"code":"GB-1296","program":"pota","name":"Black Rocks Country Park","coordinates":[-1.56648,53.0979]},{"code":"GB-1769","program":"pota","name":"Matlock Parks Country Park","coordinates":[-1.55783,53.1287]},{"code":"GB-3123","program":"pota","name":"Riverside Gardens Reserve","coordinates":[-1.67282,53.2142]},{"code":"GB-3139","program":"pota","name":"Ashbourne Park","coordinates":[-1.72884,53.0183]},{"code":"GB-4024","program":"pota","name":"The High Peak National Scenic Trail","coordinates":[-1.57443,53.0939]},{"code":"GB-4025","program":"pota","name":"Monsal National Scenic Trail","coordinates":[-1.73096,53.2425]},{"code":"GB-4027","program":"pota","name":"Tissington National Scenic Trail","coordinates":[-1.74013,53.0203]},{"code":"GB-4129","program":"pota","name":"Gang Mine Nature Reserve","coordinates":[-1.57419,53.0996]},{"code":"GB-4594","program":"pota","name":"Alport Heights Scenic Site","coordinates":[-1.54733,53.0612]},{"code":"GB-5204","program":"pota","name":"Eddlestow Lot Local Nature Reserve","coordinates":[-1.51777,53.1663]},{"code":"GB-5925","program":"pota","name":"Magpie Mine Historic Site","coordinates":[-1.74307,53.2105]},{"code":"GB-5926","program":"pota","name":"Whitworth Park","coordinates":[-1.5933,53.162]},{"code":"GB-5927","program":"pota","name":"Clough Wood Site of Significant Scientific Interest","coordinates":[-1.62128,53.1533]},{"code":"GB-5928","program":"pota","name":"Slinter Woods & Dunsley Meadows Nature Reserve","coordinates":[-1.57413,53.1105]},{"code":"GB-6281","program":"pota","name":"Shining Cliff Woods Site of Significant Scientific Interest","coordinates":[-1.50014,53.0762]},{"code":"GB-6469","program":"pota","name":"Bakewell & Ashford-in-the-Water National Scenic Trail","coordinates":[-1.69851,53.2217]},{"code":"B/G-0146","program":"wwbota","name":"ROC Post Brassington","coordinates":[-1.661134,53.093795]},{"code":"B/G-0147","program":"wwbota","name":"ROC Post Baslow","coordinates":[-1.641345,53.246819]},{"code":"B/G-0149","program":"wwbota","name":"ROC Post Hulland","coordinates":[-1.584695,53.014359]},{"code":"B/G-1194","program":"wwbota","name":"Airfield Battle HQ - Ashbourne","coordinates":[-1.699046,53.010568]},{"code":"B/G-1600","program":"wwbota","name":"RAF Ashbourne, WW2 blast shelter","coordinates":[-1.728565,53.00014]}]}