{"lat":53,"lon":22,"programs":["pota"],"count":7,"references":[{"code":"PL-0299","program":"pota","name":"Wielki Dział Nature Reserve","coordinates":[22.2497,53.101]},{"code":"PL-0313","program":"pota","name":"Kalinowo Nature Reserve","coordinates":[22.1528,53.1619]},{"code":"PL-0333","program":"pota","name":"Łomżyński Doliny Narwi Landscape Park","coordinates":[22.1688,53.1411]},{"code":"PL-0341","program":"pota","name":"Dębowe Góry Nature Reserve","coordinates":[22.0894,53.105]},{"code":"PL-0348","program":"pota","name":"Rycerski Kierz Nature Reserve","coordinates":[22.0527,53.2018]},{"code":"PL-0351","program":"pota","name":"Ostoja Narwiańska Natura 2000","coordinates":[22.2458,53.1216]},{"code":"PL-2666","program":"pota","name":"Przełomowa Dolina Narwi Natura 2000","coordinates":[22.1941,53.117]}]}