{"lat":53,"lon":9.75,"programs":["gma","pota"],"count":9,"references":[{"code":"DA/NI-182","program":"gma","name":"Hanstedter Berge","coordinates":[9.97161007,53.22732162]},{"code":"DA/NI-183","program":"gma","name":"Hingstberg","coordinates":[9.95188999,53.20568848]},{"code":"DA/NI-184","program":"gma","name":"Holzberg","coordinates":[9.979296,53.156114]},{"code":"DA/NI-202","program":"gma","name":"Mützenberg","coordinates":[9.9987402,53.05447006]},{"code":"DA/NI-203","program":"gma","name":"Schellberge","coordinates":[9.94606972,53.00251007]},{"code":"DA/NI-269","program":"gma","name":"Bolterberg","coordinates":[9.93571,53.161311]},{"code":"DA/NI-270","program":"gma","name":"Stattberg","coordinates":[9.931884,53.15866]},{"code":"DA/NI-309","program":"gma","name":"Wilseder Berg","coordinates":[9.93939972,53.1678009]},{"code":"DE-0092","program":"pota","name":"Lüneburger Heide Nature Park","coordinates":[9.919,53.1661]}]}