{"lat":53,"lon":-4.5,"programs":["gma","pota","wwbota"],"count":16,"references":[{"code":"GW/HNW-008","program":"gma","name":"Bwlch Mawr","coordinates":[-4.34615993,53.00482178]},{"code":"GW/HNW-093","program":"gma","name":"Foel","coordinates":[-4.31253,53.03086]},{"code":"GB-1066","program":"pota","name":"Newborough Warren National Nature Reserve","coordinates":[-4.35876,53.1441]},{"code":"GB-1084","program":"pota","name":"Cors Ddyga RSPB Reserve","coordinates":[-4.31814,53.2194]},{"code":"GB-4641","program":"pota","name":"Parc Glynllifon Country Park","coordinates":[-4.3048,53.0733]},{"code":"GB-4798","program":"pota","name":"Abermenai to Aberffraw Dunes SAC Protected Area","coordinates":[-4.37278,53.1517]},{"code":"GB-4801","program":"pota","name":"Glan-traeth SAC Protected Area","coordinates":[-4.3686,53.1733]},{"code":"GB-4809","program":"pota","name":"Newborough Warren - Ynys Llanddwyn Site of Significant Scientific Interest","coordinates":[-4.3849,53.1444]},{"code":"GB-4812","program":"pota","name":"Aberffraw Bay Heritage Coastal Park","coordinates":[-4.46045,53.1811]},{"code":"B/GW-0003","program":"wwbota","name":"ROC Post Newborough","coordinates":[-4.367272,53.161443]},{"code":"B/GW-0023","program":"wwbota","name":"ROC Post Pen-y-Groes","coordinates":[-4.27644,53.056312]},{"code":"B/GW-0165","program":"wwbota","name":"Airfield Battle HQ - Llandwrog","coordinates":[-4.330085,53.101847]},{"code":"B/GW-0203","program":"wwbota","name":"Bonc Twni, coastal defence bunker","coordinates":[-4.431608,53.170767]},{"code":"B/GW-0225","program":"wwbota","name":"RAF Llandwrog, WW2 Air Raid Shelter cluster","coordinates":[-4.31258,53.09416]},{"code":"B/GW-0229","program":"wwbota","name":"RAF Bodorgan Pillbox Cluster","coordinates":[-4.4219088,53.187583]},{"code":"B/GW-0230","program":"wwbota","name":"Dinas Dinlle Pillbox","coordinates":[-4.3360573,53.083317]}]}