{"lat":53,"lon":-6.25,"programs":["pota","sota","wwbota"],"count":8,"references":[{"code":"IE-0096","program":"pota","name":"Glen of Downs Nature Reserve","coordinates":[-6.11998,53.1389]},{"code":"IE-0102","program":"pota","name":"Djouce Wood National Forest","coordinates":[-6.19207,53.1517]},{"code":"IE-0237","program":"pota","name":"The Devil’s Glen National Park","coordinates":[-6.15853,53.0126]},{"code":"EI/IE-007","program":"sota","name":"Djouce","coordinates":[-6.239901,53.13081]},{"code":"EI/IE-018","program":"sota","name":"Two Rock Mountain","coordinates":[-6.245363,53.238407]},{"code":"EI/IE-022","program":"sota","name":"Great Sugar Loaf","coordinates":[-6.150505,53.15416]},{"code":"EI/IE-052","program":"sota","name":"Little Sugar Loaf","coordinates":[-6.11675,53.16545]},{"code":"B/EI-0008","program":"wwbota","name":"Bray Head Lookout Post (LOP 8)","coordinates":[-6.07449,53.17613]}]}