{"lat":53,"lon":-2,"programs":["gma","pota","wwbota"],"count":23,"references":[{"code":"G/HSP-026","program":"gma","name":"The Roaches","coordinates":[-1.99984002,53.17216873]},{"code":"G/HSP-027","program":"gma","name":"Wetton Hill","coordinates":[-1.83265996,53.1064682]},{"code":"G/HSP-031","program":"gma","name":"Wolfscote Hill","coordinates":[-1.79674006,53.12170029]},{"code":"M/SP-003","program":"gma","name":"Merryton Low","coordinates":[-1.939778,53.146595]},{"code":"GB-0096","program":"pota","name":"Peak District Dales SAC - Topley Pike and Deep Dale Site of Significant Scientific Interest","coordinates":[-1.85671,53.239]},{"code":"GB-0106","program":"pota","name":"Peak District Dales SAC - Dovedale National Nature Reserve","coordinates":[-1.78388,53.0667]},{"code":"GB-0278","program":"pota","name":"Biggin Dale National Nature Reserve","coordinates":[-1.78382,53.1208]},{"code":"GB-0290","program":"pota","name":"Coombes & Churnet Valley RSPB Reserve","coordinates":[-1.98712,53.078]},{"code":"GB-0596","program":"pota","name":"Consall Woods RSPB Reserve","coordinates":[-1.99494,53.0401]},{"code":"GB-1651","program":"pota","name":"Leek Moors Site of Significant Scientific Interest","coordinates":[-1.96119,53.2081]},{"code":"GB-1652","program":"pota","name":"Buxton and Poole's Cavern Country Park","coordinates":[-1.92705,53.2482]},{"code":"GB-2399","program":"pota","name":"Ilam Country Park","coordinates":[-1.80108,53.0547]},{"code":"GB-3985","program":"pota","name":"Hoften's Cross Meadow Nature Reserve","coordinates":[-1.89465,53.0293]},{"code":"GB-4595","program":"pota","name":"Weaver Hills Scenic Site","coordinates":[-1.84344,53.0125]},{"code":"GB-5088","program":"pota","name":"Three Shires Head Scenic Site","coordinates":[-1.98745,53.2136]},{"code":"GB-5617","program":"pota","name":"Thorswood Nature Reserve","coordinates":[-1.82977,53.0229]},{"code":"GB-5794","program":"pota","name":"Black Brook Nature Reserve","coordinates":[-1.97271,53.18]},{"code":"GB-5795","program":"pota","name":"The Roaches Nature Reserve","coordinates":[-1.99953,53.1694]},{"code":"GB-5924","program":"pota","name":"Deep Dale Nature Reserve","coordinates":[-1.7507,53.2281]},{"code":"B/G-0144","program":"wwbota","name":"ROC Post Hartington","coordinates":[-1.808032,53.136551]},{"code":"B/G-0744","program":"wwbota","name":"ROC Post Ipstones","coordinates":[-1.977285,53.048341]},{"code":"B/G-2552","program":"wwbota","name":"RAF Harpur Hill Machine Gun Bunker","coordinates":[-1.907166,53.215972]},{"code":"B/G-2553","program":"wwbota","name":"RAF Harpur Hill Underground Munitions Store(s)","coordinates":[-1.912596,53.23132]}]}