{"lat":53,"lon":14.75,"programs":["pota"],"count":5,"references":[{"code":"PL-1861","program":"pota","name":"Brodogóry Nature Reserve","coordinates":[14.9377,53.2147]},{"code":"PL-1866","program":"pota","name":"Jezioro Jasne Nature Reserve","coordinates":[14.9047,53.0475]},{"code":"PL-1874","program":"pota","name":"Tchórzyno Nature Reserve","coordinates":[14.8452,53.0116]},{"code":"PL-1928","program":"pota","name":"Stary Przylep Nature Reserve","coordinates":[14.994,53.1904]},{"code":"PL-2104","program":"pota","name":"Jezioro Miedwie i okolice Natura 2000","coordinates":[14.8644,53.2253]}]}