{"lat":53,"lon":-7.75,"programs":["pota","sota"],"count":5,"references":[{"code":"IE-0060","program":"pota","name":"Lacka Forest National Forest","coordinates":[-7.54671,53.0318]},{"code":"IE-0061","program":"pota","name":"Monicknew Forest National Forest","coordinates":[-7.54277,53.0709]},{"code":"IE-0105","program":"pota","name":"Kinnitty Castle Loop National Forest","coordinates":[-7.68478,53.0917]},{"code":"IE-0106","program":"pota","name":"Knockbarron Wood National Forest","coordinates":[-7.73621,53.1167]},{"code":"EI/IE-019","program":"sota","name":"Arderin","coordinates":[-7.65418,53.040604]}]}