{"lat":53,"lon":0,"programs":["pota","wwbota"],"count":16,"references":[{"code":"GB-4391","program":"pota","name":"Willoughby Branch Line Nature Reserve","coordinates":[0.207033,53.239]},{"code":"B/G-0523","program":"wwbota","name":"ROC Post Alford","coordinates":[0.11178,53.245376]},{"code":"B/G-0524","program":"wwbota","name":"ROC Post Little Steeping","coordinates":[0.129513,53.134566]},{"code":"B/G-0527","program":"wwbota","name":"ROC Post Old Leake","coordinates":[0.157142,53.017547]},{"code":"B/G-0528","program":"wwbota","name":"ROC Post Friskney","coordinates":[0.228445,53.064514]},{"code":"B/G-1135","program":"wwbota","name":"1960s SRHQ North Midlands - Region 3- Skendleby","coordinates":[0.156553,53.214726]},{"code":"B/G-1173","program":"wwbota","name":"ROTOR Radar - Skendleby (UPI)","coordinates":[0.152108,53.215705]},{"code":"B/G-1976","program":"wwbota","name":"Wrangle, coastal defence bunkers (cluster)","coordinates":[0.174955,53.051734]},{"code":"B/G-2105","program":"wwbota","name":"RAF Spilsby WW2 Bomb Stores","coordinates":[0.17019444,53.15910556]},{"code":"B/G-2108","program":"wwbota","name":"Hagnaby Decoy Airfield Q18a Blast Shelter","coordinates":[0.02188333,53.13638333]},{"code":"B/G-2127","program":"wwbota","name":"Dalby Auxillary Unit Operational Base (OB)","coordinates":[0.121682,53.205488]},{"code":"B/G-2156","program":"wwbota","name":"Sibsey WW2 Pillbox cluster","coordinates":[0.057166,53.070389]},{"code":"B/G-2297","program":"wwbota","name":"RAF East Kirkby Bomb Stores","coordinates":[0.001544,53.14175]},{"code":"B/G-2584","program":"wwbota","name":"Mavis Enderby Aux Op Base","coordinates":[0.043665,53.17089]},{"code":"B/G-2606","program":"wwbota","name":"Skendleby Civil Air Raid Shelter Cluster","coordinates":[0.14525,53.207464]},{"code":"B/G-2689","program":"wwbota","name":"Gun Emplacement bunker, Keal Bank","coordinates":[0.027738,53.127462]}]}