{"lat":53,"lon":-8.75,"programs":["pota","sota"],"count":5,"references":[{"code":"IE-0186","program":"pota","name":"Lough Rea Natura 2000","coordinates":[-8.57578,53.1881]},{"code":"IE-0188","program":"pota","name":"Peterswell Turlough Natura 2000","coordinates":[-8.73966,53.1297]},{"code":"IE-0074","program":"pota","name":"Caher Murphy Nature Reserve","coordinates":[-8.64708,53.0024]},{"code":"IE-0076","program":"pota","name":"Keelhila Nature Reserve","coordinates":[-8.59557,53.0435]},{"code":"EI/IW-056","program":"sota","name":"Cashlaundrumlahan","coordinates":[-8.618673,53.09158]}]}