{"lat":53.25,"lon":-119.5,"programs":["sota"],"count":23,"references":[{"code":"VE6/ST-025","program":"sota","name":"Devout Peak","coordinates":[-119.28775,53.295517]},{"code":"VE6/ST-026","program":"sota","name":"Whiteshield Mountain","coordinates":[-119.35399,53.305313]},{"code":"VE6/ST-032","program":"sota","name":"Mount Jessie","coordinates":[-119.32491,53.302315]},{"code":"VE6/ST-112","program":"sota","name":"Salvation Peak SE1","coordinates":[-119.3189,53.4926]},{"code":"VE6/ST-125","program":"sota","name":"Salvation S1","coordinates":[-119.3374,53.4712]},{"code":"VE6/ST-137","program":"sota","name":"Reunion S1","coordinates":[-119.4337,53.4942]},{"code":"VE6/ST-141","program":"sota","name":"Salvation SE1","coordinates":[-119.3098,53.4746]},{"code":"VE6/ST-143","program":"sota","name":"Reunion S2","coordinates":[-119.3956,53.4899]},{"code":"VE6/VC-018","program":"sota","name":"Mount Chown","coordinates":[-119.41795,53.397224]},{"code":"VE6/VC-020","program":"sota","name":"Mount Bess","coordinates":[-119.3777,53.349655]},{"code":"VE6/VC-021","program":"sota","name":"Barricade Mountain","coordinates":[-119.48361,53.403263]},{"code":"VE6/VC-049","program":"sota","name":"Barricade NW1","coordinates":[-119.4993,53.4124]},{"code":"VE6/VC-050","program":"sota","name":"Chown E1","coordinates":[-119.3527,53.3915]},{"code":"VE6/VC-054","program":"sota","name":"Resthaven NW1","coordinates":[-119.4752,53.467]},{"code":"VE6/VC-058","program":"sota","name":"Chown E2","coordinates":[-119.33,53.3774]},{"code":"VE6/VC-080","program":"sota","name":"Chown E3","coordinates":[-119.2703,53.3979]},{"code":"VE6/VC-081","program":"sota","name":"Chown E4","coordinates":[-119.3041,53.3879]},{"code":"VE6/VC-086","program":"sota","name":"Resthaven E1","coordinates":[-119.42,53.4623]},{"code":"VE6/VC-095","program":"sota","name":"Whiteshield S1","coordinates":[-119.3182,53.2647]},{"code":"VE6/VC-097","program":"sota","name":"Chown E6","coordinates":[-119.2943,53.4129]},{"code":"VE6/VC-112","program":"sota","name":"Whiteshield S2","coordinates":[-119.337,53.2803]},{"code":"VE6/VC-121","program":"sota","name":"Jessie NE1","coordinates":[-119.2789,53.33]},{"code":"VE6/VC-123","program":"sota","name":"Bess W1","coordinates":[-119.4426,53.3563]}]}