{"lat":53.25,"lon":20.5,"programs":["pota"],"count":5,"references":[{"code":"PL-0746","program":"pota","name":"Puszcza Napiwodzko-Ramucka Natura 2000","coordinates":[20.6522,53.498]},{"code":"PL-0754","program":"pota","name":"Doliny Rzeki Orzyc Protected Landscape Area","coordinates":[20.6223,53.2968]},{"code":"PL-0798","program":"pota","name":"Koniuszanka I Nature Reserve","coordinates":[20.531,53.4278]},{"code":"PL-0799","program":"pota","name":"Koniuszanka II Nature Reserve","coordinates":[20.521,53.4636]},{"code":"PL-0829","program":"pota","name":"Ostoja Napiwodzko-Ramucka Natura 2000","coordinates":[20.5953,53.4814]}]}