{"lat":53.25,"lon":19.75,"programs":["pota"],"count":14,"references":[{"code":"PL-0950","program":"pota","name":"Grzybiny Protected Landscape Area","coordinates":[19.9976,53.3581]},{"code":"PL-0966","program":"pota","name":"Ostoja Welska Natura 2000","coordinates":[19.9429,53.3208]},{"code":"PL-0971","program":"pota","name":"Jezioro Neliwa Nature Reserve","coordinates":[19.921,53.3762]},{"code":"PL-0981","program":"pota","name":"Bagno Koziana Nature Reserve","coordinates":[19.8401,53.3041]},{"code":"PL-0982","program":"pota","name":"Ostrów Tarczyński Nature Reserve","coordinates":[19.878,53.3413]},{"code":"PL-0995","program":"pota","name":"Welski Landscape Park","coordinates":[19.861,53.2943]},{"code":"PL-1008","program":"pota","name":"Piekiełko Nature Reserve","coordinates":[19.7749,53.331]},{"code":"PL-1011","program":"pota","name":"Otuliny WPK - Słup Protected Landscape Area","coordinates":[19.7729,53.274]},{"code":"PL-1017","program":"pota","name":"Przełomowa Dolina Rzeki Wel Natura 2000","coordinates":[19.7918,53.3304]},{"code":"PL-2063","program":"pota","name":"Naguszewski Protected Landscape Area","coordinates":[19.9511,53.4244]},{"code":"PL-2246","program":"pota","name":"Buchnowski Protected Landscape Area","coordinates":[19.835,53.3633]},{"code":"PL-2247","program":"pota","name":"Hartowiecki Protected Landscape Area","coordinates":[19.8606,53.3822]},{"code":"PL-2521","program":"pota","name":"Otuliny Welskiego Parku Krajobrazowego - Dębień Protected Landscape Area","coordinates":[19.9006,53.4014]},{"code":"PL-2533","program":"pota","name":"Jeziora Zwiniarz Nature and Landscape Complex","coordinates":[19.8461,53.4455]}]}