{"lat":53.25,"lon":-2,"programs":["gma","pota","sota","wwbota"],"count":48,"references":[{"code":"G/HSP-004","program":"gma","name":"Bleaklow Head","coordinates":[-1.86260998,53.45999908]},{"code":"G/HSP-009","program":"gma","name":"Chinley Churn","coordinates":[-1.94888997,53.34928131]},{"code":"G/HSP-010","program":"gma","name":"Eccles Pike","coordinates":[-1.94891,53.3277092]},{"code":"G/SP-001","program":"gma","name":"Kinder Scout","coordinates":[-1.87220001,53.38430023]},{"code":"GB-0048","program":"pota","name":"Peak District National Park","coordinates":[-1.76721,53.2581]},{"code":"GB-0174","program":"pota","name":"Kinder Scout National Nature Reserve","coordinates":[-1.87351,53.3846]},{"code":"GB-0184","program":"pota","name":"Peak District Dales SAC - Wye Valley Site of Significant Scientific Interest","coordinates":[-1.78819,53.2571]},{"code":"GB-0325","program":"pota","name":"Peak District Dales SAC - Derbyshire Dales NNR - Monks Dale Site of Significant Scientific Interest","coordinates":[-1.79919,53.2652]},{"code":"GB-1755","program":"pota","name":"Dark Peak Site of Significant Scientific Interest","coordinates":[-1.83166,53.4485]},{"code":"GB-2094","program":"pota","name":"Castleton Site of Significant Scientific Interest","coordinates":[-1.80346,53.3435]},{"code":"GB-2095","program":"pota","name":"Edale Site of Significant Scientific Interest","coordinates":[-1.84767,53.3646]},{"code":"GB-2284","program":"pota","name":"Combs Reservoir Site of Significant Scientific Interest","coordinates":[-1.94625,53.3164]},{"code":"GB-2317","program":"pota","name":"The Longdendale National Scenic Trail","coordinates":[-1.91894,53.4798]},{"code":"GB-2893","program":"pota","name":"Etherow Lodge Park","coordinates":[-1.98447,53.465]},{"code":"GB-3090","program":"pota","name":"Manor Park","coordinates":[-1.93968,53.448]},{"code":"GB-3091","program":"pota","name":"Howard Park","coordinates":[-1.9547,53.4515]},{"code":"GB-3092","program":"pota","name":"Snake Pass Woodlands Forest Reserve","coordinates":[-1.83866,53.4198]},{"code":"GB-3093","program":"pota","name":"Brookfield Pond Nature Reserve","coordinates":[-1.98883,53.328]},{"code":"GB-3397","program":"pota","name":"Mam Tor Scenic Site","coordinates":[-1.80954,53.3493]},{"code":"GB-3553","program":"pota","name":"Goytside Meadows Nature Reserve","coordinates":[-1.99779,53.3577]},{"code":"GB-3555","program":"pota","name":"Chinley (Stubbins) Park Nature Reserve","coordinates":[-1.94814,53.3405]},{"code":"GB-3685","program":"pota","name":"Jacob's Ladder Scenic Site","coordinates":[-1.87122,53.3732]},{"code":"GB-3722","program":"pota","name":"Hayfield Park","coordinates":[-1.94267,53.3777]},{"code":"GB-3968","program":"pota","name":"Goyt Valley Site of Significant Scientific Interest","coordinates":[-1.96401,53.2747]},{"code":"GB-3969","program":"pota","name":"Buxton Pavilion Gardens Park","coordinates":[-1.91909,53.2573]},{"code":"GB-4867","program":"pota","name":"Bluebell Wood Local Nature Reserve","coordinates":[-1.9535,53.3803]},{"code":"GB-4868","program":"pota","name":"Sett Valley National Scenic Trail","coordinates":[-1.95865,53.3806]},{"code":"GB-5452","program":"pota","name":"Bankswood Country Park","coordinates":[-1.96577,53.4589]},{"code":"GB-5524","program":"pota","name":"Toddbrook Reservoir Site of Significant Scientific Interest","coordinates":[-1.99547,53.325]},{"code":"GB-5549","program":"pota","name":"Woodhead Station & Tunnels Historic Site","coordinates":[-1.8306,53.4957]},{"code":"GB-5871","program":"pota","name":"Snake Pass Summit & Ashop Moor Scenic Site","coordinates":[-1.86892,53.4332]},{"code":"GB-5872","program":"pota","name":"Crowden Valley Moorland Reserve","coordinates":[-1.89295,53.491]},{"code":"GB-5874","program":"pota","name":"Bottoms Reservoir Scenic Reserve","coordinates":[-1.96188,53.4679]},{"code":"GB-5875","program":"pota","name":"Torside Moor & Reservoir Scenic Reserve","coordinates":[-1.89702,53.4849]},{"code":"GB-5876","program":"pota","name":"Woodhead Reservoir Scenic Reserve","coordinates":[-1.86562,53.4919]},{"code":"GB-5877","program":"pota","name":"Valehouse Reservoir Scenic Reserve","coordinates":[-1.94968,53.4761]},{"code":"GB-5878","program":"pota","name":"Rhodeswood Reservoir Scenic Reserve","coordinates":[-1.92805,53.4824]},{"code":"GB-5922","program":"pota","name":"Long Clough Nature Reserve","coordinates":[-1.95576,53.4294]},{"code":"GB-5923","program":"pota","name":"Melandra Castle & Roman Fort Historic Site","coordinates":[-1.98774,53.4523]},{"code":"GB-6040","program":"pota","name":"Fernilee Reservoir Scenic Reserve","coordinates":[-1.97884,53.29]},{"code":"GB-6041","program":"pota","name":"Errwood Reservoir Scenic Reserve","coordinates":[-1.98055,53.2772]},{"code":"GB-6387","program":"pota","name":"Bugsworth Basin Historical Reserve","coordinates":[-1.96939,53.3352]},{"code":"GB-6388","program":"pota","name":"Eccles Pike Hillside Reserve","coordinates":[-1.94821,53.3281]},{"code":"G/SP-001","program":"sota","name":"Kinder Scout","coordinates":[-1.87391,53.384808]},{"code":"B/G-0141","program":"wwbota","name":"ROC Post Glossop","coordinates":[-1.935217,53.448057]},{"code":"B/G-0142","program":"wwbota","name":"ROC Post Buxton Master Post","coordinates":[-1.869938,53.277669]},{"code":"B/G-0145","program":"wwbota","name":"ROC Post Hope","coordinates":[-1.791481,53.313513]},{"code":"B/G-1601","program":"wwbota","name":"ROC Chinley Post","coordinates":[-1.94681,53.32779]}]}