{"lat":53.25,"lon":-2.75,"programs":["pota","wwbota"],"count":81,"references":[{"code":"GB-0369","program":"pota","name":"Bold Forest Park Country Park","coordinates":[-2.68432,53.4373]},{"code":"GB-0510","program":"pota","name":"Pennington Flash Country Park","coordinates":[-2.53672,53.4862]},{"code":"GB-0710","program":"pota","name":"Frodsham Hill Woods Site of Significant Scientific Interest","coordinates":[-2.72232,53.2893]},{"code":"GB-0747","program":"pota","name":"Anderton Nature Park","coordinates":[-2.52107,53.2706]},{"code":"GB-0748","program":"pota","name":"Marbury Country Park Country Park","coordinates":[-2.51986,53.2815]},{"code":"GB-2002","program":"pota","name":"Sankey Valley Country Park","coordinates":[-2.68808,53.4587]},{"code":"GB-2282","program":"pota","name":"Woolston Eyes Site of Significant Scientific Interest","coordinates":[-2.54007,53.3833]},{"code":"GB-2611","program":"pota","name":"Wigg Island Community Park and Nature Reserve","coordinates":[-2.71219,53.346]},{"code":"GB-2612","program":"pota","name":"Walton Hall Gardens Park","coordinates":[-2.60201,53.3613]},{"code":"GB-2856","program":"pota","name":"Lyme and Wood Country Park","coordinates":[-2.65275,53.4639]},{"code":"GB-2877","program":"pota","name":"Clock Face Country Park","coordinates":[-2.69586,53.4197]},{"code":"GB-2935","program":"pota","name":"Wheatacre Woods Nature Reserve","coordinates":[-2.66374,53.4294]},{"code":"GB-2936","program":"pota","name":"Colliers Moss Common Nature Reserve","coordinates":[-2.6906,53.442]},{"code":"GB-2937","program":"pota","name":"Griffin Wood Reserve","coordinates":[-2.6941,53.4125]},{"code":"GB-2938","program":"pota","name":"Maypole Wood Reserve","coordinates":[-2.6897,53.421]},{"code":"GB-2939","program":"pota","name":"Sutton Manor Reserve","coordinates":[-2.72432,53.4107]},{"code":"GB-2961","program":"pota","name":"Sherdley Park","coordinates":[-2.72771,53.4324]},{"code":"GB-3020","program":"pota","name":"Culcheth Linear Park","coordinates":[-2.53216,53.4506]},{"code":"GB-3021","program":"pota","name":"Hope Carr Nature Reserve","coordinates":[-2.51163,53.4828]},{"code":"GB-3022","program":"pota","name":"Phoenix Park","coordinates":[-2.68118,53.3365]},{"code":"GB-3023","program":"pota","name":"Town Park","coordinates":[-2.68008,53.3292]},{"code":"GB-3024","program":"pota","name":"Runcorn Hill Nature Reserve","coordinates":[-2.74261,53.3307]},{"code":"GB-3025","program":"pota","name":"Heath Park","coordinates":[-2.73688,53.3268]},{"code":"GB-3026","program":"pota","name":"Castle Park","coordinates":[-2.73036,53.2915]},{"code":"GB-3028","program":"pota","name":"Verdin Park","coordinates":[-2.51921,53.2605]},{"code":"GB-3087","program":"pota","name":"Silver Lane Lakes Country Park","coordinates":[-2.51029,53.4423]},{"code":"GB-3110","program":"pota","name":"Oxmoor Wood Nature Reserve","coordinates":[-2.66545,53.3523]},{"code":"GB-3111","program":"pota","name":"Dorchester Park Nature Reserve","coordinates":[-2.66448,53.3459]},{"code":"GB-3112","program":"pota","name":"Daresbury Firs Nature Reserve","coordinates":[-2.63752,53.341]},{"code":"GB-3113","program":"pota","name":"Murdishaw Wood and Valley Nature Reserve","coordinates":[-2.66702,53.3182]},{"code":"GB-3752","program":"pota","name":"Carey Park Nature Reserve and Site of Significant Scientific Interest","coordinates":[-2.51114,53.266]},{"code":"GB-3755","program":"pota","name":"Paddington Meadows Nature Reserve","coordinates":[-2.55653,53.3908]},{"code":"GB-3948","program":"pota","name":"Spike Island Country Park","coordinates":[-2.73065,53.354]},{"code":"GB-3949","program":"pota","name":"Birchwood Forest Park","coordinates":[-2.51156,53.4263]},{"code":"GB-3950","program":"pota","name":"Gorse Covert Mounds Nature Reserve","coordinates":[-2.50098,53.432]},{"code":"GB-3951","program":"pota","name":"Woolston Linear Park","coordinates":[-2.54216,53.4052]},{"code":"GB-3952","program":"pota","name":"The Twiggeries Nature Reserve","coordinates":[-2.56963,53.3925]},{"code":"GB-4257","program":"pota","name":"Thatto Heath Meadows Nature Reserve","coordinates":[-2.74293,53.4375]},{"code":"GB-4258","program":"pota","name":"Stanley Bank & Meadow Nature Reserve and Site of Significant Scientific Interest","coordinates":[-2.69372,53.4719]},{"code":"GB-4259","program":"pota","name":"Parr Hall Millennium Green Nature Reserve","coordinates":[-2.714,53.46]},{"code":"GB-4344","program":"pota","name":"Park Moss Nature Reserve","coordinates":[-2.51305,53.331]},{"code":"GB-4566","program":"pota","name":"Woodhouse Hill Wood and Scenic Site","coordinates":[-2.73542,53.2767]},{"code":"GB-4599","program":"pota","name":"Willow Park","coordinates":[-2.61268,53.4567]},{"code":"GB-4600","program":"pota","name":"Mesnes Park","coordinates":[-2.62067,53.4539]},{"code":"GB-4658","program":"pota","name":"Sunnybank Woodland Park","coordinates":[-2.69899,53.3831]},{"code":"GB-4659","program":"pota","name":"Airlift Hill Park","coordinates":[-2.65365,53.4089]},{"code":"GB-4721","program":"pota","name":"Victoria Park Recreation Park","coordinates":[-2.73072,53.3758]},{"code":"GB-4723","program":"pota","name":"Bridgewater Canal Towpath National Scenic Trail","coordinates":[-2.73429,53.3406]},{"code":"GB-4849","program":"pota","name":"Sankey Canal Towpath National Scenic Trail","coordinates":[-2.72918,53.3565]},{"code":"GB-4856","program":"pota","name":"Delamere Way National Scenic Trail","coordinates":[-2.62156,53.2878]},{"code":"GB-4940","program":"pota","name":"Lumb Brook Millennium Green Park","coordinates":[-2.56663,53.3676]},{"code":"GB-4941","program":"pota","name":"Warrington Victoria Park","coordinates":[-2.57437,53.3834]},{"code":"GB-4942","program":"pota","name":"Bruche Park","coordinates":[-2.56286,53.3991]},{"code":"GB-4943","program":"pota","name":"Black Bear and Loushers Lane Park","coordinates":[-2.57854,53.3763]},{"code":"GB-4944","program":"pota","name":"Moore Local Nature Reserve","coordinates":[-2.63557,53.3646]},{"code":"GB-4945","program":"pota","name":"Arpley Meadows Nature Reserve","coordinates":[-2.61275,53.3767]},{"code":"GB-4946","program":"pota","name":"Westy Park","coordinates":[-2.55447,53.3873]},{"code":"GB-4949","program":"pota","name":"Elizabeth Park","coordinates":[-2.5261,53.3818]},{"code":"GB-4950","program":"pota","name":"Radley Plantation Woodland Reserve","coordinates":[-2.57827,53.4196]},{"code":"GB-4951","program":"pota","name":"Wilderspool Causeway Park","coordinates":[-2.58847,53.379]},{"code":"GB-4952","program":"pota","name":"Orford Park","coordinates":[-2.58246,53.4042]},{"code":"GB-5016","program":"pota","name":"Stenhills Quarry Park","coordinates":[-2.71337,53.3369]},{"code":"GB-5017","program":"pota","name":"Runcorn Town Hall Park","coordinates":[-2.7236,53.3334]},{"code":"GB-5018","program":"pota","name":"Halton Village Millennium Green Park","coordinates":[-2.6944,53.335]},{"code":"GB-5019","program":"pota","name":"City Fields Park","coordinates":[-2.69543,53.3299]},{"code":"GB-5057","program":"pota","name":"Weaver Navigation Canal National Scenic Trail","coordinates":[-2.60744,53.281]},{"code":"GB-5058","program":"pota","name":"Dutton Park Nature Reserve","coordinates":[-2.63381,53.2836]},{"code":"GB-5892","program":"pota","name":"Clinkham Wood Local Nature Reserve","coordinates":[-2.73209,53.4778]},{"code":"GB-6207","program":"pota","name":"Frodsham Marshes Nature Reserve","coordinates":[-2.74908,53.307]},{"code":"GB-6299","program":"pota","name":"Golborne (The Bonk) Park","coordinates":[-2.59786,53.4828]},{"code":"GB-6476","program":"pota","name":"Westy Point & Woods Scenic Reserve","coordinates":[-2.56203,53.3941]},{"code":"GB-6591","program":"pota","name":"Whitley Nature Reserve","coordinates":[-2.58327,53.3178]},{"code":"GB-6592","program":"pota","name":"Greenwood Fishery & Nature Reserve","coordinates":[-2.58372,53.3198]},{"code":"B/G-0056","program":"wwbota","name":"ROC Post Preston on the Hill","coordinates":[-2.645649,53.332261]},{"code":"B/G-0458","program":"wwbota","name":"ROC Post Warrington","coordinates":[-2.574405,53.41658]},{"code":"B/G-1063","program":"wwbota","name":"AAOR Frodsham","coordinates":[-2.72142,53.284186]},{"code":"B/G-1330","program":"wwbota","name":"Airfield Battle HQ - Stretton (HMS Blackcap)","coordinates":[-2.522426,53.349404]},{"code":"B/G-1525","program":"wwbota","name":"RAF (USAF) Burtonwood (former) storage bunkers","coordinates":[-2.65517,53.409266]},{"code":"B/G-2222","program":"wwbota","name":"Runcorn WW2 Pillbox","coordinates":[-2.728447,53.315919]},{"code":"B/G-2678","program":"wwbota","name":"Moore HAA Battery ground defence bunker cluster","coordinates":[-2.636294,53.361137]},{"code":"B/G-2679","program":"wwbota","name":"ROF Birchwood, pillbox","coordinates":[-2.528342,53.422578]}]}