{"lat":53.25,"lon":7,"programs":["pota","wwbota"],"count":9,"references":[{"code":"DE-1080","program":"pota","name":"Krummhörn Bird Sanctuary","coordinates":[7.04627,53.4218]},{"code":"B/DL-0121","program":"wwbota","name":"Thiele-Tee-Bunker (Hochbunker)","coordinates":[7.207711,53.37315]},{"code":"B/DL-0794","program":"wwbota","name":"Hochbunker Kirchstr, Emden","coordinates":[7.203018,53.36532]},{"code":"B/DL-0795","program":"wwbota","name":"Hochbunker Nesserlander Straße in Emden","coordinates":[7.18917,53.348871]},{"code":"B/PA-1010","program":"wwbota","name":"Unknown","coordinates":[7.07292,53.29884]},{"code":"B/PA-1011","program":"wwbota","name":"Unknown","coordinates":[7.0723,53.29952]},{"code":"B/PA-1012","program":"wwbota","name":"Unknown","coordinates":[7.07287,53.30005]},{"code":"B/PA-1013","program":"wwbota","name":"Unknown","coordinates":[7.07441,53.29938]},{"code":"B/PA-1014","program":"wwbota","name":"Unknown","coordinates":[7.07479,53.29906]}]}