{"lat":53.25,"lon":-3.5,"programs":["gma","pota","sota","wwbota"],"count":11,"references":[{"code":"MW/NW-002","program":"gma","name":"Mynydd Mostyn","coordinates":[-3.31146,53.30372]},{"code":"MW/NW-003","program":"gma","name":"Gop Hill","coordinates":[-3.37246,53.31058]},{"code":"GB-1085","program":"pota","name":"Dee Estuary - Point of Ayr RSPB Reserve","coordinates":[-3.31213,53.3508]},{"code":"GB-1256","program":"pota","name":"Gronant Dunes & Talacre Warren Site of Significant Scientific Interest","coordinates":[-3.314,53.3537]},{"code":"GB-6654","program":"pota","name":"Clwydian Way National Scenic Trail","coordinates":[-3.4083,53.3417]},{"code":"GW/NW-076","program":"sota","name":"Mynydd y Cwm - Coed Cwm","coordinates":[-3.391703,53.27945]},{"code":"B/GW-0064","program":"wwbota","name":"ROC Post St. Asaph","coordinates":[-3.470586,53.264443]},{"code":"B/GW-0065","program":"wwbota","name":"ROC Post Prestatyn","coordinates":[-3.384101,53.325619]},{"code":"B/GW-0152","program":"wwbota","name":"Chain Home - Rhuddlan","coordinates":[-3.483108,53.275346]},{"code":"B/GW-0156","program":"wwbota","name":"ROTOR Radar - Prestatyn (SYP)","coordinates":[-3.384263,53.325976]},{"code":"B/GW-0210","program":"wwbota","name":"Talacre Beach, coastal defence bunker","coordinates":[-3.316525,53.355853]}]}