{"lat":53.25,"lon":16.5,"programs":["pota"],"count":6,"references":[{"code":"PL-1632","program":"pota","name":"Pojezierze Wałeckie i Dolina Gwdy Protected Landscape Area","coordinates":[16.6248,53.3345]},{"code":"PL-1652","program":"pota","name":"Puszcza nad Gwdą Natura 2000","coordinates":[16.6474,53.3429]},{"code":"PL-1661","program":"pota","name":"Smolary Nature Reserve","coordinates":[16.7191,53.2894]},{"code":"PL-1678","program":"pota","name":"Wielkopolska Dolina Rurzycy Nature Reserve","coordinates":[16.6053,53.3664]},{"code":"PL-1684","program":"pota","name":"Diabli Skok Nature Reserve","coordinates":[16.5837,53.3933]},{"code":"PL-1677","program":"pota","name":"Dolina Rurzycy Nature Reserve","coordinates":[16.6667,53.3153]}]}