{"lat":53.25,"lon":18.25,"programs":["pota"],"count":13,"references":[{"code":"PL-1408","program":"pota","name":"Nadwiślański Landscape Park","coordinates":[18.4611,53.4053]},{"code":"PL-1409","program":"pota","name":"Zamek Świecie Natura 2000","coordinates":[18.4595,53.4037]},{"code":"PL-1422","program":"pota","name":"Łęgi na Ostrowiu Panieńskim Nature Reserve","coordinates":[18.4083,53.3559]},{"code":"PL-1424","program":"pota","name":"Świecki Protected Landscape Area","coordinates":[18.3995,53.4717]},{"code":"PL-1428","program":"pota","name":"Zbocza Plutowskie Natura 2000","coordinates":[18.3844,53.2666]},{"code":"PL-1429","program":"pota","name":"Ostrów Panieński Nature Reserve","coordinates":[18.3843,53.3486]},{"code":"PL-1430","program":"pota","name":"Plutowo Nature Reserve","coordinates":[18.3944,53.2789]},{"code":"PL-1431","program":"pota","name":"Góra Św. Wawrzyńca Nature Reserve","coordinates":[18.3829,53.3272]},{"code":"PL-1432","program":"pota","name":"Zbocza Plutowskie Nature Reserve","coordinates":[18.381,53.2871]},{"code":"PL-1444","program":"pota","name":"Ostnicowe Parowy Gruczna Nature Reserve","coordinates":[18.3032,53.3415]},{"code":"PL-1447","program":"pota","name":"Nadwiślański Protected Landscape Area","coordinates":[18.2905,53.3678]},{"code":"PL-2830","program":"pota","name":"Czarcie Góry Nature Reserve","coordinates":[18.4905,53.4175]},{"code":"PL-2876","program":"pota","name":"Wąwóz Wyrwa Nature Reserve","coordinates":[18.3483,53.4402]}]}