{"lat":53.25,"lon":-0.75,"programs":["pota","wwbota"],"count":26,"references":[{"code":"GB-2311","program":"pota","name":"Cliff House Site of Significant Scientific Interest","coordinates":[-0.550349,53.4451]},{"code":"GB-6129","program":"pota","name":"Tuetoes & Laughton Forest Reserve","coordinates":[-0.699916,53.4828]},{"code":"B/G-0479","program":"wwbota","name":"ROC Post Scotter","coordinates":[-0.65034,53.497175]},{"code":"B/G-0485","program":"wwbota","name":"ROC Post Sturton by Stow","coordinates":[-0.673439,53.302636]},{"code":"B/G-0488","program":"wwbota","name":"ROC Post Bishop Norton","coordinates":[-0.524539,53.416672]},{"code":"B/G-0491","program":"wwbota","name":"ROC Post Hackthorn","coordinates":[-0.505823,53.298047]},{"code":"B/G-1205","program":"wwbota","name":"Airfield Battle HQ - Blyton","coordinates":[-0.693143,53.44848]},{"code":"B/G-1215","program":"wwbota","name":"Airfield Battle HQ - Cammeringham","coordinates":[-0.553606,53.344932]},{"code":"B/G-1262","program":"wwbota","name":"Airfield Battle HQ - Hibaldstow","coordinates":[-0.525472,53.498396]},{"code":"B/G-1666","program":"wwbota","name":"RAF Scampton, WW2 ground defence bunker cluster","coordinates":[-0.55007,53.304623]},{"code":"B/G-2159","program":"wwbota","name":"Sturgate WW2 Pillbox cluster","coordinates":[-0.701946,53.376745]},{"code":"B/G-2182","program":"wwbota","name":"Heavy AA Battery Lincoln H1, Command Post","coordinates":[-0.542585,53.266663]},{"code":"B/G-2286","program":"wwbota","name":"RAF Kirton in Linsdey WW2 Air Raid Shelter cluster","coordinates":[-0.581547,53.468436]},{"code":"B/G-2287","program":"wwbota","name":"RAF Hemswell Defensive Cluster","coordinates":[-0.578584,53.401726]},{"code":"B/G-2304","program":"wwbota","name":"RAF Sturgate Bomb Stores","coordinates":[-0.659351,53.399855]},{"code":"B/G-2328","program":"wwbota","name":"RAF Hemswell WW2 Bomb Store","coordinates":[-0.56717992,53.40494613]},{"code":"B/G-2333","program":"wwbota","name":"RAF Kirton Lindsey WW2 Ammunition Stores","coordinates":[-0.58332145,53.46890332]},{"code":"B/G-2334","program":"wwbota","name":"RAF Kirton Lindsey Mike Sector Ops Room","coordinates":[-0.57974339,53.46880433]},{"code":"B/G-2346","program":"wwbota","name":"RAF Scampton 1939 Bomb Stores","coordinates":[-0.54448843,53.30782011]},{"code":"B/G-2475","program":"wwbota","name":"RAF Hemswell Thor Missile Control Bunker","coordinates":[-0.58195353,53.40760041]},{"code":"B/G-2481","program":"wwbota","name":"RAF Dunholme Lodge Bloodhound Missile Control Bunker #1","coordinates":[-0.51424384,53.28979277]},{"code":"B/G-2483","program":"wwbota","name":"RAF Scampton WW2 Bomb Stores","coordinates":[-0.56051731,53.31892832]},{"code":"B/G-2484","program":"wwbota","name":"RAF Scampton Cold War Bomb Stores","coordinates":[-0.5526638,53.31418541]},{"code":"B/G-2591","program":"wwbota","name":"RAF Dunholme ABHQ","coordinates":[-0.510996,53.293936]},{"code":"B/G-2592","program":"wwbota","name":"RAF Dunholme Bomb Stores","coordinates":[-0.50507069,53.28436993]},{"code":"B/G-2593","program":"wwbota","name":"RAF Dunholme Lodge Bloodhound Missile Control Bunker #2","coordinates":[-0.51457107,53.28782703]}]}