{"lat":53.25,"lon":-118.25,"programs":["pota","sota","wwbota"],"count":24,"references":[{"code":"CA-0669","program":"pota","name":"Rock Lake Provincial Park","coordinates":[-118.242,53.4634]},{"code":"CA-3119","program":"pota","name":"Rock Lake - Solomon Creek Wildland Provincial Park","coordinates":[-118.17,53.4214]},{"code":"VE6/ST-003","program":"sota","name":"Mount Aeolus","coordinates":[-118.07196,53.26986]},{"code":"VE6/ST-059","program":"sota","name":"Mount Kephala","coordinates":[-118.02786,53.360214]},{"code":"VE6/ST-062","program":"sota","name":"Kephala NW4","coordinates":[-118.069664,53.3868]},{"code":"VE6/ST-074","program":"sota","name":"Peak 24-06","coordinates":[-118.09792,53.403236]},{"code":"VE6/ST-092","program":"sota","name":"Moosehorn Peak","coordinates":[-118.15457,53.3447]},{"code":"VE6/ST-093","program":"sota","name":"Grindstone Peak","coordinates":[-118.22945,53.39432]},{"code":"VE6/ST-095","program":"sota","name":"Peak BS1","coordinates":[-118.20748,53.32441]},{"code":"VE6/ST-147","program":"sota","name":"Aeolus NW1","coordinates":[-118.0863,53.2784]},{"code":"VE6/ST-175","program":"sota","name":"Aeolus NW2","coordinates":[-118.1577,53.291]},{"code":"VE6/ST-183","program":"sota","name":"Grindstone NE1","coordinates":[-118.2093,53.4158]},{"code":"VE6/ST-185","program":"sota","name":"24-06 NE1","coordinates":[-118.0997,53.4258]},{"code":"VE6/ST-190","program":"sota","name":"Grindstone NE2","coordinates":[-118.1853,53.4302]},{"code":"VE6/ST-195","program":"sota","name":"Grindstone S1","coordinates":[-118.2165,53.3626]},{"code":"VE6/ST-199","program":"sota","name":"Moosehorn Hill","coordinates":[-118.1648,53.4511]},{"code":"VE6/ST-201","program":"sota","name":"Ice Water Hill","coordinates":[-118.0659,53.4337]},{"code":"VE6/ST-203","program":"sota","name":"Rock Lake Hill","coordinates":[-118.2202,53.4384]},{"code":"VE6/ST-205","program":"sota","name":"Boule Roche SW1","coordinates":[-118.013,53.3081]},{"code":"VE6/ST-214","program":"sota","name":"24-06 NW1","coordinates":[-118.1422,53.4764]},{"code":"VE6/ST-225","program":"sota","name":"Rock Creek Hill","coordinates":[-118.2495,53.4542]},{"code":"VE6/ST-234","program":"sota","name":"Grindstone NE3","coordinates":[-118.0816,53.4902]},{"code":"VE6/ST-259","program":"sota","name":"Paradise Creek Hill","coordinates":[-118.023,53.4822]},{"code":"B/CA-0090","program":"wwbota","name":"FRP BJ4","coordinates":[-118.2415031,53.46437443]}]}