{"lat":53.5,"lon":10.25,"programs":["gma","pota"],"count":5,"references":[{"code":"DA/ND-031","program":"gma","name":"Großer Hahnheider Berg","coordinates":[10.45876408,53.6147728]},{"code":"DA/ND-043","program":"gma","name":"Kleiner Hahnheider Berg","coordinates":[10.44581985,53.62316513]},{"code":"DE-0391","program":"pota","name":"Billetal Nature Reserve","coordinates":[10.3152,53.5547]},{"code":"DE-0631","program":"pota","name":"Sachsenwald National Historical Park","coordinates":[10.3862,53.5444]},{"code":"DE-0957","program":"pota","name":"Hahnheide Nature Reserve","coordinates":[10.45,53.6167]}]}