{"lat":53.5,"lon":19.25,"programs":["pota"],"count":6,"references":[{"code":"PL-1204","program":"pota","name":"Rzeki Liwy Protected Landscape Area","coordinates":[19.2752,53.7284]},{"code":"PL-1123","program":"pota","name":"Jezioro Karaś Nature Reserve","coordinates":[19.4773,53.5577]},{"code":"PL-1169","program":"pota","name":"Aleje Pojezierza Iławskiego Natura 2000","coordinates":[19.479,53.6558]},{"code":"PL-1188","program":"pota","name":"Uroczysko Piotrowice Nature Reserve","coordinates":[19.3446,53.5522]},{"code":"PL-1193","program":"pota","name":"Jeziora Goryńskiego Protected Landscape Area","coordinates":[19.3055,53.544]},{"code":"PL-1200","program":"pota","name":"Las Słupnicki Nature and Landscape Complex","coordinates":[19.3073,53.5065]}]}