{"lat":53.5,"lon":-118.75,"programs":["sota"],"count":24,"references":[{"code":"VE6/ST-011","program":"sota","name":"Persimmon SE4","coordinates":[-118.70208,53.556625]},{"code":"VE6/ST-027","program":"sota","name":"Eaglerock Peak","coordinates":[-118.60282,53.509083]},{"code":"VE6/ST-037","program":"sota","name":"Berland Peak","coordinates":[-118.518875,53.605824]},{"code":"VE6/ST-053","program":"sota","name":"Galette Peak","coordinates":[-118.55574,53.623695]},{"code":"VE6/ST-058","program":"sota","name":"Mount Sisley","coordinates":[-118.680756,53.596375]},{"code":"VE6/ST-066","program":"sota","name":"Mount Renoir","coordinates":[-118.52997,53.649117]},{"code":"VE6/ST-067","program":"sota","name":"Mount Monet","coordinates":[-118.74285,53.66173]},{"code":"VE6/ST-071","program":"sota","name":"Peak 34-37","coordinates":[-118.61445,53.573906]},{"code":"VE6/ST-072","program":"sota","name":"Mount Delacroix","coordinates":[-118.727745,53.720966]},{"code":"VE6/ST-073","program":"sota","name":"Peak 39-38","coordinates":[-118.6308,53.64647]},{"code":"VE6/ST-076","program":"sota","name":"Adams Peak","coordinates":[-118.63183,53.73439]},{"code":"VE6/ST-116","program":"sota","name":"Eaglerock NW1","coordinates":[-118.6243,53.5186]},{"code":"VE6/ST-123","program":"sota","name":"Persimmon SE5","coordinates":[-118.7108,53.5376]},{"code":"VE6/ST-144","program":"sota","name":"VE6/ST-144","coordinates":[-118.6462,53.5336]},{"code":"VE6/ST-161","program":"sota","name":"Bury Ridge","coordinates":[-118.5141,53.5755]},{"code":"VE6/ST-162","program":"sota","name":"Bury Ridge NW1","coordinates":[-118.5428,53.5886]},{"code":"VE6/ST-170","program":"sota","name":"Galette S1","coordinates":[-118.5761,53.6024]},{"code":"VE6/ST-174","program":"sota","name":"39-38 SW1","coordinates":[-118.6755,53.6331]},{"code":"VE6/ST-179","program":"sota","name":"Bury Ridge W1","coordinates":[-118.5479,53.5653]},{"code":"VE6/ST-180","program":"sota","name":"Berland S1","coordinates":[-118.5643,53.5754]},{"code":"VE6/ST-182","program":"sota","name":"34-37 SE1","coordinates":[-118.5593,53.5422]},{"code":"VE6/ST-191","program":"sota","name":"Delacroix SE1","coordinates":[-118.6676,53.7035]},{"code":"VE6/ST-193","program":"sota","name":"Renoir NW1","coordinates":[-118.5564,53.6615]},{"code":"VE6/ST-196","program":"sota","name":"Mount Monet E1","coordinates":[-118.7109,53.6611]}]}