{"lat":53.5,"lon":-1.5,"programs":["pota","wwbota"],"count":56,"references":[{"code":"GB-0042","program":"pota","name":"Dearne Valley - Wombwell Ings RSPB Reserve","coordinates":[-1.36872,53.5233]},{"code":"GB-0101","program":"pota","name":"Dearne Valley - Old Moor RSPB Reserve","coordinates":[-1.36477,53.5158]},{"code":"GB-0122","program":"pota","name":"Fairburn Ings RSPB Reserve","coordinates":[-1.31606,53.7445]},{"code":"GB-0223","program":"pota","name":"Dearne Valley - Gypsy Marsh RSPB Reserve","coordinates":[-1.36881,53.5171]},{"code":"GB-0331","program":"pota","name":"Dearne Valley - Bolton Ings RSPB Reserve","coordinates":[-1.35982,53.5134]},{"code":"GB-0360","program":"pota","name":"Anglers Country Park","coordinates":[-1.43381,53.6331]},{"code":"GB-0381","program":"pota","name":"Dearne Valley Country Park","coordinates":[-1.45413,53.5546]},{"code":"GB-0389","program":"pota","name":"Frickley Country Park","coordinates":[-1.28984,53.5853]},{"code":"GB-0423","program":"pota","name":"Rabbit Ings Country Park","coordinates":[-1.43192,53.5997]},{"code":"GB-0447","program":"pota","name":"Worsbrough Mill Country Park","coordinates":[-1.47351,53.5252]},{"code":"GB-1705","program":"pota","name":"Phoenix Country Park","coordinates":[-1.29797,53.5394]},{"code":"GB-1939","program":"pota","name":"Newmillerdam Country Park","coordinates":[-1.49813,53.6325]},{"code":"GB-2312","program":"pota","name":"Hemsworth Water Park","coordinates":[-1.36012,53.6235]},{"code":"GB-3137","program":"pota","name":"Pontefract Country Park & Nature Reserve","coordinates":[-1.32722,53.6979]},{"code":"GB-3445","program":"pota","name":"Walton Colliery Nature Reserve and Country Park","coordinates":[-1.45686,53.6579]},{"code":"GB-3452","program":"pota","name":"Fitzwilliam Country Park","coordinates":[-1.36307,53.6345]},{"code":"GB-3453","program":"pota","name":"Vale Head Park","coordinates":[-1.35935,53.6212]},{"code":"GB-3454","program":"pota","name":"Netherwood Country Park","coordinates":[-1.4028,53.5322]},{"code":"GB-3670","program":"pota","name":"Nostell Priory Parkland Country Park","coordinates":[-1.38797,53.6516]},{"code":"GB-3941","program":"pota","name":"Rothwell Pastures Nature Reserve","coordinates":[-1.48624,53.749]},{"code":"GB-3944","program":"pota","name":"Letchmire Pastures Local Nature Reserve","coordinates":[-1.35861,53.742]},{"code":"GB-3945","program":"pota","name":"Southern Washlands Nature Reserve","coordinates":[-1.46158,53.688]},{"code":"GB-4068","program":"pota","name":"Upton Nature Reserve and Country Park","coordinates":[-1.27844,53.6137]},{"code":"GB-4069","program":"pota","name":"West Haigh Wood Nature Reserve","coordinates":[-1.35514,53.5746]},{"code":"GB-4070","program":"pota","name":"Grimethorpe and New Park Springs Nature Reserve and Country Park","coordinates":[-1.37506,53.5633]},{"code":"GB-4071","program":"pota","name":"Carlton Marsh Nature Reserve","coordinates":[-1.42923,53.5866]},{"code":"GB-4072","program":"pota","name":"Notton Wood Nature Reserve","coordinates":[-1.48403,53.6]},{"code":"GB-4222","program":"pota","name":"Barnsley Main Nature Reserve","coordinates":[-1.45657,53.5519]},{"code":"GB-4463","program":"pota","name":"Purston Hall Country Park","coordinates":[-1.35269,53.6708]},{"code":"GB-4504","program":"pota","name":"Crofton (Coppers Lake) Park","coordinates":[-1.42924,53.6619]},{"code":"GB-4780","program":"pota","name":"Burton Bank RIGS Scenic Site","coordinates":[-1.46828,53.5659]},{"code":"GB-4781","program":"pota","name":"Monk Bretton Country Park","coordinates":[-1.45701,53.569]},{"code":"GB-4896","program":"pota","name":"Sandal Castle and Gardens Historic Site","coordinates":[-1.4904,53.6585]},{"code":"GB-4999","program":"pota","name":"Royston Park","coordinates":[-1.44753,53.5989]},{"code":"GB-5105","program":"pota","name":"Locke Country Park","coordinates":[-1.48656,53.5436]},{"code":"GB-5323","program":"pota","name":"Haw Park Wood Nature Reserve","coordinates":[-1.45037,53.6334]},{"code":"GB-5325","program":"pota","name":"Chevet Branch Line Nature Reserve","coordinates":[-1.49135,53.6234]},{"code":"GB-5360","program":"pota","name":"Stanley Marsh Nature Reserve","coordinates":[-1.47862,53.708]},{"code":"GB-5683","program":"pota","name":"Heath Common Conservation Area","coordinates":[-1.46213,53.6744]},{"code":"GB-5894","program":"pota","name":"Wombwell Wood Forest Reserve","coordinates":[-1.42735,53.5164]},{"code":"GB-5895","program":"pota","name":"Dovecliffe Woods Forest Reserve","coordinates":[-1.44075,53.5237]},{"code":"GB-6017","program":"pota","name":"Well Wood Nature Reserve","coordinates":[-1.30751,53.7352]},{"code":"GB-6063","program":"pota","name":"Barnsley Main Colliery Historic Site","coordinates":[-1.45181,53.5529]},{"code":"GB-6064","program":"pota","name":"Monk Bretton Priory Historic Site","coordinates":[-1.43781,53.5541]},{"code":"GB-6065","program":"pota","name":"Cudworth Common & Ferrymoor Flash Scenic Reserve","coordinates":[-1.3904,53.5748]},{"code":"GB-6066","program":"pota","name":"Howell Wood Country Park","coordinates":[-1.3462,53.5822]},{"code":"GB-6360","program":"pota","name":"Bolton Brickyard Ponds Scenic Reserve","coordinates":[-1.30899,53.5257]},{"code":"GB-6420","program":"pota","name":"Pontefract Castle & Grounds Historic Site","coordinates":[-1.30414,53.6954]},{"code":"GB-6421","program":"pota","name":"Friarwood Valley Gardens Park","coordinates":[-1.31175,53.6891]},{"code":"GB-6422","program":"pota","name":"Castleford Queens Park","coordinates":[-1.3366,53.7235]},{"code":"B/G-0965","program":"wwbota","name":"ROC Post Goldthorpe","coordinates":[-1.318921,53.534043]},{"code":"B/G-0968","program":"wwbota","name":"ROC Post Upton","coordinates":[-1.309408,53.627199]},{"code":"B/G-1430","program":"wwbota","name":"Rothwell Civil Defence Control","coordinates":[-1.481353,53.745557]},{"code":"B/G-2527","program":"wwbota","name":"Starfish Bombing Decoy Sf23a","coordinates":[-1.44,53.641]},{"code":"B/G-2528","program":"wwbota","name":"HAA Battery Sheffield H17","coordinates":[-1.302659,53.51611]},{"code":"B/G-2602","program":"wwbota","name":"Royston Civil Air Raid Shelter","coordinates":[-1.452944,53.600616]}]}