{"lat":53.5,"lon":-0.5,"programs":["pota","wwbota"],"count":41,"references":[{"code":"GB-0504","program":"pota","name":"Water's Edge Country Park","coordinates":[-0.442066,53.6965]},{"code":"GB-0506","program":"pota","name":"Humber Bridge Country Park","coordinates":[-0.453595,53.719]},{"code":"GB-0707","program":"pota","name":"Yorkshire Wolds Way National Scenic Trail","coordinates":[-0.445723,53.7262]},{"code":"GB-1886","program":"pota","name":"Pickering Park","coordinates":[-0.398662,53.7319]},{"code":"GB-2618","program":"pota","name":"Far Ings National Nature Reserve","coordinates":[-0.465517,53.6961]},{"code":"GB-2967","program":"pota","name":"Baysgarth Park","coordinates":[-0.439729,53.6791]},{"code":"GB-3702","program":"pota","name":"Elsham Gardens & Country Park","coordinates":[-0.447172,53.5926]},{"code":"GB-3876","program":"pota","name":"Woodbine Park","coordinates":[-0.486284,53.5588]},{"code":"B/G-0492","program":"wwbota","name":"ROC Post Barton-upon-Humber","coordinates":[-0.442783,53.668863]},{"code":"B/G-0494","program":"wwbota","name":"ROC Wootton","coordinates":[-0.374951,53.622116]},{"code":"B/G-1214","program":"wwbota","name":"Airfield Battle HQ - Caistor","coordinates":[-0.361661,53.500578]},{"code":"B/G-1252","program":"wwbota","name":"Airfield Battle HQ - Goxhill","coordinates":[-0.324328,53.670949]},{"code":"B/G-1280","program":"wwbota","name":"Airfield Battle HQ - Kirmington","coordinates":[-0.348444,53.572941]},{"code":"B/G-2393","program":"wwbota","name":"RAF Elsham Wolds Bomb Stores","coordinates":[-0.41743755,53.6159319]},{"code":"B/G-2394","program":"wwbota","name":"RAF Elsham Wolds Defensive Cluster","coordinates":[-0.417395,53.607872]},{"code":"B/G-2395","program":"wwbota","name":"RAF Elsham Wolds LAA Site","coordinates":[-0.412043,53.604339]},{"code":"B/G-2396","program":"wwbota","name":"RAF Elsham Wold Communal Site Defensive Cluster","coordinates":[-0.409744,53.599238]},{"code":"B/G-2474","program":"wwbota","name":"RAF Caistor Thor Missile Control Bunker","coordinates":[-0.36689401,53.50729397]},{"code":"B/G-2487","program":"wwbota","name":"RAF Goxhill Airfield Defence Post","coordinates":[-0.318023,53.68496]},{"code":"B/G-2499","program":"wwbota","name":"RAF Goxhill WW2 Bomb Stores","coordinates":[-0.30952692,53.68494708]},{"code":"B/G-2565","program":"wwbota","name":"Barrow Haven HAA Site H27","coordinates":[-0.401817,53.694394]},{"code":"B/G-2576","program":"wwbota","name":"Goxhill HAA Site E / H25","coordinates":[-0.296922,53.707328]},{"code":"B/G-2586","program":"wwbota","name":"New Holland Public Air Raid Shelter Cluster #1","coordinates":[-0.3601563,53.70031432]},{"code":"B/G-2587","program":"wwbota","name":"New Holland Public Air Raid Shelter Cluster #2","coordinates":[-0.36279291,53.69559961]},{"code":"B/G-2588","program":"wwbota","name":"New Holland Public Air Raid Shelter Cluster #3","coordinates":[-0.36154568,53.6941735]},{"code":"B/G-2595","program":"wwbota","name":"RAF Killingholme Bomb Stores","coordinates":[-0.30268192,53.63769217]},{"code":"B/G-2696","program":"wwbota","name":"Auxiliary Unit Operational Base: Saxby all Saints","coordinates":[-0.496638,53.634907]},{"code":"B/G-2697","program":"wwbota","name":"Auxiliary Unit Operational Base: Elsham","coordinates":[-0.441599,53.60443]},{"code":"B/G-2698","program":"wwbota","name":"Auxiliary Unit Operational Base: Worlaby","coordinates":[-0.466769,53.612661]},{"code":"B/G-2699","program":"wwbota","name":"Auxiliary Unit Operational Base: Great Limber","coordinates":[-0.335232,53.547173]},{"code":"B/G-2701","program":"wwbota","name":"Barton-upon-Humber Civil Air Raid Shelter","coordinates":[-0.444898,53.685435]},{"code":"B/G-2703","program":"wwbota","name":"Auxiliary Unit Operational Base: Great Limber South","coordinates":[-0.278435,53.531868]},{"code":"B/G-2704","program":"wwbota","name":"Auxiliary Unit Operational Base: Caistor Alternative","coordinates":[-0.309076,53.524037]},{"code":"B/G-2705","program":"wwbota","name":"Auxiliary Unit Operational Base: Fonaby Top","coordinates":[-0.298905,53.516279]},{"code":"B/G-2707","program":"wwbota","name":"Auxiliary Unit Operational Base","coordinates":[-0.477347,53.670531]},{"code":"B/G-2708","program":"wwbota","name":"RAF Goxhill Dispersed Site #4","coordinates":[-0.332744,53.663231]},{"code":"B/G-2710","program":"wwbota","name":"RAF Goxhill QF bombing decoy shelter","coordinates":[-0.280967,53.69031]},{"code":"B/G-2711","program":"wwbota","name":"Stanton Shelter, Kirmington","coordinates":[-0.319725,53.586688]},{"code":"B/G-2712","program":"wwbota","name":"RAF Kirmington Dispersed site NO.1","coordinates":[-0.316533,53.582194]},{"code":"B/G-2713","program":"wwbota","name":"Stanton Shelter, Kirmington","coordinates":[-0.322841,53.582138]},{"code":"B/G-2714","program":"wwbota","name":"RAF Kirmington Dispersed site NO.5","coordinates":[-0.31487,53.585681]}]}