{"lat":53.5,"lon":19.5,"programs":["pota"],"count":8,"references":[{"code":"PL-1104","program":"pota","name":"Pojezierza Iławskiego Landscape Park","coordinates":[19.5284,53.7398]},{"code":"PL-2653","program":"pota","name":"Ostoja Iławska Natura 2000","coordinates":[19.5795,53.7061]},{"code":"PL-1022","program":"pota","name":"Jezioro Ilgi Nature Reserve","coordinates":[19.7314,53.6953]},{"code":"PL-1063","program":"pota","name":"Dolina Dolnej Drwęcy Protected Landscape Area","coordinates":[19.5988,53.5059]},{"code":"PL-1098","program":"pota","name":"Jasne Nature Reserve","coordinates":[19.5519,53.7439]},{"code":"PL-1103","program":"pota","name":"Lasy Iławskie Natura 2000","coordinates":[19.5322,53.7492]},{"code":"PL-1114","program":"pota","name":"Czerwica Nature Reserve","coordinates":[19.5106,53.7297]},{"code":"PL-1995","program":"pota","name":"Ostoja Radomno Natura 2000","coordinates":[19.5731,53.5408]}]}