{"lat":53.5,"lon":-119.5,"programs":["sota"],"count":21,"references":[{"code":"VE6/ST-016","program":"sota","name":"Salvation Peak","coordinates":[-119.33135,53.50237]},{"code":"VE6/ST-022","program":"sota","name":"Reunion Peak","coordinates":[-119.37615,53.52873]},{"code":"VE6/ST-028","program":"sota","name":"Apostle Peak","coordinates":[-119.43816,53.553185]},{"code":"VE6/ST-046","program":"sota","name":"Childear Mountain","coordinates":[-119.28801,53.66224]},{"code":"VE6/ST-050","program":"sota","name":"Childear NW1","coordinates":[-119.30127,53.671215]},{"code":"VE6/ST-054","program":"sota","name":"Buckaroo Peak","coordinates":[-119.32058,53.67472]},{"code":"VE6/ST-061","program":"sota","name":"Griper Peak","coordinates":[-119.31736,53.727135]},{"code":"VE6/ST-068","program":"sota","name":"Wrangler Peak","coordinates":[-119.2544,53.701687]},{"code":"VE6/ST-077","program":"sota","name":"Charro Peak","coordinates":[-119.2777,53.641357]},{"code":"VE6/ST-078","program":"sota","name":"Childear NE1","coordinates":[-119.27691,53.669483]},{"code":"VE6/ST-080","program":"sota","name":"Childear S3","coordinates":[-119.27103,53.63391]},{"code":"VE6/ST-082","program":"sota","name":"Hecla Peak","coordinates":[-119.35062,53.73447]},{"code":"VE6/ST-126","program":"sota","name":"Apostle SW1","coordinates":[-119.4743,53.5376]},{"code":"VE6/ST-130","program":"sota","name":"Reunion N1","coordinates":[-119.3562,53.5587]},{"code":"VE6/ST-148","program":"sota","name":"Reunion SW1","coordinates":[-119.3865,53.513]},{"code":"VE6/ST-150","program":"sota","name":"Apostle NW1","coordinates":[-119.4549,53.5786]},{"code":"VE6/ST-152","program":"sota","name":"Apostle N1","coordinates":[-119.4098,53.5922]},{"code":"VE6/ST-156","program":"sota","name":"VE6/ST-156","coordinates":[-119.4011,53.6068]},{"code":"VE6/ST-163","program":"sota","name":"Apostle NE1","coordinates":[-119.403,53.5687]},{"code":"VE6/ST-228","program":"sota","name":"Jackpine Hill","coordinates":[-119.466,53.6484]},{"code":"VE6/ST-253","program":"sota","name":"Beechey NE5","coordinates":[-119.4448,53.7131]}]}