{"lat":53.5,"lon":10,"programs":["pota","wwbota"],"count":16,"references":[{"code":"DE-0136","program":"pota","name":"Hamburg Stadtpark Park","coordinates":[10.019,53.5964]},{"code":"DE-0137","program":"pota","name":"Oejendorfer Park Provincial Recreation Area","coordinates":[10.1486,53.5585]},{"code":"DE-0251","program":"pota","name":"Boberger Niederung Nature Reserve","coordinates":[10.1412,53.5145]},{"code":"DE-0253","program":"pota","name":"Teetzpark Recreation Park","coordinates":[10.0398,53.6333]},{"code":"DE-0254","program":"pota","name":"Eichtalpark Recreation Park","coordinates":[10.0896,53.5791]},{"code":"DE-0260","program":"pota","name":"Jacobipark Historic Site","coordinates":[10.054,53.5669]},{"code":"DE-0261","program":"pota","name":"Thörls Park Historic Site","coordinates":[10.0449,53.5563]},{"code":"DE-0262","program":"pota","name":"Hammer Park Recreation Park","coordinates":[10.0577,53.5588]},{"code":"DE-0392","program":"pota","name":"Horner Rennbahn Recreation Park","coordinates":[10.0862,53.5585]},{"code":"DE-0537","program":"pota","name":"Höltigbaum Nature Park","coordinates":[10.1754,53.6157]},{"code":"DE-0719","program":"pota","name":"Duvenstedter Brook National Nature Reserve","coordinates":[10.1601,53.7189]},{"code":"DE-0806","program":"pota","name":"Elbpark Entenwerder State Recreation Area","coordinates":[10.0361,53.5313]},{"code":"DE-0787","program":"pota","name":"Stadtpark Norderstedt Recreation Park","coordinates":[10.0177,53.7153]},{"code":"DE-1022","program":"pota","name":"Ammersbek-Niederung Nature Reserve","coordinates":[10.1832,53.698]},{"code":"B/DL-0374","program":"wwbota","name":"Tiefbunker Hammer Landstraße / Sievekingdamm","coordinates":[10.04308,53.55568]},{"code":"B/DL-0887","program":"wwbota","name":"Zombeck Turm Hasselbrook","coordinates":[10.056813,53.56555]}]}