{"lat":53.5,"lon":8.5,"programs":["pota","wwbota"],"count":5,"references":[{"code":"DE-0141","program":"pota","name":"Stadtpark Speckenbuettel Recreation Park","coordinates":[8.58359,53.5887]},{"code":"DE-0143","program":"pota","name":"Bürgerpark Bremerhaven Recreation Park","coordinates":[8.60491,53.5408]},{"code":"B/DL-0208","program":"wwbota","name":"T-750 Bremerhaven I","coordinates":[8.588964,53.557925]},{"code":"B/DL-0209","program":"wwbota","name":"T1100 Bremerhaven","coordinates":[8.585361,53.546461]},{"code":"B/DL-0329","program":"wwbota","name":"GSVBw 22","coordinates":[8.746423,53.615722]}]}