{"lat":53.5,"lon":-2,"programs":["gma","pota","sota","wwbota"],"count":66,"references":[{"code":"G/SP-002","program":"gma","name":"Black Hill","coordinates":[-1.88380003,53.53889847]},{"code":"GB-0060","program":"pota","name":"Dove Stone RSPB Reserve","coordinates":[-1.97708,53.5295]},{"code":"GB-1844","program":"pota","name":"Upper Park Wood Nature Reserve","coordinates":[-1.77953,53.6134]},{"code":"GB-2028","program":"pota","name":"Shibden Country Park and Cunnery Wood National Heritage Site","coordinates":[-1.84624,53.7235]},{"code":"GB-2422","program":"pota","name":"Norland Moor Nature Reserve","coordinates":[-1.90981,53.6933]},{"code":"GB-2423","program":"pota","name":"Cromwell Bottom Nature Reserve","coordinates":[-1.81135,53.6955]},{"code":"GB-2431","program":"pota","name":"Wooldale Park","coordinates":[-1.77007,53.5766]},{"code":"GB-2507","program":"pota","name":"Scammonden Reservoir Reserve","coordinates":[-1.92588,53.6423]},{"code":"GB-2600","program":"pota","name":"Longley Park & Woods Nature Reserve","coordinates":[-1.77031,53.6369]},{"code":"GB-2602","program":"pota","name":"Winscar Reservoir Reserve","coordinates":[-1.76749,53.5245]},{"code":"GB-2743","program":"pota","name":"Diggle Fields and Park","coordinates":[-1.99785,53.5657]},{"code":"GB-2891","program":"pota","name":"Baitings Reservoir Reserve","coordinates":[-1.99154,53.6672]},{"code":"GB-2892","program":"pota","name":"Ryburn Reservoir Reserve","coordinates":[-1.96573,53.6652]},{"code":"GB-3375","program":"pota","name":"Greenhead Park","coordinates":[-1.79822,53.6491]},{"code":"GB-3376","program":"pota","name":"Long Wood and Scarr Wood Nature Reserve","coordinates":[-1.8759,53.7045]},{"code":"GB-3377","program":"pota","name":"Shroggs Park","coordinates":[-1.87454,53.7322]},{"code":"GB-3385","program":"pota","name":"Shibden Park","coordinates":[-1.83881,53.7294]},{"code":"GB-3558","program":"pota","name":"Jerusalem Farm Local Nature Reserve","coordinates":[-1.94584,53.7467]},{"code":"GB-3669","program":"pota","name":"Milner Royd Local Nature Reserve","coordinates":[-1.89415,53.7088]},{"code":"GB-3937","program":"pota","name":"Low Moor Banks Nature Reserve","coordinates":[-1.7537,53.7467]},{"code":"GB-3946","program":"pota","name":"Wellholme and Woodland Park","coordinates":[-1.77677,53.7057]},{"code":"GB-4104","program":"pota","name":"Robert Ashton Memorial Park","coordinates":[-1.83925,53.5937]},{"code":"GB-4126","program":"pota","name":"Crow Wood Country Park","coordinates":[-1.89822,53.7138]},{"code":"GB-4127","program":"pota","name":"Shaw Park","coordinates":[-1.86724,53.6725]},{"code":"GB-4342","program":"pota","name":"Blackmoorfoot Reservoir Reserve","coordinates":[-1.85252,53.6134]},{"code":"GB-4343","program":"pota","name":"Beaumont Park and Nature Reserve","coordinates":[-1.81061,53.623]},{"code":"GB-4411","program":"pota","name":"Marsden and Buckstones Edge Scenic View & Nature Reserve","coordinates":[-1.97412,53.6192]},{"code":"GB-4596","program":"pota","name":"Gledholt Wood Local Nature Reserve","coordinates":[-1.80095,53.646]},{"code":"GB-4597","program":"pota","name":"Stirley Nature Reserve","coordinates":[-1.78161,53.6182]},{"code":"GB-4986","program":"pota","name":"Castle Hill & Victoria Tower Nature Reserve","coordinates":[-1.77081,53.6229]},{"code":"GB-5279","program":"pota","name":"Booth Wood Reservoir Scenic Reserve","coordinates":[-1.95649,53.6449]},{"code":"GB-5421","program":"pota","name":"Digley Reservoir Scenic Site","coordinates":[-1.83961,53.5589]},{"code":"GB-5562","program":"pota","name":"Butterley Reservoir Scenic Site","coordinates":[-1.93161,53.5904]},{"code":"GB-5598","program":"pota","name":"Savile Park","coordinates":[-1.87262,53.7104]},{"code":"GB-5873","program":"pota","name":"Brockholes Wood Nature Reserve","coordinates":[-1.89625,53.5105]},{"code":"GB-6004","program":"pota","name":"Wolfstones Heights Hillside Reserve","coordinates":[-1.81311,53.5782]},{"code":"GB-6010","program":"pota","name":"Brownhill Reservoir Scenic Site","coordinates":[-1.82947,53.5513]},{"code":"GB-6011","program":"pota","name":"Ramsden Reservoir Scenic Site","coordinates":[-1.82866,53.5459]},{"code":"GB-6012","program":"pota","name":"Riding Wood Reservoir Scenic Reserve","coordinates":[-1.82645,53.5424]},{"code":"GB-6013","program":"pota","name":"Yateholme Reservoir Scenic Site","coordinates":[-1.83438,53.5378]},{"code":"GB-6044","program":"pota","name":"Holme Moss Summit & Black Hill Moorland Reserve","coordinates":[-1.8546,53.5315]},{"code":"GB-6058","program":"pota","name":"Hullen Edge Memorial Park","coordinates":[-1.84594,53.6841]},{"code":"GB-6059","program":"pota","name":"Slaithwaite Reservoir Reserve","coordinates":[-1.88805,53.6231]},{"code":"GB-6060","program":"pota","name":"Deer Hill Reservoir Reserve","coordinates":[-1.897,53.6021]},{"code":"GB-6061","program":"pota","name":"Sparth Reservoir & Cellars Clough Reserve","coordinates":[-1.91839,53.6087]},{"code":"GB-6375","program":"pota","name":"Pots & Pans (Alderman's) Obelisk Monument Hillside & Historic Site","coordinates":[-1.98598,53.5429]},{"code":"GB-6443","program":"pota","name":"Churn Milk Joan Hillside & Historic Site","coordinates":[-1.97125,53.7456]},{"code":"GB-6515","program":"pota","name":"Standedge Road Cutting Site of Significant Scientific Interest","coordinates":[-1.97198,53.5824]},{"code":"GB-6516","program":"pota","name":"Brun Clough Reservoir Scenic Site","coordinates":[-1.97403,53.5815]},{"code":"GB-6517","program":"pota","name":"Standedge Tunnel Historic Site","coordinates":[-1.9409,53.6043]},{"code":"GB-6518","program":"pota","name":"Redbrook Reservoir Scenic Reserve","coordinates":[-1.96363,53.5852]},{"code":"GB-6578","program":"pota","name":"The Meltham Way National Scenic Trail","coordinates":[-1.86962,53.5996]},{"code":"GB-6579","program":"pota","name":"Honley Woods Woodland Reserve","coordinates":[-1.81869,53.6038]},{"code":"G/SP-002","program":"sota","name":"Black Hill","coordinates":[-1.883446,53.53954]},{"code":"B/G-0940","program":"wwbota","name":"ROC Post Sowerby Bridge","coordinates":[-1.916381,53.686056]},{"code":"B/G-0944","program":"wwbota","name":"ROC Post Crossland Moor","coordinates":[-1.84122,53.621175]},{"code":"B/G-0947","program":"wwbota","name":"ROC Post Holmfirth","coordinates":[-1.765199,53.535032]},{"code":"B/G-1390","program":"wwbota","name":"Brighouse West Yorkshire Sub County Control","coordinates":[-1.7868346,53.704238]},{"code":"B/G-1416","program":"wwbota","name":"Halifax County Borough Control","coordinates":[-1.8603285,53.718213]},{"code":"B/G-1420","program":"wwbota","name":"Huddersfield Civil Defence Control Centre","coordinates":[-1.7850541,53.642135]},{"code":"B/G-2171","program":"wwbota","name":"Wyke WW2 Civilian Air Raid Shelter","coordinates":[-1.767104,53.741048]},{"code":"B/G-2224","program":"wwbota","name":"Castle Hill HAA, Command Bunker","coordinates":[-1.775592,53.614692]},{"code":"B/G-2413","program":"wwbota","name":"Heavy Anti Aircraft Battery Leeds H31","coordinates":[-1.824448,53.5734]},{"code":"B/G-2529","program":"wwbota","name":"Lees A635 Pillbox","coordinates":[-1.974426,53.538798]},{"code":"B/G-2541","program":"wwbota","name":"Slaithwaite Bombing Decoy","coordinates":[-1.938,53.618]},{"code":"B/G-2644","program":"wwbota","name":"Bombing decoy bunker, Cragg Vale","coordinates":[-1.988791,53.688885]}]}