{"lat":53.5,"lon":-10,"programs":["pota","sota","wwbota"],"count":15,"references":[{"code":"IE-0004","program":"pota","name":"Connemara National Park","coordinates":[-9.94551,53.5506]},{"code":"EI/IW-001","program":"sota","name":"Mweelrea","coordinates":[-9.8303,53.6372]},{"code":"EI/IW-003","program":"sota","name":"Ben Lugmore","coordinates":[-9.7975,53.642876]},{"code":"EI/IW-006","program":"sota","name":"Binn Bhan","coordinates":[-9.831761,53.52124]},{"code":"EI/IW-009","program":"sota","name":"Binn Chorr","coordinates":[-9.792807,53.50654]},{"code":"EI/IW-013","program":"sota","name":"Binn Dubh","coordinates":[-9.814165,53.51251]},{"code":"EI/IW-021","program":"sota","name":"Muckanaght","coordinates":[-9.859794,53.52169]},{"code":"EI/IW-023","program":"sota","name":"An Chailleach","coordinates":[-9.877758,53.518715]},{"code":"EI/IW-026","program":"sota","name":"Garraun","coordinates":[-9.862068,53.58478]},{"code":"EI/IW-030","program":"sota","name":"Benbrack","coordinates":[-9.863518,53.537807]},{"code":"EI/IW-034","program":"sota","name":"Doughruagh","coordinates":[-9.887568,53.569782]},{"code":"EI/IW-039","program":"sota","name":"Binn Ghuaire","coordinates":[-9.915256,53.547775]},{"code":"EI/IW-052","program":"sota","name":"Teenvnabinnia","coordinates":[-9.776189,53.61372]},{"code":"EI/IW-065","program":"sota","name":"Binn Mhor","coordinates":[-9.820683,53.59418]},{"code":"B/EI-0056","program":"wwbota","name":"Rossroe Lookout Post (LOP 56)","coordinates":[-9.86617,53.62239]}]}