{"lat":53.75,"lon":17.25,"programs":["pota"],"count":5,"references":[{"code":"PL-1596","program":"pota","name":"Ostrów Trzebielski Nature Reserve","coordinates":[17.3747,53.9928]},{"code":"PL-1604","program":"pota","name":"Ostoja Borzyszkowska Natura 2000","coordinates":[17.315,53.9936]},{"code":"PL-2793","program":"pota","name":"Czerwona Woda pod Babilonem Natura 2000","coordinates":[17.4071,53.7892]},{"code":"PL-2813","program":"pota","name":"Okolice Jezior Krępsko i Szczytno Protected Landscape Area","coordinates":[17.2539,53.7709]},{"code":"PL-2815","program":"pota","name":"Fragment Borów Tucholskich Protected Landscape Area","coordinates":[17.3477,53.9158]}]}