{"lat":53.75,"lon":10.75,"programs":["pota","wwbota"],"count":6,"references":[{"code":"DE-0426","program":"pota","name":"Palingener Heide und Halbinsel Teschow Provincial Park Reserve","coordinates":[10.8283,53.8806]},{"code":"DE-0842","program":"pota","name":"Ostseeküsten-Route EV10 State Trail","coordinates":[10.9036,53.9548]},{"code":"DE-0239","program":"pota","name":"Dummersdorfer Ufer Natura 2000","coordinates":[10.8602,53.9199]},{"code":"DE-0617","program":"pota","name":"Südlicher Priwall National Nature Reserve","coordinates":[10.8736,53.9466]},{"code":"B/DL-0489","program":"wwbota","name":"Deckungsgraben Schutup","coordinates":[10.796469,53.889145]},{"code":"B/DL-0490","program":"wwbota","name":"Hochbunker Schlutup","coordinates":[10.791789,53.889322]}]}