{"lat":53.75,"lon":14,"programs":["gma","pota","wwbota"],"count":6,"references":[{"code":"DA/IS-014","program":"gma","name":"Golm, Usedom","coordinates":[14.19961,53.88659]},{"code":"DE-0105","program":"pota","name":"Insel Usedom Nature Park","coordinates":[14.0962,53.93]},{"code":"B/DL-0160","program":"wwbota","name":"Übertragungsstelle Seekabel GSSD","coordinates":[14.199311,53.927867]},{"code":"B/DL-0406","program":"wwbota","name":"FuTK-331 (Kabina)","coordinates":[14.054845,53.947078]},{"code":"B/DL-0407","program":"wwbota","name":"FuTK-331 GS","coordinates":[14.048326,53.956409]},{"code":"B/DL-0408","program":"wwbota","name":"FuTK-331 Nachrichten","coordinates":[14.041495,53.952112]}]}