{"lat":53.75,"lon":20.25,"programs":["pota"],"count":7,"references":[{"code":"PL-0800","program":"pota","name":"Kwiecewo Nature Reserve","coordinates":[20.3076,53.9356]},{"code":"PL-0823","program":"pota","name":"Redykajny Nature Reserve","coordinates":[20.4522,53.7976]},{"code":"PL-0866","program":"pota","name":"Kamienna Góra Nature Reserve","coordinates":[20.2823,53.8487]},{"code":"PL-2257","program":"pota","name":"Warmińskie Buczyny Natura 2000","coordinates":[20.39,53.8889]},{"code":"PL-2554","program":"pota","name":"Jezioro Limajno i okolice Nature and Landscape Complex","coordinates":[20.3925,53.9278]},{"code":"PL-2576","program":"pota","name":"Jonkowo-Warkały Natura 2000","coordinates":[20.32,53.8119]},{"code":"PL-2584","program":"pota","name":"Mszar Nature Reserve","coordinates":[20.465,53.7897]}]}