{"lat":53.75,"lon":-119.25,"programs":["pota","sota"],"count":11,"references":[{"code":"CA-3139","program":"pota","name":"Sulphur Gates Provincial Recreation Area","coordinates":[-119.186,53.8528]},{"code":"VE6/BC-005","program":"sota","name":"Mount Hamell","coordinates":[-119.20842,53.97299]},{"code":"VE6/BC-040","program":"sota","name":"Mount Stearn","coordinates":[-119.22685,53.852173]},{"code":"VE6/BC-104","program":"sota","name":"Grande Mountain","coordinates":[-119.1107,53.9322]},{"code":"VE6/BC-110","program":"sota","name":"Flood Mountain","coordinates":[-119.0382,53.9645]},{"code":"VE6/BC-111","program":"sota","name":"Flood NW3","coordinates":[-119.0741,53.9789]},{"code":"VE6/ST-069","program":"sota","name":"Mount McQueen","coordinates":[-119.16561,53.75697]},{"code":"VE6/ST-070","program":"sota","name":"Mount Russell","coordinates":[-119.074265,53.761955]},{"code":"VE6/ST-083","program":"sota","name":"Mount Braithwaite","coordinates":[-119.22799,53.768867]},{"code":"VE6/ST-084","program":"sota","name":"Mount Mawdsley","coordinates":[-119.12858,53.79634]},{"code":"VE6/ST-085","program":"sota","name":"Knife Mountain","coordinates":[-119.133766,53.773624]}]}