{"lat":53.75,"lon":21.5,"programs":["pota"],"count":5,"references":[{"code":"PL-0437","program":"pota","name":"Stary Czapliniec Nature Reserve","coordinates":[21.6749,53.7992]},{"code":"PL-0445","program":"pota","name":"Jezioro Łuknajno Nature Reserve","coordinates":[21.6251,53.8141]},{"code":"PL-0488","program":"pota","name":"Jezioro Lisunie Nature Reserve","coordinates":[21.5051,53.7839]},{"code":"PL-0493","program":"pota","name":"Ptasia Wyspa Nature Reserve","coordinates":[21.5081,53.9206]},{"code":"PL-2389","program":"pota","name":"Kłos Protected Landscape Area","coordinates":[21.6608,53.9508]}]}