{"lat":53.75,"lon":-106.25,"programs":["pota","wwbota"],"count":9,"references":[{"code":"CA-0075","program":"pota","name":"Prince Albert National Park","coordinates":[-106.083,53.9228]},{"code":"CA-2900","program":"pota","name":"Waskesiu River Resource Management Area","coordinates":[-106.072,53.9638]},{"code":"CA-6130","program":"pota","name":"Mud Creek Trail National Recreation Trail","coordinates":[-106.157,53.8997]},{"code":"CA-6140","program":"pota","name":"Shady Lake Trail National Recreation Trail","coordinates":[-106.105,53.8713]},{"code":"CA-6141","program":"pota","name":"Height-of-Land Lookout Tower National Recreation Trail","coordinates":[-106.097,53.8668]},{"code":"CA-6151","program":"pota","name":"Boundary Bog Trail National Geologic Trail","coordinates":[-106.021,53.9095]},{"code":"CA-6152","program":"pota","name":"Red Deer Trail National Recreation Trail","coordinates":[-106.082,53.9228]},{"code":"CA-6153","program":"pota","name":"Fisher Trail National Recreation Trail","coordinates":[-106.071,53.9205]},{"code":"B/CA-1702","program":"wwbota","name":"FRP PJ2","coordinates":[-106.083984,53.923752]}]}