{"lat":54,"lon":-2,"programs":["gma","pota","sota","wwbota"],"count":18,"references":[{"code":"G/HNP-023","program":"gma","name":"Simon's Seat","coordinates":[-1.88091516,54.034126]},{"code":"G/NP-008","program":"gma","name":"Great Whernside","coordinates":[-2,54.16090012]},{"code":"GB-1630","program":"pota","name":"West Nidderdale, Barden and Blubberhouses Site of Significant Scientific Interest","coordinates":[-1.95026,54.0122]},{"code":"GB-3262","program":"pota","name":"Pateley Bridge Recreation Park","coordinates":[-1.76372,54.0853]},{"code":"GB-3263","program":"pota","name":"Gouthwaite Reservoir Nature Reserve","coordinates":[-1.79896,54.1129]},{"code":"GB-4114","program":"pota","name":"Stump Cross Caves Site of Significant Scientific Interest","coordinates":[-1.86531,54.0674]},{"code":"GB-4742","program":"pota","name":"Thruscross Reservoir Reserve","coordinates":[-1.76573,54.0132]},{"code":"GB-4745","program":"pota","name":"Six Dales National Scenic Trail","coordinates":[-1.79991,54.1198]},{"code":"GB-4787","program":"pota","name":"Grassington Hospital Grounds Nature Reserve and Site of Significant Scientific Interest","coordinates":[-1.9769,54.0659]},{"code":"GB-5052","program":"pota","name":"Linton Falls Scenic Site","coordinates":[-1.99966,54.0661]},{"code":"GB-6586","program":"pota","name":"Leighton Reservoir Scenic Reserve","coordinates":[-1.76114,54.2016]},{"code":"GB-6587","program":"pota","name":"Roundhill Reservoir Scenic Reserve","coordinates":[-1.7684,54.1925]},{"code":"GB-6588","program":"pota","name":"Scar House Reservoir Scenic Reserve","coordinates":[-1.91487,54.1883]},{"code":"GB-6589","program":"pota","name":"Angram Reservoir Scenic Reserve","coordinates":[-1.93675,54.1803]},{"code":"GB-6590","program":"pota","name":"Grimwith Reservoir Scenic Reserve","coordinates":[-1.91611,54.075]},{"code":"G/NP-008","program":"sota","name":"Great Whernside","coordinates":[-1.998358,54.161022]},{"code":"B/G-0942","program":"wwbota","name":"ROC Post Middlesmoor","coordinates":[-1.870519,54.173781]},{"code":"B/G-0946","program":"wwbota","name":"ROC Post Greenhow Hill","coordinates":[-1.81201,54.069988]}]}