{"lat":54,"lon":-3.25,"programs":["gma","pota","sota","wwbota"],"count":21,"references":[{"code":"G/LD-049","program":"gma","name":"Kirkby Moor","coordinates":[-3.13709998,54.24629974]},{"code":"GB-1510","program":"pota","name":"Sandscale Haws Nature Reserve","coordinates":[-3.2445,54.162]},{"code":"GB-1716","program":"pota","name":"Bardsea Country Park","coordinates":[-3.06645,54.1614]},{"code":"GB-2387","program":"pota","name":"South Walney & Piel Channel Flats Site of Significant Scientific Interest","coordinates":[-3.19475,54.0449]},{"code":"GB-2412","program":"pota","name":"Canal Foot Green Reserve","coordinates":[-3.05396,54.1904]},{"code":"GB-3116","program":"pota","name":"Roudsea Wood and Mosses National Nature Reserve","coordinates":[-3.00265,54.2185]},{"code":"GB-3583","program":"pota","name":"Barrow Park","coordinates":[-3.21906,54.118]},{"code":"GB-4751","program":"pota","name":"Founley Island Nature Reserve","coordinates":[-3.15609,54.0696]},{"code":"GB-5163","program":"pota","name":"Piel Island Scenic Site","coordinates":[-3.17399,54.0641]},{"code":"GB-6395","program":"pota","name":"Ford Park","coordinates":[-3.08716,54.1992]},{"code":"GB-6396","program":"pota","name":"Next Ness Linear Nature Reserve","coordinates":[-3.0731,54.1989]},{"code":"G/LD-049","program":"sota","name":"Kirkby Moor","coordinates":[-3.137264,54.24558]},{"code":"B/G-1055","program":"wwbota","name":"AAOR Abbottswood","coordinates":[-3.195428,54.139692]},{"code":"B/G-1534","program":"wwbota","name":"Barrow-in-Furness WW2 Underground Air-Raid Shelter","coordinates":[-3.231472,54.101261]},{"code":"B/G-1636","program":"wwbota","name":"Barrow Docks Defences (3) Cluster","coordinates":[-3.2308533,54.098529]},{"code":"B/G-1637","program":"wwbota","name":"Barrow Docks Defences (1) Cluster","coordinates":[-3.2288442,54.095745]},{"code":"B/G-1638","program":"wwbota","name":"Barrow Docks Defences, (2) Cluster","coordinates":[-3.2216888,54.10202]},{"code":"B/G-1639","program":"wwbota","name":"Barrow Docks Defences,(4) Cluster","coordinates":[-3.2329238,54.100791]},{"code":"B/G-1645","program":"wwbota","name":"Scarth Bite, Cumbria Coastal Defences","coordinates":[-3.2373998,54.156076]},{"code":"B/G-2290","program":"wwbota","name":"Walney Island, Coastal Battery Bunkers","coordinates":[-3.177314,54.048008]},{"code":"B/G-2291","program":"wwbota","name":"Roa Island,Coastal Battery Command Bunker","coordinates":[-3.175248,54.073746]}]}