{"lat":54,"lon":-6.5,"programs":["pota","sota","wwbota"],"count":8,"references":[{"code":"GB-0803","program":"pota","name":"Slieve Gullion Area of Outstanding Natural Beauty","coordinates":[-6.4032,54.1105]},{"code":"EI/IE-021","program":"sota","name":"Clermont Carn","coordinates":[-6.321562,54.07925]},{"code":"EI/IE-056","program":"sota","name":"Slievenaglogh","coordinates":[-6.263099,54.016838]},{"code":"GI/CA-001","program":"sota","name":"Slieve Gullion","coordinates":[-6.43344,54.121857]},{"code":"GI/CA-002","program":"sota","name":"Camlough Mountain","coordinates":[-6.394661,54.16602]},{"code":"GI/CA-004","program":"sota","name":"Croslieve","coordinates":[-6.469543,54.08703]},{"code":"GI/CA-005","program":"sota","name":"Tievecrom","coordinates":[-6.437836,54.07674]},{"code":"B/GI-0017","program":"wwbota","name":"ROC Post Jerretts Pass","coordinates":[-6.355227,54.227711]}]}