{"lat":54,"lon":-1.25,"programs":["gma","pota","wwbota"],"count":14,"references":[{"code":"G/HTW-010","program":"gma","name":"Yearsley Cross","coordinates":[-1.10099006,54.16205978]},{"code":"GB-0272","program":"pota","name":"Duncombe Park National Nature Reserve","coordinates":[-1.07105,54.2396]},{"code":"GB-1943","program":"pota","name":"Strensall Common Site of Significant Scientific Interest","coordinates":[-1.00368,54.0466]},{"code":"GB-2397","program":"pota","name":"Millfields Park","coordinates":[-1.19001,54.1268]},{"code":"GB-3240","program":"pota","name":"Sutton Bank National Park Reserve","coordinates":[-1.21057,54.2404]},{"code":"GB-4598","program":"pota","name":"Garbutt Wood Nature Reserve","coordinates":[-1.22363,54.2444]},{"code":"GB-6439","program":"pota","name":"Moorlands Nature Reserve","coordinates":[-1.12023,54.0234]},{"code":"B/G-0970","program":"wwbota","name":"ROC Post Tollerton","coordinates":[-1.212034,54.06423]},{"code":"B/G-0973","program":"wwbota","name":"ROC Post Brandsby","coordinates":[-1.124547,54.141101]},{"code":"B/G-0975","program":"wwbota","name":"ROC Post Helmsley","coordinates":[-1.120795,54.2243]},{"code":"B/G-0979","program":"wwbota","name":"ROC Post Strensall","coordinates":[-1.029108,54.032874]},{"code":"B/G-1132","program":"wwbota","name":"1960s SRHQ North - Region 1 (Shipton)","coordinates":[-1.173673,54.049323]},{"code":"B/G-1172","program":"wwbota","name":"ROTOR Radar - Shipton (KFY)","coordinates":[-1.173673,54.049323]},{"code":"B/G-1706","program":"wwbota","name":"RAF East Moor, WW2 bomb store bunker","coordinates":[-1.079358,54.065632]}]}