{"lat":54,"lon":22.25,"programs":["pota","sota"],"count":6,"references":[{"code":"PL-0249","program":"pota","name":"Jezior Oleckich Protected Landscape Area","coordinates":[22.463,54.0652]},{"code":"PL-0256","program":"pota","name":"Wzgórz Szeskich Protected Landscape Area","coordinates":[22.3293,54.2081]},{"code":"PL-0272","program":"pota","name":"Cisowy Jar Nature Reserve","coordinates":[22.3502,54.1582]},{"code":"PL-0277","program":"pota","name":"Tatarska Góra Nature and Landscape Complex","coordinates":[22.329,54.2381]},{"code":"PL-0278","program":"pota","name":"Torfowisko na Tatarskiej Górze Nature Reserve","coordinates":[22.3243,54.2427]},{"code":"SP/PO-003","program":"sota","name":"Szeska Góra","coordinates":[22.3323,54.1831]}]}