{"lat":54,"lon":19.25,"programs":["pota"],"count":7,"references":[{"code":"PL-1117","program":"pota","name":"Wysoczyżny Elbląskiej Landscape Park","coordinates":[19.4976,54.1649]},{"code":"PL-1152","program":"pota","name":"Jezioro Drużno Nature Reserve","coordinates":[19.4753,54.0883]},{"code":"PL-1171","program":"pota","name":"Zatoka Elbląska Nature Reserve","coordinates":[19.3824,54.2368]},{"code":"PL-1173","program":"pota","name":"Wysoczyzny Elbląskiej - Zachód Protected Landscape Area","coordinates":[19.4199,54.2226]},{"code":"PL-2429","program":"pota","name":"Jeziora Drużno Protected Landscape Area","coordinates":[19.4289,54.025]},{"code":"PL-2671","program":"pota","name":"Ostoja Drużno Natura 2000","coordinates":[19.4781,54.0911]},{"code":"PL-2672","program":"pota","name":"Jezioro Drużno Natura 2000","coordinates":[19.4622,54.1064]}]}