{"lat":54,"lon":-2.75,"programs":["gma","pota","sota","wwbota"],"count":28,"references":[{"code":"G/HLD-040","program":"gma","name":"Oaken Head","coordinates":[-2.70957994,54.10400009]},{"code":"G/HLD-045","program":"gma","name":"Scout Hill","coordinates":[-2.66891003,54.23725128]},{"code":"G/HNP-001","program":"gma","name":"Barbon Low Fell","coordinates":[-2.53677011,54.2226181]},{"code":"G/HSP-008","program":"gma","name":"Caton Moor","coordinates":[-2.63717008,54.06933975]},{"code":"G/LD-052","program":"gma","name":"Hutton Roof Crags","coordinates":[-2.68199992,54.19129944]},{"code":"G/SP-003","program":"gma","name":"Ward s Stone","coordinates":[-2.6243,54.02270126]},{"code":"G/SP-006","program":"gma","name":"White Hill","coordinates":[-2.5006001,54.02420044]},{"code":"GB-0091","program":"pota","name":"Morecambe Pavements SAC (inc Hutton Roof Crags and Park Wood) National Nature Reserve","coordinates":[-2.6841,54.192]},{"code":"GB-1801","program":"pota","name":"Highwayman, Nether Burrow and Tunstall National Scenic Trail","coordinates":[-2.58954,54.1712]},{"code":"GB-2033","program":"pota","name":"Wennington Circular National Scenic Trail","coordinates":[-2.58781,54.1238]},{"code":"GB-2759","program":"pota","name":"Robert Hall Moor Site of Significant Scientific Interest","coordinates":[-2.56247,54.114]},{"code":"GB-3261","program":"pota","name":"Jubilee Tower Historic Site","coordinates":[-2.70002,54.0102]},{"code":"GB-3380","program":"pota","name":"Devil's Bridge National Historic Site","coordinates":[-2.59064,54.1984]},{"code":"GB-5107","program":"pota","name":"Ruskin's View Scenic Site","coordinates":[-2.59727,54.2046]},{"code":"GB-5232","program":"pota","name":"Kirkby Lonsdale Park","coordinates":[-2.59859,54.2014]},{"code":"GB-5546","program":"pota","name":"Greta Wood Nature Reserve","coordinates":[-2.54058,54.1393]},{"code":"GB-5581","program":"pota","name":"Farleton Knott Site of Significant Scientific Interest","coordinates":[-2.7054,54.2176]},{"code":"GB-5706","program":"pota","name":"Roeburndale Woods Site of Significant Scientific Interest","coordinates":[-2.60343,54.0931]},{"code":"GB-5756","program":"pota","name":"Castle Stede Historic Site","coordinates":[-2.63975,54.122]},{"code":"GB-5757","program":"pota","name":"Crook O'Lune Picnic Site & Hermitage Field Scenic Site","coordinates":[-2.73236,54.0766]},{"code":"GB-5870","program":"pota","name":"The Great Stone of Fourstones Historic Site","coordinates":[-2.50641,54.0917]},{"code":"GB-6534","program":"pota","name":"Ward's Stone Moorland & Hillside Reserve","coordinates":[-2.62681,54.0231]},{"code":"G/LD-052","program":"sota","name":"Hutton Roof Crags","coordinates":[-2.680441,54.191418]},{"code":"G/SP-003","program":"sota","name":"Ward's Stone","coordinates":[-2.624341,54.02302]},{"code":"B/G-0447","program":"wwbota","name":"ROC Post Caton","coordinates":[-2.703023,54.077966]},{"code":"B/G-0872","program":"wwbota","name":"ROC Post Kirkby Lonsdale","coordinates":[-2.610867,54.203217]},{"code":"B/G-2172","program":"wwbota","name":"Loyn Bridge WW2 Pillbox","coordinates":[-2.640127,54.121538]},{"code":"B/G-2546","program":"wwbota","name":"Kirby Lonsdale Pillbox","coordinates":[-2.587042,54.1975]}]}