{"lat":54,"lon":16.25,"programs":["pota"],"count":6,"references":[{"code":"PL-1701","program":"pota","name":"Kamienne kręgi w Grzybnicy Archeological Reserve","coordinates":[16.4364,54.0683]},{"code":"PL-1705","program":"pota","name":"Sieciemińskie Rosiczki Nature Reserve","coordinates":[16.42,54.2216]},{"code":"PL-1714","program":"pota","name":"Mechowisko Manowo Natura 2000","coordinates":[16.3085,54.1165]},{"code":"PL-1719","program":"pota","name":"Jezioro Lubiatowskie Nature Reserve","coordinates":[16.2831,54.1575]},{"code":"PL-1766","program":"pota","name":"Dolina Radwi, Chocieli i Chotli Natura 2000","coordinates":[16.4642,54.0708]},{"code":"PL-2057","program":"pota","name":"Dolina Bielawy Natura 2000","coordinates":[16.4914,54.2128]}]}