{"lat":54,"lon":-4.75,"programs":["pota","sota","wwbota"],"count":9,"references":[{"code":"IM-0002","program":"pota","name":"Cooill y Ree National Park","coordinates":[-4.64315,54.2037]},{"code":"IM-0003","program":"pota","name":"Garey ny Cloie Gardens National Park","coordinates":[-4.6386,54.197]},{"code":"IM-0004","program":"pota","name":"Millenium Oakwood National Park","coordinates":[-4.50122,54.1726]},{"code":"IM-0005","program":"pota","name":"Tynwald National Park and Arboretum National Park","coordinates":[-4.6377,54.2175]},{"code":"GD/GD-003","program":"sota","name":"South Barrule","coordinates":[-4.669286,54.14948]},{"code":"B/GD-0001","program":"wwbota","name":"ROC Post Peel","coordinates":[-4.676353,54.228245]},{"code":"B/GD-0002","program":"wwbota","name":"ROC Post Castletown","coordinates":[-4.613761,54.09]},{"code":"B/GD-0006","program":"wwbota","name":"Chain Home - Dalby","coordinates":[-4.737498,54.171399]},{"code":"B/GD-0007","program":"wwbota","name":"Chain Home - Scarlett","coordinates":[-4.669836,54.070158]}]}