{"lat":54,"lon":18.25,"programs":["pota"],"count":12,"references":[{"code":"PL-1440","program":"pota","name":"Wyspa na Jeziorze Przywidz Nature Reserve","coordinates":[18.348,54.199]},{"code":"PL-2046","program":"pota","name":"Szczodrowo Natura 2000","coordinates":[18.4031,54.1147]},{"code":"PL-2169","program":"pota","name":"Zielenina Natura 2000","coordinates":[18.3803,54.1331]},{"code":"PL-2277","program":"pota","name":"Dolina Środkowej Wietcisy Natura 2000","coordinates":[18.2517,54.1164]},{"code":"PL-2280","program":"pota","name":"Przywidzki Protected Landscape Area","coordinates":[18.3553,54.2361]},{"code":"PL-2418","program":"pota","name":"Brzęczek Nature Reserve","coordinates":[18.3122,54.0419]},{"code":"PL-2484","program":"pota","name":"Doliny Wietcisy Protected Landscape Area","coordinates":[18.3519,54.0905]},{"code":"PL-2500","program":"pota","name":"Przywidz Natura 2000","coordinates":[18.3607,54.2018]},{"code":"PL-2514","program":"pota","name":"Guzy Natura 2000","coordinates":[18.3298,54.1472]},{"code":"PL-2578","program":"pota","name":"Pomlewo Natura 2000","coordinates":[18.4011,54.2236]},{"code":"PL-2615","program":"pota","name":"Huta Dolna Natura 2000","coordinates":[18.3331,54.2273]},{"code":"PL-2622","program":"pota","name":"Dolina Wierzycy Natura 2000","coordinates":[18.4181,54.0422]}]}