{"lat":54.25,"lon":13.5,"programs":["gma","pota"],"count":7,"references":[{"code":"DA/ND-100","program":"gma","name":"Tempelberg","coordinates":[13.62727928,54.38056946]},{"code":"DE-0174","program":"pota","name":"Moenchgut Nature Reserve","coordinates":[13.69,54.3106]},{"code":"DE-1035","program":"pota","name":"Granitz Flora and Fauna Reserve","coordinates":[13.6392,54.3847]},{"code":"DE-1233","program":"pota","name":"Biosphärenreservat Südost-Rügen Biosphere Reserve","coordinates":[13.6269,54.3334]},{"code":"DE-1234","program":"pota","name":"Neuensiener und Selliner See Nature Reserve","coordinates":[13.6645,54.3608]},{"code":"DE-1240","program":"pota","name":"Kleiner Jasmunder Bodden mit Halbinseln und Schmaler Heide Flora and Fauna Reserve","coordinates":[13.5179,54.4502]},{"code":"DE-1241","program":"pota","name":"Mönchgut: Zicker Nature Reserve","coordinates":[13.668,54.2967]}]}