{"lat":54.25,"lon":-1.25,"programs":["gma","pota","sota","wwbota"],"count":10,"references":[{"code":"G/HTW-004","program":"gma","name":"Carlton Moor","coordinates":[-1.20176995,54.41622162]},{"code":"GB-0425","program":"pota","name":"Rievaulx Terrace Country Park","coordinates":[-1.11161,54.2586]},{"code":"GB-0706","program":"pota","name":"Cleveland Way National Scenic Trail","coordinates":[-1.23296,54.4203]},{"code":"GB-3443","program":"pota","name":"Captain Cook's Monument Historic Site","coordinates":[-1.09085,54.483]},{"code":"GB-4107","program":"pota","name":"Broughton Bank Site of Significant Scientific Interest","coordinates":[-1.12564,54.4237]},{"code":"GB-5729","program":"pota","name":"Lord Stones Country Park","coordinates":[-1.19278,54.4204]},{"code":"GB-5864","program":"pota","name":"Cliff Ridge Site of Significant Scientific Interest","coordinates":[-1.11776,54.4966]},{"code":"G/TW-001","program":"sota","name":"Urra Moor - Round Hill","coordinates":[-1.08592,54.40637]},{"code":"G/TW-002","program":"sota","name":"Cringle Moor - Drake Howe","coordinates":[-1.172149,54.41866]},{"code":"B/G-0971","program":"wwbota","name":"ROC Post Chop Gate","coordinates":[-1.142789,54.391536]}]}