{"lat":54.25,"lon":22.5,"programs":["gma","pota"],"count":10,"references":[{"code":"R2/KA-001","program":"gma","name":"Gora Dozor","coordinates":[22.547227,54.422403]},{"code":"R2/KA-002","program":"gma","name":"White Eva","coordinates":[22.522951,54.389818]},{"code":"PL-0173","program":"pota","name":"Puszczy Rominckiej Landscape Park","coordinates":[22.5578,54.3299]},{"code":"PL-0195","program":"pota","name":"Struga Żytkiejmska Nature Reserve","coordinates":[22.632,54.3509]},{"code":"PL-0207","program":"pota","name":"Dziki Kąt Nature Reserve","coordinates":[22.5971,54.3432]},{"code":"PL-0217","program":"pota","name":"Czerwona Struga Nature Reserve","coordinates":[22.5524,54.3314]},{"code":"PL-0232","program":"pota","name":"Boczki Nature Reserve","coordinates":[22.5085,54.3358]},{"code":"PL-2003","program":"pota","name":"Puszcza Romincka Natura 2000","coordinates":[22.5992,54.3086]},{"code":"PL-2159","program":"pota","name":"Czarcia Kępa Nature Reserve","coordinates":[22.6656,54.2831]},{"code":"PL-2222","program":"pota","name":"Puszczy Rominckiej Protected Landscape Area","coordinates":[22.5225,54.2861]}]}