{"lat":54.25,"lon":-8.5,"programs":["pota","sota","wwbota"],"count":7,"references":[{"code":"IE-0086","program":"pota","name":"Deerpark Forest National Forest","coordinates":[-8.37572,54.282]},{"code":"IE-0089","program":"pota","name":"Hazelwood Forest National Forest","coordinates":[-8.42683,54.258]},{"code":"EI/IN-008","program":"sota","name":"Truskmore","coordinates":[-8.3716,54.37415]},{"code":"EI/IN-012","program":"sota","name":"Annacoona Top","coordinates":[-8.4192,54.364655]},{"code":"EI/IN-022","program":"sota","name":"Arroo Mountain","coordinates":[-8.2582,54.416794]},{"code":"EI/IN-036","program":"sota","name":"Crockauns","coordinates":[-8.3701,54.317146]},{"code":"B/EI-0069","program":"wwbota","name":"Mullaghmore Lookout Post (LOP 69)","coordinates":[-8.45819,54.46892]}]}