{"lat":54.25,"lon":19.5,"programs":["pota"],"count":8,"references":[{"code":"PL-1186","program":"pota","name":"Zalew Wiślany i Mierzeja Wiślana Natura 2000","coordinates":[19.5158,54.36]},{"code":"PL-0525","program":"pota","name":"Wysoczyzny Elbląskiej - Wschód Protected Landscape Area","coordinates":[19.574,54.2576]},{"code":"PL-1069","program":"pota","name":"Pióropusznikowy Jar Nature Reserve","coordinates":[19.6389,54.2539]},{"code":"PL-1096","program":"pota","name":"Nowinka Nature Reserve","coordinates":[19.5514,54.3142]},{"code":"PL-1097","program":"pota","name":"Dolina Stradanki Nature Reserve","coordinates":[19.565,54.2931]},{"code":"PL-1111","program":"pota","name":"Buki Wysoczyżny Elbląskiej Nature Reserve","coordinates":[19.5084,54.2785]},{"code":"PL-1130","program":"pota","name":"Doliny Erozyjne Wysoczyżny Elblaskiej Natura 2000","coordinates":[19.5175,54.2724]},{"code":"PL-1938","program":"pota","name":"Marszałkowe bagna Ecological Site","coordinates":[19.6225,54.3386]}]}