{"lat":54.25,"lon":-2.5,"programs":["gma","pota","sota","wwbota"],"count":21,"references":[{"code":"G/HNP-010","program":"gma","name":"Harter Fell","coordinates":[-2.43107009,54.39685822]},{"code":"G/HNP-012","program":"gma","name":"High Seat","coordinates":[-2.3064301,54.40644836]},{"code":"G/HNP-016","program":"gma","name":"Nettle Hill","coordinates":[-2.43965006,54.46477127]},{"code":"G/HNP-020","program":"gma","name":"Randygill Top","coordinates":[-2.48334002,54.39482117]},{"code":"G/HNP-029","program":"gma","name":"Wandale Hill","coordinates":[-2.45573997,54.38563156]},{"code":"G/NP-007","program":"gma","name":"Wild Boar Fell","coordinates":[-2.37409997,54.38410187]},{"code":"G/NP-012","program":"gma","name":"Baugh Fell - Tarn Rigg Hill","coordinates":[-2.40120006,54.31930161]},{"code":"G/NP-015","program":"gma","name":"Great Knoutberry Hill","coordinates":[-2.32710004,54.27909851]},{"code":"G/NP-018","program":"gma","name":"Nine Standards Rigg","coordinates":[-2.27139997,54.45000076]},{"code":"G/NP-019","program":"gma","name":"Yarlside","coordinates":[-2.48650002,54.38100052]},{"code":"G/NP-023","program":"gma","name":"Aye Gill Pike","coordinates":[-2.43169999,54.29230118]},{"code":"GB-4266","program":"pota","name":"Smardale Gill National Nature Reserve","coordinates":[-2.41538,54.4676]},{"code":"GB-4974","program":"pota","name":"Mallerstang-Swaledale Head Site of Significant Scientific Interest","coordinates":[-2.31579,54.4063]},{"code":"G/NP-007","program":"sota","name":"Wild Boar Fell","coordinates":[-2.374098,54.3841]},{"code":"G/NP-012","program":"sota","name":"Baugh Fell - Tarn Rigg Hill","coordinates":[-2.399849,54.319744]},{"code":"G/NP-015","program":"sota","name":"Great Knoutberry Hill","coordinates":[-2.326092,54.279636]},{"code":"G/NP-018","program":"sota","name":"Nine Standards Rigg","coordinates":[-2.270489,54.44997]},{"code":"G/NP-019","program":"sota","name":"Yarlside","coordinates":[-2.485437,54.381317]},{"code":"G/NP-023","program":"sota","name":"Aye Gill Pike","coordinates":[-2.430633,54.292377]},{"code":"B/G-0927","program":"wwbota","name":"ROC Post Dent","coordinates":[-2.362617,54.284297]},{"code":"B/G-1860","program":"wwbota","name":"ROC Kirkby Stephen","coordinates":[-2.344232,54.475691]}]}