{"lat":54.25,"lon":-0.75,"programs":["gma","pota","wwbota"],"count":21,"references":[{"code":"G/HTW-001","program":"gma","name":"Barns Cliff End","coordinates":[-0.55419999,54.3382988]},{"code":"G/HTW-003","program":"gma","name":"Brow Moor","coordinates":[-0.50749999,54.39616013]},{"code":"G/HTW-009","program":"gma","name":"Stony Leas","coordinates":[-0.63739997,54.38061142]},{"code":"GB-2157","program":"pota","name":"Pannett Park","coordinates":[-0.6212,54.4853]},{"code":"GB-2354","program":"pota","name":"Goathland Incline and Beck Hole Walk National Scenic Trail","coordinates":[-0.717332,54.4019]},{"code":"GB-2389","program":"pota","name":"Whitby Saltwick Site of Significant Scientific Interest","coordinates":[-0.587993,54.4878]},{"code":"GB-2391","program":"pota","name":"Robin Hood's Bay: Maw Wyke to Beast Cliff Site of Significant Scientific Interest","coordinates":[-0.500766,54.4089]},{"code":"GB-2393","program":"pota","name":"Bride Stones Site of Significant Scientific Interest","coordinates":[-0.660208,54.3107]},{"code":"GB-2984","program":"pota","name":"Ellerburn Bank Nature Reserve and Site of Significant Scientific Interest","coordinates":[-0.692132,54.2534]},{"code":"GB-3364","program":"pota","name":"Cinder Track National Scenic Trail","coordinates":[-0.546219,54.4197]},{"code":"GB-3698","program":"pota","name":"Seive Dale Fen Site of Significant Scientific Interest","coordinates":[-0.689787,54.2797]},{"code":"GB-4894","program":"pota","name":"Littlebeck Wood Nature Reserve & Site of Significant Scientific Interest","coordinates":[-0.64481,54.4305]},{"code":"GB-4895","program":"pota","name":"Stray Head Banks Nature Reserve","coordinates":[-0.650173,54.4353]},{"code":"GB-5541","program":"pota","name":"Whitby North Promenade Coastal Park","coordinates":[-0.63085,54.493]},{"code":"GB-5704","program":"pota","name":"Dalby Forest Reserve","coordinates":[-0.6173,54.3054]},{"code":"GB-5938","program":"pota","name":"England Cycle Route One National Recreation Trail","coordinates":[-0.641922,54.494]},{"code":"B/G-0922","program":"wwbota","name":"ROC Post Goathland","coordinates":[-0.708808,54.400798]},{"code":"B/G-0923","program":"wwbota","name":"ROC Post Whitby","coordinates":[-0.604449,54.488976]},{"code":"B/G-0924","program":"wwbota","name":"ROC Post Robin Hood's Bay","coordinates":[-0.546044,54.44245]},{"code":"B/G-0994","program":"wwbota","name":"ROC Post Lockton","coordinates":[-0.707455,54.291851]},{"code":"B/G-2690","program":"wwbota","name":"Robin Hoods Bay, Section Post bunker","coordinates":[-0.520647,54.414446]}]}