{"lat":54.25,"lon":-1.75,"programs":["pota","wwbota"],"count":11,"references":[{"code":"GB-2037","program":"pota","name":"Bedale Park","coordinates":[-1.59625,54.2909]},{"code":"GB-4877","program":"pota","name":"Bolton on Swale Lake Nature Reserve","coordinates":[-1.61795,54.3831]},{"code":"GB-5219","program":"pota","name":"Thornton Steward Reservoir Scenic Site","coordinates":[-1.7202,54.2891]},{"code":"GB-5220","program":"pota","name":"The Batts Country Park","coordinates":[-1.73446,54.4024]},{"code":"B/G-0913","program":"wwbota","name":"ROC Post Richmond","coordinates":[-1.7388,54.412898]},{"code":"B/G-0914","program":"wwbota","name":"ROC Post Croft-on-Tees","coordinates":[-1.525187,54.457722]},{"code":"B/G-0954","program":"wwbota","name":"ROC Post Bedale","coordinates":[-1.584997,54.293567]},{"code":"B/G-1230","program":"wwbota","name":"Airfield Battle HQ - Croft","coordinates":[-1.545988,54.459779]},{"code":"B/G-1703","program":"wwbota","name":"RAF Croft, WW2 blast shelter","coordinates":[-1.551043,54.455948]},{"code":"B/G-1708","program":"wwbota","name":"RAF Leeming, WW2 defence bunker cluster","coordinates":[-1.543436,54.293068]},{"code":"B/G-1893","program":"wwbota","name":"ROC Scariston","coordinates":[-1.665712,54.398611]}]}