{"lat":54.5,"lon":-8.75,"programs":["pota","sota","wwbota"],"count":6,"references":[{"code":"IE-0153","program":"pota","name":"Slieve league SAC Natura 2000","coordinates":[-8.72637,54.6619]},{"code":"EI/IN-013","program":"sota","name":"Slieve League","coordinates":[-8.708,54.651535]},{"code":"EI/IN-030","program":"sota","name":"Cruach na Rad","coordinates":[-8.5027,54.6545]},{"code":"EI/IN-045","program":"sota","name":"Liathan","coordinates":[-8.7493,54.6676]},{"code":"EI/IN-053","program":"sota","name":"Croaghacullion","coordinates":[-8.6682,54.72826]},{"code":"B/EI-0071","program":"wwbota","name":"Carrigan Head Lookout Post (LOP 71)","coordinates":[-8.67898,54.61979]}]}