{"lat":54.5,"lon":-4.5,"programs":["pota","wwbota"],"count":9,"references":[{"code":"GB-1327","program":"pota","name":"Bailliewhirr Site of Significant Scientific Interest","coordinates":[-4.44383,54.7422]},{"code":"GB-1328","program":"pota","name":"Back Bay to Carghidown Site of Significant Scientific Interest","coordinates":[-4.49843,54.7054]},{"code":"GB-1329","program":"pota","name":"West Burrow Head Site of Significant Scientific Interest","coordinates":[-4.402,54.679]},{"code":"GB-1330","program":"pota","name":"Burrow Head Site of Significant Scientific Interest","coordinates":[-4.38237,54.695]},{"code":"GB-1331","program":"pota","name":"Isle of Whithorn Bay Site of Significant Scientific Interest","coordinates":[-4.36644,54.6992]},{"code":"B/GM-0521","program":"wwbota","name":"Burrow Head Battery Command Post","coordinates":[-4.403943,54.678882]},{"code":"B/GM-0522","program":"wwbota","name":"Kidsdale Airfield WW Pillbox cluster","coordinates":[-4.413,54.7]},{"code":"B/GM-0523","program":"wwbota","name":"The Old Fort Observation Post (WW2)","coordinates":[-4.364139,54.73414]},{"code":"B/GM-0524","program":"wwbota","name":"Wigtown Bay WW2 Quadrant Shelter","coordinates":[-4.362986,54.749288]}]}