{"lat":54.5,"lon":-3.75,"programs":["gma","pota","wwbota"],"count":19,"references":[{"code":"G/HLD-027","program":"gma","name":"Hannah Moor","coordinates":[-3.6199801,54.50505829]},{"code":"GB-2195","program":"pota","name":"River Ehen (Ennerdale Water to Keekle Confluence) Site of Significant Scientific Interest","coordinates":[-3.50748,54.5123]},{"code":"GB-2436","program":"pota","name":"Mary Port Site of Significant Scientific Interest","coordinates":[-3.50892,54.7109]},{"code":"GB-3768","program":"pota","name":"Harrington Reservoir Nature Reserve","coordinates":[-3.55788,54.6184]},{"code":"GB-3769","program":"pota","name":"Vulcan Park","coordinates":[-3.55232,54.6408]},{"code":"GB-3770","program":"pota","name":"Siddick Ponds Nature Reserve","coordinates":[-3.5508,54.6579]},{"code":"GB-3771","program":"pota","name":"Slag Banks Scenic Site","coordinates":[-3.57329,54.6442]},{"code":"GB-5735","program":"pota","name":"Workington Hall Parklands Park","coordinates":[-3.5386,54.6442]},{"code":"B/G-0117","program":"wwbota","name":"ROC Post Whitehaven","coordinates":[-3.569225,54.554969]},{"code":"B/G-0118","program":"wwbota","name":"ROC Post Workington","coordinates":[-3.535136,54.651845]},{"code":"B/G-1490","program":"wwbota","name":"Whitehaven Air Raid Shelter 1","coordinates":[-3.5861092,54.547738]},{"code":"B/G-1491","program":"wwbota","name":"Whitehaven Air Raid Shelter 2","coordinates":[-3.5877591,54.550413]},{"code":"B/G-1765","program":"wwbota","name":"Chain Home - Bees Head","coordinates":[-3.636642,54.513753]},{"code":"B/G-1766","program":"wwbota","name":"Bransty Cliffs, Coastal Defence Bunker","coordinates":[-3.589644,54.560315]},{"code":"B/G-1858","program":"wwbota","name":"Copperas Hill, coastal defence bunker","coordinates":[-3.569077,54.605098]},{"code":"B/G-2028","program":"wwbota","name":"Pica (Moresby Moor) bunker","coordinates":[-3.53324,54.5773]},{"code":"B/G-2029","program":"wwbota","name":"Siddick decoy bunker (Workington)","coordinates":[-3.535124,54.677446]},{"code":"B/G-2121","program":"wwbota","name":"Maryport Docks WW2 Pillbox","coordinates":[-3.506506,54.717413]},{"code":"B/G-2301","program":"wwbota","name":"Workington Coastal Artillery Battery","coordinates":[-3.566948,54.653225]}]}