{"lat":54.5,"lon":9.25,"programs":["pota","wwbota"],"count":5,"references":[{"code":"DE-0128","program":"pota","name":"Froeruper Berge Nature Reserve","coordinates":[9.45822,54.6799]},{"code":"DE-1123","program":"pota","name":"Treene Winderatter See bis Friedrichstadt und Bollingstedter Au Flora and Fauna Reserve","coordinates":[9.34569,54.5893]},{"code":"B/DL-0017","program":"wwbota","name":"Ausweichsitz Schleswig Holstein – SIMON","coordinates":[9.438811,54.717375]},{"code":"B/DL-0594","program":"wwbota","name":"Bunker NATO Flugplatz Eggebeck","coordinates":[9.348757,54.624797]},{"code":"B/DL-1078","program":"wwbota","name":"GSVBw 11 – Kleinwolstrup","coordinates":[9.478875,54.73349]}]}