{"lat":54.5,"lon":-2.5,"programs":["gma","pota","sota"],"count":17,"references":[{"code":"G/HNP-013","program":"gma","name":"Knock Pike","coordinates":[-2.48812008,54.6479187]},{"code":"G/NP-001","program":"gma","name":"Cross Fell","coordinates":[-2.48720002,54.70280075]},{"code":"G/NP-002","program":"gma","name":"Mickle Fell","coordinates":[-2.30500007,54.61349869]},{"code":"G/NP-003","program":"gma","name":"Burnhope Seat","coordinates":[-2.3354001,54.73199844]},{"code":"G/NP-027","program":"gma","name":"Dufton Pike","coordinates":[-2.4677999,54.63359833]},{"code":"GB-0030","program":"pota","name":"Moor House National Nature Reserve","coordinates":[-2.25393,54.6627]},{"code":"GB-0151","program":"pota","name":"North Pennines National Landscape","coordinates":[-2.26164,54.6713]},{"code":"GB-0440","program":"pota","name":"The Haybergill Centre Country Park","coordinates":[-2.38774,54.5445]},{"code":"GB-1292","program":"pota","name":"Teesdale Way National Scenic Trail","coordinates":[-2.48557,54.6212]},{"code":"GB-1983","program":"pota","name":"River Eden and Tributaries Site of Significant Scientific Interest","coordinates":[-2.46366,54.5534]},{"code":"GB-5010","program":"pota","name":"Appleby Fells Site of Significant Scientific Interest","coordinates":[-2.46381,54.6034]},{"code":"GB-5015","program":"pota","name":"Cow Green Reservoir Scenic Site","coordinates":[-2.29271,54.6558]},{"code":"GB-5416","program":"pota","name":"The Roof of England Walk National Scenic Trail","coordinates":[-2.48113,54.5853]},{"code":"G/NP-001","program":"sota","name":"Cross Fell","coordinates":[-2.486694,54.702953]},{"code":"G/NP-002","program":"sota","name":"Mickle Fell","coordinates":[-2.301922,54.615643]},{"code":"G/NP-003","program":"sota","name":"Burnhope Seat","coordinates":[-2.336256,54.73258]},{"code":"G/NP-027","program":"sota","name":"Dufton Pike","coordinates":[-2.466473,54.633904]}]}