{"lat":54.5,"lon":-2.25,"programs":["gma","pota","wwbota"],"count":7,"references":[{"code":"G/HNP-006","program":"gma","name":"Chapelfell Top","coordinates":[-2.19410992,54.70626068]},{"code":"GB-5450","program":"pota","name":"Bowes Moor Site of Significant Scientific Interest","coordinates":[-2.09863,54.5151]},{"code":"GB-5937","program":"pota","name":"Burnhope Reservoir Scenic Reserve","coordinates":[-2.24356,54.7466]},{"code":"B/G-0116","program":"wwbota","name":"ROC Post Wearhead","coordinates":[-2.227715,54.743519]},{"code":"B/G-0911","program":"wwbota","name":"ROC Post Cotherstone","coordinates":[-2.006925,54.554544]},{"code":"B/G-1987","program":"wwbota","name":"Black Riggs, WW2 Pillbox Bunker","coordinates":[-2.18537,54.507239]},{"code":"B/G-2025","program":"wwbota","name":"RAF Bowes Moor, Cotherstone, North Pennines","coordinates":[-2.0292917,54.526892]}]}