{"lat":54.5,"lon":-1.75,"programs":["pota","wwbota"],"count":29,"references":[{"code":"GB-0032","program":"pota","name":"Thrislington National Nature Reserve","coordinates":[-1.50999,54.6871]},{"code":"GB-1934","program":"pota","name":"Rockwell Nature Reserve","coordinates":[-1.53155,54.5372]},{"code":"GB-2235","program":"pota","name":"Windlestone Hall Country Park","coordinates":[-1.59284,54.6526]},{"code":"GB-2454","program":"pota","name":"Gerald Lee Pocket Park","coordinates":[-1.55344,54.5217]},{"code":"GB-2492","program":"pota","name":"South Park","coordinates":[-1.55828,54.5162]},{"code":"GB-2493","program":"pota","name":"West Park Nature Reserve","coordinates":[-1.58681,54.5442]},{"code":"GB-2864","program":"pota","name":"Auckland Way National Scenic Trail","coordinates":[-1.64927,54.6677]},{"code":"GB-2865","program":"pota","name":"Brandon to Bishop Auckland Way National Scenic Trail","coordinates":[-1.66098,54.7382]},{"code":"GB-2886","program":"pota","name":"Byerley Park Local Nature Reserve","coordinates":[-1.59972,54.6274]},{"code":"GB-3103","program":"pota","name":"Weardale Way National Scenic Trail","coordinates":[-1.68576,54.7054]},{"code":"GB-3245","program":"pota","name":"The Way of Life National Scenic Trail","coordinates":[-1.68069,54.6646]},{"code":"GB-4552","program":"pota","name":"Ferryhill Carrs Nature Reserve","coordinates":[-1.5342,54.6907]},{"code":"GB-4553","program":"pota","name":"Drinkfield Marsh Nature Reserve","coordinates":[-1.55798,54.5506]},{"code":"GB-4554","program":"pota","name":"Brinkburn Pond Nature Reserve","coordinates":[-1.56492,54.5395]},{"code":"GB-4555","program":"pota","name":"The Denes Linear Park","coordinates":[-1.57532,54.5324]},{"code":"GB-4556","program":"pota","name":"Cow Plantation Local Nature Reserve","coordinates":[-1.60246,54.7069]},{"code":"GB-5093","program":"pota","name":"Spennymoor Jubilee Park","coordinates":[-1.60791,54.7008]},{"code":"GB-5094","program":"pota","name":"Whitworth Hall Country Park","coordinates":[-1.63472,54.7057]},{"code":"GB-5833","program":"pota","name":"Beech Wood Woodland Reserve","coordinates":[-1.51795,54.5469]},{"code":"GB-5834","program":"pota","name":"Geneva Wood Local Nature Reserve","coordinates":[-1.54656,54.5123]},{"code":"GB-5835","program":"pota","name":"Broken Scar Weir & Picnic Area Scenic Site","coordinates":[-1.60153,54.5185]},{"code":"GB-6104","program":"pota","name":"Maidendale Nature Reserve","coordinates":[-1.51915,54.5141]},{"code":"GB-6105","program":"pota","name":"North Lodge Park","coordinates":[-1.55535,54.5299]},{"code":"GB-6106","program":"pota","name":"Stanhope Park","coordinates":[-1.56389,54.5262]},{"code":"GB-6493","program":"pota","name":"The Batts Nature Reserve","coordinates":[-1.67301,54.6683]},{"code":"B/G-0108","program":"wwbota","name":"ROC Post Westerton","coordinates":[-1.621744,54.675455]},{"code":"B/G-0235","program":"wwbota","name":"ROC Post Brusselton","coordinates":[-1.686065,54.619561]},{"code":"B/G-0236","program":"wwbota","name":"ROC Post Piercebridge","coordinates":[-1.64115,54.531995]},{"code":"B/G-0237","program":"wwbota","name":"ROC Post Aycliffe Village","coordinates":[-1.551259,54.584268]}]}