{"lat":54.75,"lon":18,"programs":["pota"],"count":7,"references":[{"code":"PL-1421","program":"pota","name":"Piaśnickie Łąki Natura 2000","coordinates":[18.0599,54.8233]},{"code":"PL-1486","program":"pota","name":"Zielone Nature Reserve","coordinates":[18.1312,54.8034]},{"code":"PL-1488","program":"pota","name":"Widowo Nature Reserve","coordinates":[18.1233,54.8304]},{"code":"PL-1499","program":"pota","name":"Piaśnickie Łąki Nature Reserve","coordinates":[18.0599,54.8233]},{"code":"PL-1502","program":"pota","name":"Długosz Królewski w Wierzchucinie Nature Reserve","coordinates":[18.0347,54.8013]},{"code":"PL-2525","program":"pota","name":"Bielawa Nature Reserve","coordinates":[18.2477,54.8014]},{"code":"PL-2630","program":"pota","name":"Bielawski Protected Landscape Area","coordinates":[18.245,54.8281]}]}