{"lat":54.75,"lon":-1.75,"programs":["gma","pota","wwbota"],"count":69,"references":[{"code":"G/HNP-022","program":"gma","name":"Sheriff Hill","coordinates":[-1.58168995,54.93574905]},{"code":"GB-0766","program":"pota","name":"Hadrian’s Wall Path National Scenic Trail","coordinates":[-1.53368,54.9855]},{"code":"GB-1678","program":"pota","name":"Derwenthaugh Country Park","coordinates":[-1.71051,54.9426]},{"code":"GB-1679","program":"pota","name":"James Steel Park Country Park","coordinates":[-1.50683,54.8824]},{"code":"GB-1824","program":"pota","name":"Waldridge Fell Country Park","coordinates":[-1.6113,54.8416]},{"code":"GB-1825","program":"pota","name":"Congburn Wood Nature Reserve","coordinates":[-1.60238,54.8533]},{"code":"GB-2300","program":"pota","name":"Derwent Walk Country Park","coordinates":[-1.72332,54.9342]},{"code":"GB-2400","program":"pota","name":"Wharton Park","coordinates":[-1.58403,54.7808]},{"code":"GB-2401","program":"pota","name":"Aykley Wood Nature Reserve","coordinates":[-1.57727,54.7874]},{"code":"GB-2402","program":"pota","name":"Flass Vale Nature Reserve","coordinates":[-1.59137,54.7797]},{"code":"GB-2403","program":"pota","name":"Pelaw Wood Nature Reserve","coordinates":[-1.55539,54.7743]},{"code":"GB-2404","program":"pota","name":"Pity Me Carrs Nature Reserve","coordinates":[-1.58397,54.8013]},{"code":"GB-2405","program":"pota","name":"Low Newton Junction Nature Reserve","coordinates":[-1.56051,54.8003]},{"code":"GB-2406","program":"pota","name":"Brasside Pond Site of Significant Scientific Interest","coordinates":[-1.54881,54.8015]},{"code":"GB-2866","program":"pota","name":"Deerness Valley Way National Scenic Trail","coordinates":[-1.72351,54.7612]},{"code":"GB-2870","program":"pota","name":"Lanchester Valley Way National Scenic Trail","coordinates":[-1.74275,54.8198]},{"code":"GB-2876","program":"pota","name":"Malton Nature Reserve","coordinates":[-1.71888,54.8073]},{"code":"GB-2879","program":"pota","name":"Chapman's Well Local Nature Reserve","coordinates":[-1.72901,54.8492]},{"code":"GB-2890","program":"pota","name":"Steely Hill Nature Reserve","coordinates":[-1.7377,54.7833]},{"code":"GB-3044","program":"pota","name":"Angel of the North and Longacre Wood Historic Site","coordinates":[-1.58972,54.9141]},{"code":"GB-3045","program":"pota","name":"Lamesley Pastures Nature Reserve","coordinates":[-1.60787,54.9123]},{"code":"GB-3177","program":"pota","name":"Bowes Valley Nature Reserve","coordinates":[-1.60434,54.9034]},{"code":"GB-3178","program":"pota","name":"Bowes Valley Railway Path National Scenic Trail","coordinates":[-1.60937,54.9035]},{"code":"GB-3234","program":"pota","name":"Framwellgate Moor Wagonway National Scenic Trail","coordinates":[-1.59328,54.8]},{"code":"GB-3244","program":"pota","name":"The Way of Light National Scenic Trail","coordinates":[-1.74501,54.8229]},{"code":"GB-3246","program":"pota","name":"The Angel's Way National Scenic Trail","coordinates":[-1.60476,54.9894]},{"code":"GB-3508","program":"pota","name":"Low Burnhall Nature Reserve","coordinates":[-1.58638,54.7505]},{"code":"GB-3683","program":"pota","name":"The Princess Anne Park","coordinates":[-1.52913,54.8898]},{"code":"GB-4365","program":"pota","name":"Chester-le-Street Riverside Park","coordinates":[-1.56229,54.8535]},{"code":"GB-4366","program":"pota","name":"Ousbrough Wood Nature Reserve","coordinates":[-1.64222,54.879]},{"code":"GB-4367","program":"pota","name":"Tanfield Lea Marsh Nature Reserve","coordinates":[-1.69661,54.8844]},{"code":"GB-4368","program":"pota","name":"South Stanley Woods Nature Reserve","coordinates":[-1.68019,54.8606]},{"code":"GB-4369","program":"pota","name":"Greencroft Heath Nature Reserve","coordinates":[-1.74513,54.8538]},{"code":"GB-4371","program":"pota","name":"Harperley & Pea Woods Nature Reserve","coordinates":[-1.72363,54.8745]},{"code":"GB-4372","program":"pota","name":"Watergate Forest Park","coordinates":[-1.65079,54.9368]},{"code":"GB-4373","program":"pota","name":"Tanfield Railway National Scenic Trail","coordinates":[-1.64854,54.9369]},{"code":"GB-4374","program":"pota","name":"Shibdon Pond Local Nature Reserve","coordinates":[-1.69771,54.9603]},{"code":"GB-4375","program":"pota","name":"Blaydon Burn Nature Reserve","coordinates":[-1.72024,54.9658]},{"code":"GB-4376","program":"pota","name":"Path Head Mill and Nature Reserve","coordinates":[-1.73921,54.9659]},{"code":"GB-4378","program":"pota","name":"Town Moor Landscape Park","coordinates":[-1.62392,54.9904]},{"code":"GB-4379","program":"pota","name":"Leazes Park","coordinates":[-1.62265,54.978]},{"code":"GB-4380","program":"pota","name":"Kyo Bogs Local Nature Reserve","coordinates":[-1.73091,54.8638]},{"code":"GB-4381","program":"pota","name":"Daisy Hill Local Nature Reserve","coordinates":[-1.60817,54.8315]},{"code":"GB-4382","program":"pota","name":"Sacriston Wood Nature Reserve","coordinates":[-1.63458,54.8306]},{"code":"GB-4773","program":"pota","name":"Consett and Sunderland Railway Path National Scenic Trail","coordinates":[-1.64209,54.8765]},{"code":"GB-5391","program":"pota","name":"Chase Park","coordinates":[-1.67499,54.9448]},{"code":"GB-5392","program":"pota","name":"Cross Lane Meadows Nature Reserve","coordinates":[-1.66659,54.9511]},{"code":"GB-5393","program":"pota","name":"Saltwell Country Park","coordinates":[-1.6049,54.9426]},{"code":"GB-5394","program":"pota","name":"Windy Nook Nature Park","coordinates":[-1.56945,54.9395]},{"code":"GB-5395","program":"pota","name":"Whitehills Nature Park","coordinates":[-1.56681,54.9352]},{"code":"GB-5396","program":"pota","name":"Saltmarsh Garden Nature Reserve","coordinates":[-1.63739,54.9564]},{"code":"GB-5699","program":"pota","name":"Jesmond Dene Scenic Reserve","coordinates":[-1.59084,54.9899]},{"code":"GB-5828","program":"pota","name":"The Scrambles Nature Reserve","coordinates":[-1.51688,54.7851]},{"code":"GB-6080","program":"pota","name":"Hebburn Riverside Country Park","coordinates":[-1.53262,54.9685]},{"code":"GB-6081","program":"pota","name":"Carr Ellison Country Park","coordinates":[-1.51405,54.9711]},{"code":"GB-6089","program":"pota","name":"Richardson Dees Park","coordinates":[-1.53546,54.9966]},{"code":"GB-6090","program":"pota","name":"Prince Road Arboretum Park","coordinates":[-1.5404,54.999]},{"code":"GB-6091","program":"pota","name":"Wallsend Civic Hall & Grounds Historic Park","coordinates":[-1.53066,54.9971]},{"code":"GB-6092","program":"pota","name":"Elba Country Park","coordinates":[-1.50377,54.8539]},{"code":"GB-6094","program":"pota","name":"Oliver Henderson Park","coordinates":[-1.54007,54.9427]},{"code":"GB-6107","program":"pota","name":"Iris Brickfield Community Park","coordinates":[-1.56762,54.9894]},{"code":"GB-6441","program":"pota","name":"Stargate Ponds & Bewes Hills Nature Reserve","coordinates":[-1.7432,54.9632]},{"code":"B/G-0103","program":"wwbota","name":"ROC Post Sacriston Master Post","coordinates":[-1.6552872,54.826183]},{"code":"B/G-0107","program":"wwbota","name":"ROC Post Tantobie","coordinates":[-1.73996,54.88605]},{"code":"B/G-0109","program":"wwbota","name":"ROC Post Springwell","coordinates":[-1.555903,54.924968]},{"code":"B/G-0234","program":"wwbota","name":"ROC Post Pit House","coordinates":[-1.689224,54.75365]},{"code":"B/G-1051","program":"wwbota","name":"ROC Group HQ No 23 - Durham","coordinates":[-1.57245,54.78026]},{"code":"B/G-1363","program":"wwbota","name":"RAF Blakelaw 13 Group Filter Room","coordinates":[-1.6700694,54.9959657]},{"code":"B/G-2173","program":"wwbota","name":"MOS Brasside, WW2 storage bunker complex","coordinates":[-1.5508354,54.81367]}]}