{"lat":54.75,"lon":-1.5,"programs":["pota","wwbota"],"count":63,"references":[{"code":"GB-0011","program":"pota","name":"Northumbrian Coast SPA - Durham Coast SAC (Whitburn & South Shields) Protected Area","coordinates":[-1.363,54.9687]},{"code":"GB-0023","program":"pota","name":"Northumbrian Coast SPA - Durham Coast (South) National Nature Reserve","coordinates":[-1.31038,54.7878]},{"code":"GB-0031","program":"pota","name":"Northumbrian Coast SPA/Ramsar - Seaham Harbour & Featherbed Rocks Protected Area","coordinates":[-1.33237,54.8416]},{"code":"GB-0169","program":"pota","name":"Northumbrian Coast SPA/Ramsar - Parson's Rocks Protected Area","coordinates":[-1.36557,54.9305]},{"code":"GB-0197","program":"pota","name":"Northumbrian Coast SPA - Durham SAC (Maiden's Flat & surrounding coast) Protected Area","coordinates":[-1.35609,54.876]},{"code":"GB-0209","program":"pota","name":"Northumbrian Coast SPA - Durham Coast National Nature Reserve","coordinates":[-1.31223,54.7892]},{"code":"GB-0554","program":"pota","name":"Herrington Country Park","coordinates":[-1.47274,54.8749]},{"code":"GB-0768","program":"pota","name":"The Way Of Learning National Historic Trail","coordinates":[-1.48354,54.9856]},{"code":"GB-1289","program":"pota","name":"Hawthorn Quarry Site of Significant Scientific Interest","coordinates":[-1.32781,54.8115]},{"code":"GB-1673","program":"pota","name":"Hetton Lyons Country Park","coordinates":[-1.44057,54.8228]},{"code":"GB-2867","program":"pota","name":"Hawthorn to Ryhope Way National Scenic Trail","coordinates":[-1.40224,54.8253]},{"code":"GB-2871","program":"pota","name":"Pittington Way National Scenic Trail","coordinates":[-1.48878,54.8061]},{"code":"GB-2873","program":"pota","name":"Sherburn Way National Scenic Trail","coordinates":[-1.49956,54.7691]},{"code":"GB-3588","program":"pota","name":"Horden Grasslands Local Nature Reserve","coordinates":[-1.31025,54.767]},{"code":"GB-3589","program":"pota","name":"Limekiln Gill Local Nature Reserve","coordinates":[-1.29541,54.7602]},{"code":"GB-3590","program":"pota","name":"Easington Colliery Local Nature Reserve","coordinates":[-1.31841,54.7897]},{"code":"GB-3591","program":"pota","name":"Noses Point Local Nature Reserve","coordinates":[-1.32194,54.8239]},{"code":"GB-3592","program":"pota","name":"Rockhouse Dene Local Nature Reserve","coordinates":[-1.33657,54.8401]},{"code":"GB-3677","program":"pota","name":"Tunstall Hills Local Nature Reserve","coordinates":[-1.38594,54.8813]},{"code":"GB-3682","program":"pota","name":"Barmston Pond Nature Reserve","coordinates":[-1.49242,54.908]},{"code":"GB-3684","program":"pota","name":"Penshaw Monument Historic Site","coordinates":[-1.4811,54.883]},{"code":"GB-3693","program":"pota","name":"Hawthorn Dene Site of Significant Scientific Interest","coordinates":[-1.32366,54.8054]},{"code":"GB-3871","program":"pota","name":"Bracken Hill Wood Nature Reserve","coordinates":[-1.37153,54.7525]},{"code":"GB-4135","program":"pota","name":"Barnes Park and Barnes Park Extension Park","coordinates":[-1.41049,54.8943]},{"code":"GB-4136","program":"pota","name":"Mowbray Historic Park","coordinates":[-1.37963,54.9029]},{"code":"GB-4370","program":"pota","name":"Rainton Meadows Nature Reserve","coordinates":[-1.496,54.829]},{"code":"GB-4489","program":"pota","name":"Boldon Flats Nature Reserve","coordinates":[-1.4123,54.9455]},{"code":"GB-5359","program":"pota","name":"Bede's Way National Scenic Trail","coordinates":[-1.37313,54.9543]},{"code":"GB-5397","program":"pota","name":"Primrose Local Nature Reserve","coordinates":[-1.48205,54.9683]},{"code":"GB-5480","program":"pota","name":"Roker Cliff Park","coordinates":[-1.3664,54.9306]},{"code":"GB-5481","program":"pota","name":"Fulwell Quarry Local Nature Reserve","coordinates":[-1.40432,54.9336]},{"code":"GB-5482","program":"pota","name":"Hylton Dene & Castle Nature Reserve","coordinates":[-1.43657,54.9208]},{"code":"GB-5483","program":"pota","name":"Roker Country Park","coordinates":[-1.37008,54.9239]},{"code":"GB-5484","program":"pota","name":"Cornthwaite Park","coordinates":[-1.36597,54.9463]},{"code":"GB-5485","program":"pota","name":"Cleadon Hills Local Nature Reserve","coordinates":[-1.39422,54.9622]},{"code":"GB-5486","program":"pota","name":"Tilesheds Local Nature Reserve","coordinates":[-1.42657,54.9525]},{"code":"GB-5632","program":"pota","name":"Seaburn Recreation Park","coordinates":[-1.36922,54.9323]},{"code":"GB-5633","program":"pota","name":"Whitburn Point Local Nature Reserve","coordinates":[-1.35733,54.9633]},{"code":"GB-5634","program":"pota","name":"Marsden Old Quarry Local Nature Reserve","coordinates":[-1.38195,54.9746]},{"code":"GB-5636","program":"pota","name":"Temple Memorial Park","coordinates":[-1.42321,54.9675]},{"code":"GB-5637","program":"pota","name":"Harton Downhill (Blackberry Hills) Local Nature Reserve","coordinates":[-1.39255,54.9832]},{"code":"GB-5786","program":"pota","name":"Fox Holes Dene Coastal Reserve","coordinates":[-1.31334,54.785]},{"code":"GB-5829","program":"pota","name":"Elemore Country Park","coordinates":[-1.44909,54.8037]},{"code":"GB-5830","program":"pota","name":"Skygate Footpath Hillside Park Reserve","coordinates":[-1.36954,54.8138]},{"code":"GB-5831","program":"pota","name":"Sunny Blunts Park","coordinates":[-1.3413,54.751]},{"code":"GB-5832","program":"pota","name":"Deneside (Dawson Dene) Park","coordinates":[-1.34576,54.835]},{"code":"GB-6082","program":"pota","name":"Bedeswell (Campbell) Park","coordinates":[-1.4999,54.9706]},{"code":"GB-6084","program":"pota","name":"Bents Park","coordinates":[-1.4168,54.999]},{"code":"GB-6085","program":"pota","name":"Chirton Dene Park","coordinates":[-1.45592,54.9991]},{"code":"GB-6086","program":"pota","name":"Redburn Dene Park","coordinates":[-1.45231,54.9971]},{"code":"GB-6087","program":"pota","name":"Coble Dene Park","coordinates":[-1.45815,54.9961]},{"code":"GB-6367","program":"pota","name":"River Tyne National Scenic Trail","coordinates":[-1.45078,54.9963]},{"code":"GB-6527","program":"pota","name":"Tina's Haven Nature Reserve","coordinates":[-1.312,54.778]},{"code":"GB-6696","program":"pota","name":"Warren House Gill Scenic & Historical Reserve","coordinates":[-1.31297,54.7753]},{"code":"B/G-0110","program":"wwbota","name":"ROC Post Sherburn Hill","coordinates":[-1.484547,54.769938]},{"code":"B/G-0113","program":"wwbota","name":"ROC Post Whitburn","coordinates":[-1.366447,54.956749]},{"code":"B/G-0238","program":"wwbota","name":"ROC Post Hastings Hill","coordinates":[-1.451459,54.883294]},{"code":"B/G-0239","program":"wwbota","name":"ROC Post Easington","coordinates":[-1.332883,54.814582]},{"code":"B/G-1155","program":"wwbota","name":"ROTOR Radar - Cold Hesledon (IDW)","coordinates":[-1.352649,54.81433]},{"code":"B/G-1896","program":"wwbota","name":"WW2 Hawthorn Dene, Coastal Defences","coordinates":[-1.314557,54.806468]},{"code":"B/G-1897","program":"wwbota","name":"WW2 Seaham Harbour, Coastal Defences (x2)","coordinates":[-1.324871,54.834887]},{"code":"B/G-1996","program":"wwbota","name":"Coastal Defence Bunker, Horden Beach","coordinates":[-1.313344,54.773777]},{"code":"B/G-2179","program":"wwbota","name":"Kinley Hill Chain Home (Low)","coordinates":[-1.3308513,54.81511]}]}