{"lat":54.75,"lon":-7.25,"programs":["pota","sota","wwbota"],"count":9,"references":[{"code":"GB-0780","program":"pota","name":"Burntollet wood Wildlife Management Area","coordinates":[-7.20575,54.9426]},{"code":"GB-0794","program":"pota","name":"Sperrins Area of Outstanding Natural Beauty","coordinates":[-7.0833,54.8]},{"code":"GB-2585","program":"pota","name":"Ness National Park","coordinates":[-7.18709,54.9476]},{"code":"GI/SM-001","program":"sota","name":"Sawel Mountain","coordinates":[-7.039419,54.819714]},{"code":"GI/SM-002","program":"sota","name":"Mullaghclogha","coordinates":[-7.134132,54.806458]},{"code":"GI/SM-008","program":"sota","name":"Mullaghash","coordinates":[-7.004123,54.860752]},{"code":"GI/SM-014","program":"sota","name":"Loughermore","coordinates":[-7.080727,54.984425]},{"code":"GI/SM-020","program":"sota","name":"Crockdooish","coordinates":[-7.176862,54.86654]},{"code":"B/GI-0039","program":"wwbota","name":"ROC Post Claudy","coordinates":[-7.127632,54.931373]}]}