{"lat":55,"lon":14.5,"programs":["pota"],"count":9,"references":[{"code":"DK-0175","program":"pota","name":"Onsbæk Plantage Coastal Park","coordinates":[14.73,55.0786]},{"code":"DK-0187","program":"pota","name":"Ringebakkerne Coastal Park","coordinates":[14.7319,55.2371]},{"code":"DK-0188","program":"pota","name":"Hasle Lystskov Nature Reserve","coordinates":[14.7117,55.1698]},{"code":"DK-0249","program":"pota","name":"Robbedale Sandgrave Protected Area","coordinates":[14.7461,55.0868]},{"code":"DK-0251","program":"pota","name":"Skovgård Klippeløkke Nature Reserve","coordinates":[14.7497,55.0913]},{"code":"DK-0267","program":"pota","name":"Kastellet i Rønne Protected Area","coordinates":[14.7006,55.0924]},{"code":"DK-0268","program":"pota","name":"Galløkken Protected Area","coordinates":[14.7009,55.0911]},{"code":"DK-0273","program":"pota","name":"Svartingedalen Protected Area","coordinates":[14.7484,55.1918]},{"code":"DK-0275","program":"pota","name":"Hasle kystområde Coastal Park","coordinates":[14.7046,55.1966]}]}