{"lat":55,"lon":-1.5,"programs":["pota","wwbota"],"count":14,"references":[{"code":"GB-0033","program":"pota","name":"Northumbrian Coast SPA - Tynemouth (North) Protected Area","coordinates":[-1.41928,55.0171]},{"code":"GB-0063","program":"pota","name":"Northumbrian Coast SPA - St Marys (Bait) Island Protected Area","coordinates":[-1.44967,55.0716]},{"code":"GB-0314","program":"pota","name":"Northumbrian Coast SPA - Whitley Bay Coast Protected Area","coordinates":[-1.44847,55.0506]},{"code":"GB-0767","program":"pota","name":"The Angel’s Way National Historic Trail","coordinates":[-1.49266,55.0664]},{"code":"GB-5066","program":"pota","name":"Marden Quarry Park and Nature Reserve","coordinates":[-1.4469,55.036]},{"code":"GB-5635","program":"pota","name":"North Marine Park","coordinates":[-1.4263,55.0043]},{"code":"GB-5732","program":"pota","name":"Seaton Sluice (Eve Black Way) National Scenic Trail","coordinates":[-1.48098,55.0872]},{"code":"GB-5734","program":"pota","name":"Tynemouth Northumberland Park","coordinates":[-1.43439,55.0161]},{"code":"GB-6083","program":"pota","name":"South Marine Park","coordinates":[-1.42066,55.0004]},{"code":"GB-6088","program":"pota","name":"West End Park","coordinates":[-1.45917,55.001]},{"code":"B/G-0644","program":"wwbota","name":"ROC Post Blyth","coordinates":[-1.496923,55.09988]},{"code":"B/G-0645","program":"wwbota","name":"ROC Post Whitley Bay","coordinates":[-1.451428,55.034714]},{"code":"B/G-1064","program":"wwbota","name":"AAOR Gosforth","coordinates":[-1.461858,55.026942]},{"code":"B/G-2544","program":"wwbota","name":"Hartley Pillbox","coordinates":[-1.46533,55.074606]}]}