{"lat":55,"lon":-7.5,"programs":["pota","sota","wwbota"],"count":6,"references":[{"code":"IE-0123","program":"pota","name":"Inich Levels Wildfowl Nature Reserve","coordinates":[-7.44402,55.0517]},{"code":"EI/IN-009","program":"sota","name":"Slieve Snaght","coordinates":[-7.3343,55.19646]},{"code":"EI/IN-029","program":"sota","name":"Bulbin","coordinates":[-7.4395,55.226517]},{"code":"EI/IN-031","program":"sota","name":"Scalp Mountain","coordinates":[-7.3648,55.08997]},{"code":"EI/IN-071","program":"sota","name":"Mouldy Hill","coordinates":[-7.4461,55.10521]},{"code":"B/GI-0038","program":"wwbota","name":"ROC Post Derry","coordinates":[-7.375814,55.002877]}]}