{"lat":55,"lon":-7.75,"programs":["pota","sota"],"count":7,"references":[{"code":"IE-0120","program":"pota","name":"Ballyarr Wood Nature Reserve","coordinates":[-7.71307,55.03]},{"code":"IE-0124","program":"pota","name":"Rathmullen Wood Nature Reserve","coordinates":[-7.55904,55.0886]},{"code":"EI/IN-048","program":"sota","name":"Urris Hills","coordinates":[-7.5184,55.22229]},{"code":"EI/IN-057","program":"sota","name":"Knockalla","coordinates":[-7.6307,55.15515]},{"code":"EI/IN-060","program":"sota","name":"Craigcannon","coordinates":[-7.6183,55.118446]},{"code":"EI/IN-091","program":"sota","name":"Cnoc na Boirne","coordinates":[-7.6632,55.228184]},{"code":"EI/IN-093","program":"sota","name":"Inch Top","coordinates":[-7.5108,55.07315]}]}