{"lat":55,"lon":-2.75,"programs":["pota","sota","wwbota"],"count":6,"references":[{"code":"GB-0053","program":"pota","name":"North Pennine Dale Meadows SAC - Gowk Bank National Nature Reserve","coordinates":[-2.50413,55.0588]},{"code":"GB-1285","program":"pota","name":"Kielder Water Forest Park","coordinates":[-2.50284,55.1853]},{"code":"G/SB-005","program":"sota","name":"Sighty Crag","coordinates":[-2.626629,55.12108]},{"code":"GM/SS-161","program":"sota","name":"Larriston Fell","coordinates":[-2.678991,55.22121]},{"code":"B/G-0629","program":"wwbota","name":"ROC Post Kielder","coordinates":[-2.581547,55.219582]},{"code":"B/G-2427","program":"wwbota","name":"RAF Spadeadam test sands bunker","coordinates":[-2.5947368,55.061941]}]}