{"lat":55.25,"lon":-4.5,"programs":["gma","pota","sota","wwbota"],"count":8,"references":[{"code":"GM/HSS-042","program":"gma","name":"Big Hill of Glenmount","coordinates":[-4.43097019,55.27613831]},{"code":"GM/HSS-092","program":"gma","name":"Craig Dhu","coordinates":[-4.47840977,55.25281143]},{"code":"GM/HSS-151","program":"gma","name":"Enoch Hill","coordinates":[-4.26827002,55.33361053]},{"code":"GM/HSS-288","program":"gma","name":"Windy Standard","coordinates":[-4.32691002,55.30789185]},{"code":"GB-1372","program":"pota","name":"Ness Glen Site of Significant Scientific Interest","coordinates":[-4.40027,55.285]},{"code":"GB-3892","program":"pota","name":"Woodroad Park","coordinates":[-4.26137,55.4582]},{"code":"GM/SS-186","program":"sota","name":"Benbeoch","coordinates":[-4.374149,55.3456]},{"code":"B/GM-0078","program":"wwbota","name":"ROC Post Dalmellington","coordinates":[-4.428365,55.332967]}]}