{"lat":55.25,"lon":-2,"programs":["pota","sota","wwbota"],"count":8,"references":[{"code":"GB-1826","program":"pota","name":"Cragside Country Park","coordinates":[-1.87796,55.3136]},{"code":"GB-2159","program":"pota","name":"Simonside Hills Site of Significant Scientific Interest","coordinates":[-1.95992,55.2811]},{"code":"G/SB-007","program":"sota","name":"Tosson Hill","coordinates":[-1.993952,55.278362]},{"code":"G/SB-008","program":"sota","name":"Long Crag","coordinates":[-1.903688,55.356636]},{"code":"B/G-0622","program":"wwbota","name":"ROC Post Whittingham","coordinates":[-1.884242,55.397034]},{"code":"B/G-1915","program":"wwbota","name":"ROC Rothbury","coordinates":[-1.896673,55.285717]},{"code":"B/G-2745","program":"wwbota","name":"Old Hewick pillbox cluster","coordinates":[-1.881346,55.488077]},{"code":"B/G-2746","program":"wwbota","name":"Elingham pillbox cluster","coordinates":[-1.834375,55.470133]}]}