{"lat":55.5,"lon":-5.75,"programs":["gma","pota","sota","wwbota"],"count":8,"references":[{"code":"GM/HSS-055","program":"gma","name":"Bord Mor","coordinates":[-5.56509018,55.54684067]},{"code":"GM/HSS-075","program":"gma","name":"Cnoc an t-Samhlaidh","coordinates":[-5.50455999,55.68616104]},{"code":"GM/HSS-109","program":"gma","name":"Creag Bhan","coordinates":[-5.74421978,55.69437027]},{"code":"GB-1393","program":"pota","name":"Glenacardoch Point Site of Significant Scientific Interest","coordinates":[-5.71113,55.5772]},{"code":"GB-1394","program":"pota","name":"Rhunahaorine Point Site of Significant Scientific Interest","coordinates":[-5.66976,55.6781]},{"code":"GM/SS-193","program":"sota","name":"Beinn an Tuirc","coordinates":[-5.566618,55.567284]},{"code":"GM/SS-226","program":"sota","name":"Sgreadan Hill","coordinates":[-5.57888,55.507427]},{"code":"B/GM-0060","program":"wwbota","name":"ROC Post Glenbarr","coordinates":[-5.695624,55.571839]}]}