{"lat":55.5,"lon":-5.25,"programs":["gma","pota","sota","wwbota"],"count":13,"references":[{"code":"GM/HSS-265","program":"gma","name":"Suidhe Chatain","coordinates":[-5.03190994,55.74863815]},{"code":"GB-0832","program":"pota","name":"Brodick Castle Country Park","coordinates":[-5.15964,55.5939]},{"code":"GB-1447","program":"pota","name":"Arran Coastal Way National Scenic Trail","coordinates":[-5.08887,55.5525]},{"code":"GB-4447","program":"pota","name":"Arran Geopark","coordinates":[-5.24133,55.5655]},{"code":"GM/SI-006","program":"sota","name":"Goat Fell","coordinates":[-5.191883,55.62585]},{"code":"GM/SI-007","program":"sota","name":"Caisteal Abhail","coordinates":[-5.229293,55.649864]},{"code":"GM/SI-008","program":"sota","name":"Beinn Tarsuinn","coordinates":[-5.242083,55.621483]},{"code":"GM/SI-011","program":"sota","name":"Cir Mhor","coordinates":[-5.222529,55.639133]},{"code":"GM/SI-063","program":"sota","name":"A'Chruach","coordinates":[-5.220376,55.55326]},{"code":"GM/SI-093","program":"sota","name":"Fionn Bhealach","coordinates":[-5.220464,55.698753]},{"code":"GM/SI-143","program":"sota","name":"Mullach Mor","coordinates":[-5.069861,55.52292]},{"code":"B/GM-0111","program":"wwbota","name":"ROC Post Brodick","coordinates":[-5.119895,55.571678]},{"code":"B/GM-0504","program":"wwbota","name":"WW2 Pillbox cluster, Isle of Arran (Holy Island)","coordinates":[-5.084224,55.529564]}]}