{"lat":55.5,"lon":13,"programs":["pota"],"count":9,"references":[{"code":"SE-0231","program":"pota","name":"Stadsparken i Lund Natura 2000","coordinates":[13.1861,55.6985]},{"code":"SE-0351","program":"pota","name":"Lommaområdet Natura 2000","coordinates":[13.0541,55.6391]},{"code":"SE-0398","program":"pota","name":"Lommabukten Natura 2000","coordinates":[13.0561,55.6396]},{"code":"SE-0399","program":"pota","name":"Södra Lommabukten med Tågarps hed och Alnarps fälad Nature Reserve","coordinates":[13.0568,55.6483]},{"code":"SE-0401","program":"pota","name":"Arriesjön-Risebjär Nature Reserve","coordinates":[13.1023,55.5188]},{"code":"SE-0402","program":"pota","name":"Gavelsbjer Nature Reserve","coordinates":[13.0917,55.5188]},{"code":"SE-0403","program":"pota","name":"Torup Natura 2000","coordinates":[13.2179,55.5646]},{"code":"SE-0404","program":"pota","name":"Torups bokskog Nature Reserve","coordinates":[13.2143,55.558]},{"code":"SE-0405","program":"pota","name":"Törringelund Nature Reserve","coordinates":[13.1305,55.5288]}]}