{"lat":55.5,"lon":-4,"programs":["gma","pota","sota","wwbota"],"count":14,"references":[{"code":"GM/HSS-133","program":"gma","name":"Dillar Hill","coordinates":[-3.84018993,55.64672852]},{"code":"GM/HSS-171","program":"gma","name":"Hareshaw Hill","coordinates":[-3.96066999,55.54463959]},{"code":"GB-0847","program":"pota","name":"Clyde Valley Woodlands National Nature Reserve","coordinates":[-3.78669,55.6827]},{"code":"GB-0952","program":"pota","name":"New Lanark World Heritage Site","coordinates":[-3.78231,55.6635]},{"code":"GB-1452","program":"pota","name":"Clyde Walkway National Scenic Trail","coordinates":[-3.83091,55.6759]},{"code":"GB-3273","program":"pota","name":"Milton Nature Reserve","coordinates":[-3.85179,55.728]},{"code":"GB-3274","program":"pota","name":"Jock's Burn Nature Reserve","coordinates":[-3.83049,55.7322]},{"code":"GB-3275","program":"pota","name":"Stonehouse Park Nature Reserve","coordinates":[-3.99112,55.7021]},{"code":"GB-3276","program":"pota","name":"Morgan Glen Nature Reserve","coordinates":[-3.97894,55.729]},{"code":"GM/SS-156","program":"sota","name":"Nutberry Hill","coordinates":[-3.99432,55.58189]},{"code":"GM/SS-174","program":"sota","name":"Common Hill","coordinates":[-3.916776,55.555733]},{"code":"B/GM-0212","program":"wwbota","name":"ROC Post Lesmahagow","coordinates":[-3.909299,55.623844]},{"code":"B/GM-0213","program":"wwbota","name":"ROC Post Douglas","coordinates":[-3.834166,55.562442]},{"code":"B/GM-0214","program":"wwbota","name":"ROC Post Carluke","coordinates":[-3.806462,55.718775]}]}