{"lat":55.5,"lon":-3.75,"programs":["gma","pota","sota","wwbota"],"count":17,"references":[{"code":"GM/HSS-044","program":"gma","name":"Bizzyberry Hill","coordinates":[-3.51390004,55.63790131]},{"code":"GM/HSS-061","program":"gma","name":"Cairngryffe Hill","coordinates":[-3.68179989,55.65341949]},{"code":"GM/HSS-065","program":"gma","name":"Carmichael Hill","coordinates":[-3.70602012,55.63537979]},{"code":"GM/HSS-155","program":"gma","name":"Foreside Hill","coordinates":[-3.71315002,55.5222702]},{"code":"GM/HSS-177","program":"gma","name":"Hudderstone","coordinates":[-3.55063009,55.52812958]},{"code":"GM/HSS-258","program":"gma","name":"Startup Hill","coordinates":[-3.6229701,55.54885101]},{"code":"GM/HSS-266","program":"gma","name":"Temple Hill [Biggar Common]","coordinates":[-3.5662601,55.63634109]},{"code":"GM/HSS-283","program":"gma","name":"White Hill","coordinates":[-3.50089002,55.58863831]},{"code":"GM/HSS-292","program":"gma","name":"Black Hill","coordinates":[-3.73535,55.5005]},{"code":"GB-0831","program":"pota","name":"Braehead Moss National Nature Reserve","coordinates":[-3.6595,55.7462]},{"code":"GM/SS-049","program":"sota","name":"Culter Fell","coordinates":[-3.502694,55.546234]},{"code":"GM/SS-064","program":"sota","name":"Tinto","coordinates":[-3.662551,55.591694]},{"code":"GM/SS-165","program":"sota","name":"Dungavel Hill","coordinates":[-3.677584,55.55722]},{"code":"GM/SS-172","program":"sota","name":"Lamington Hill","coordinates":[-3.584393,55.557777]},{"code":"B/GM-0216","program":"wwbota","name":"ROC Post Abington","coordinates":[-3.708895,55.507726]},{"code":"B/GM-0218","program":"wwbota","name":"ROC Post Thankerton","coordinates":[-3.63445,55.621794]},{"code":"B/GM-0219","program":"wwbota","name":"ROC Post Dunsyre","coordinates":[-3.53641,55.693425]}]}