{"lat":55.5,"lon":-2.25,"programs":["sota","wwbota"],"count":8,"references":[{"code":"G/SB-010","program":"sota","name":"Housedon Hill","coordinates":[-2.156747,55.587948]},{"code":"B/G-0618","program":"wwbota","name":"ROC Post Norham-on-Tweed","coordinates":[-2.149887,55.709687]},{"code":"B/G-0619","program":"wwbota","name":"ROC Post Milfield","coordinates":[-2.112028,55.60469]},{"code":"B/G-0621","program":"wwbota","name":"ROC Post Hart Heugh","coordinates":[-2.02468,55.521086]},{"code":"B/G-1721","program":"wwbota","name":"RAF Milfield, WW2 ground defence bunker cluster","coordinates":[-2.084834,55.594982]},{"code":"B/G-2741","program":"wwbota","name":"Akeld pillbox","coordinates":[-2.071292,55.561184]},{"code":"B/G-2742","program":"wwbota","name":"Wooler pillbox cluster","coordinates":[-2.027074,55.545943]},{"code":"B/GM-0408","program":"wwbota","name":"Airfield Battle HQ - Winfield","coordinates":[-2.171858,55.747935]}]}