{"lat":55.5,"lon":12.25,"programs":["pota"],"count":5,"references":[{"code":"DK-0191","program":"pota","name":"Harrestrup Å og Damhussøen Park","coordinates":[12.4694,55.6844]},{"code":"DK-0194","program":"pota","name":"St. Vejleådalen, Kongsholmparken og Mølleparken Park","coordinates":[12.3184,55.6862]},{"code":"DK-0197","program":"pota","name":"Ishøj Strandenge Landscape Park","coordinates":[12.3766,55.6143]},{"code":"DK-0236","program":"pota","name":"Porsemosen og Høholmmosen Protected Area","coordinates":[12.2909,55.6948]},{"code":"DK-0253","program":"pota","name":"Vestvolden Protected Area","coordinates":[12.4379,55.6467]}]}