{"lat":55.75,"lon":12.5,"programs":["pota"],"count":7,"references":[{"code":"DK-0148","program":"pota","name":"Jægersborg Dyrehave Natura 2000","coordinates":[12.572,55.7854]},{"code":"DK-0149","program":"pota","name":"Mølleåen Park","coordinates":[12.5214,55.8063]},{"code":"DK-0153","program":"pota","name":"Rungstedlund Park","coordinates":[12.5396,55.885]},{"code":"DK-0154","program":"pota","name":"nivå ådal Nature Reserve","coordinates":[12.521,55.9294]},{"code":"DK-0159","program":"pota","name":"Humlebæk Fiskeleje Coastal Park","coordinates":[12.5462,55.974]},{"code":"SE-0353","program":"pota","name":"Vens backafall Nature Reserve","coordinates":[12.7217,55.898]},{"code":"SE-0354","program":"pota","name":"Ven Natura 2000","coordinates":[12.7217,55.898]}]}