{"lat":55.75,"lon":-2.5,"programs":["gma","pota","sota","wwbota"],"count":12,"references":[{"code":"GM/HSS-080","program":"gma","name":"Cockburn Law","coordinates":[-2.37557006,55.83031082]},{"code":"GM/HSS-082","program":"gma","name":"Cocklaw Hill","coordinates":[-2.44976997,55.93482971]},{"code":"GM/HSS-213","program":"gma","name":"Marygold Hill","coordinates":[-2.31931996,55.83821106]},{"code":"GM/HSS-220","program":"gma","name":"Meikle Black Law","coordinates":[-2.28631997,55.91017151]},{"code":"GM/HSS-280","program":"gma","name":"Wester Dod [Monynut Edge]","coordinates":[-2.47500992,55.90509033]},{"code":"GB-1355","program":"pota","name":"Pease Bay Coast Site of Significant Scientific Interest","coordinates":[-2.33893,55.9359]},{"code":"GB-1356","program":"pota","name":"Barns Ness Coast Site of Significant Scientific Interest","coordinates":[-2.44707,55.9873]},{"code":"GB-1358","program":"pota","name":"Siccar Point Site of Significant Scientific Interest","coordinates":[-2.30313,55.9308]},{"code":"GM/SS-225","program":"sota","name":"Dirrington Great Law","coordinates":[-2.482574,55.786682]},{"code":"B/GM-0101","program":"wwbota","name":"ROC Post Cockburnspath Master Post","coordinates":[-2.405846,55.944784]},{"code":"B/GM-0102","program":"wwbota","name":"ROC Post Duns Master Post","coordinates":[-2.395611,55.757391]},{"code":"B/GM-0103","program":"wwbota","name":"ROC Post Grantshouse","coordinates":[-2.295655,55.876903]}]}