{"lat":55.75,"lon":-3.75,"programs":["gma","pota","sota","wwbota"],"count":9,"references":[{"code":"GM/HSS-002","program":"gma","name":"Airngath Hill","coordinates":[-3.59816003,55.99523926]},{"code":"GB-0820","program":"pota","name":"Beecraigs Country Park","coordinates":[-3.59756,55.9554]},{"code":"GB-0949","program":"pota","name":"Muiravonside Country Park","coordinates":[-3.66132,55.9606]},{"code":"GB-3327","program":"pota","name":"Easter Inch Moss and Seafield Law Nature Reserve","coordinates":[-3.60544,55.8821]},{"code":"GM/SS-254","program":"sota","name":"Cairnpapple Hill","coordinates":[-3.621771,55.922764]},{"code":"B/GM-0217","program":"wwbota","name":"ROC Post Forth Master Post","coordinates":[-3.702113,55.779397]},{"code":"B/GM-0323","program":"wwbota","name":"ROC Post Bathgate","coordinates":[-3.62013,55.901639]},{"code":"B/GM-0324","program":"wwbota","name":"ROC Post Bo'ness","coordinates":[-3.59847,55.997175]},{"code":"B/GM-0325","program":"wwbota","name":"ROC Post West Calder","coordinates":[-3.551486,55.844923]}]}