{"lat":55.75,"lon":-2.75,"programs":["gma","pota","sota","wwbota"],"count":12,"references":[{"code":"GM/HSS-272","program":"gma","name":"Traprain Law","coordinates":[-2.67168999,55.96308899]},{"code":"GB-0822","program":"pota","name":"Belhaven (John Muir) Country Park","coordinates":[-2.56951,55.9994]},{"code":"GB-1357","program":"pota","name":"Traprain Law Site of Significant Scientific Interest","coordinates":[-2.67245,55.9641]},{"code":"GB-1502","program":"pota","name":"Lammer Law Site of Significant Scientific Interest","coordinates":[-2.74993,55.8332]},{"code":"GB-1503","program":"pota","name":"Rammer Cleugh Site of Significant Scientific Interest","coordinates":[-2.59767,55.9322]},{"code":"GM/SS-148","program":"sota","name":"Meikle Says Law","coordinates":[-2.670406,55.847027]},{"code":"GM/SS-182","program":"sota","name":"Spartleton","coordinates":[-2.555927,55.88182]},{"code":"B/GM-0099","program":"wwbota","name":"ROC Post Longformacus","coordinates":[-2.502622,55.814235]},{"code":"B/GM-0145","program":"wwbota","name":"ROC Post Garvald","coordinates":[-2.675279,55.924643]},{"code":"B/GM-0146","program":"wwbota","name":"ROC Post Dunbar","coordinates":[-2.51915,55.976794]},{"code":"B/GM-0387","program":"wwbota","name":"Airfield Battle HQ - East Fortune","coordinates":[-2.732646,55.996555]},{"code":"B/GM-0477","program":"wwbota","name":"Spruce Cleugh, WW2 Decoy Control Bunker","coordinates":[-2.5186306,55.949932]}]}