{"lat":55.75,"lon":-5.5,"programs":["gma","pota","sota","wwbota"],"count":9,"references":[{"code":"GM/HSS-111","program":"gma","name":"Creag Mhor","coordinates":[-5.31400013,55.90972137]},{"code":"GM/HSS-160","program":"gma","name":"Garadh Liath","coordinates":[-5.42692995,55.87176132]},{"code":"GB-1396","program":"pota","name":"Tarbert to Skipness Coast Site of Significant Scientific Interest","coordinates":[-5.35553,55.8325]},{"code":"GB-1397","program":"pota","name":"Glen Ralloch to Baravalla Woods Site of Significant Scientific Interest","coordinates":[-5.44794,55.8573]},{"code":"GB-5141","program":"pota","name":"Loch Lomond & Cowal Way National Scenic Trail","coordinates":[-5.31318,55.8768]},{"code":"GM/SS-137","program":"sota","name":"Stob Odhar","coordinates":[-5.491575,55.91154]},{"code":"GM/SS-213","program":"sota","name":"Cnoc a'Bhaile-shios","coordinates":[-5.411129,55.811607]},{"code":"B/GM-0064","program":"wwbota","name":"ROC Post Tarbert","coordinates":[-5.430562,55.858183]},{"code":"B/GM-0065","program":"wwbota","name":"ROC Post Tighnabruaich","coordinates":[-5.25272,55.891516]}]}