{"lat":55.75,"lon":-3.25,"programs":["pota","sota","wwbota"],"count":20,"references":[{"code":"GB-0853","program":"pota","name":"Craigmillar Castle Country Park","coordinates":[-3.14302,55.9257]},{"code":"GB-0863","program":"pota","name":"Dalkeith Country Park Country Park","coordinates":[-3.06744,55.8994]},{"code":"GB-0903","program":"pota","name":"Hillend Country Park","coordinates":[-3.20206,55.8926]},{"code":"GB-0958","program":"pota","name":"Pentland Hills Regional Park","coordinates":[-3.22893,55.8549]},{"code":"GB-0966","program":"pota","name":"Roslin Glen Country Park","coordinates":[-3.16628,55.8532]},{"code":"GB-0990","program":"pota","name":"Vogrie Country Park","coordinates":[-3.00149,55.8585]},{"code":"GB-3071","program":"pota","name":"The Old and New Towns of Edinburgh World Heritage Site","coordinates":[-3.1827,55.9549]},{"code":"GB-3083","program":"pota","name":"Gladhouse Reservoir Ramsar Site","coordinates":[-3.10327,55.7763]},{"code":"GB-3330","program":"pota","name":"Easter Craiglockhart Hill Nature Reserve","coordinates":[-3.23213,55.924]},{"code":"GB-3331","program":"pota","name":"Hermitage of Braid / Blackford Hill LNR Nature Reserve","coordinates":[-3.19425,55.9234]},{"code":"GB-3332","program":"pota","name":"Burdiehouse Burn Valley Park Nature Reserve","coordinates":[-3.15047,55.9014]},{"code":"GB-3333","program":"pota","name":"Straiton Pond Nature Reserve","coordinates":[-3.15022,55.8881]},{"code":"GB-5607","program":"pota","name":"Inverleith Park Recreation Park","coordinates":[-3.21752,55.9641]},{"code":"GB-6033","program":"pota","name":"The Meadows Park","coordinates":[-3.19153,55.9414]},{"code":"GM/SS-171","program":"sota","name":"Allermuir Hill","coordinates":[-3.237183,55.882496]},{"code":"GM/SS-272","program":"sota","name":"Arthur's Seat","coordinates":[-3.161824,55.94408]},{"code":"B/GM-0221","program":"wwbota","name":"ROC Post Penicuik","coordinates":[-3.223646,55.805849]},{"code":"B/GM-0224","program":"wwbota","name":"ROC Post Portobello","coordinates":[-3.113702,55.922537]},{"code":"B/GM-0225","program":"wwbota","name":"ROC Post Dalkeith","coordinates":[-3.024624,55.888268]},{"code":"B/GM-0474","program":"wwbota","name":"Newton House, WW2 Starfish Decoy Bunker","coordinates":[-3.0654938,55.915236]}]}