{"lat":56,"lon":-4.5,"programs":["gma","pota","sota","wwbota"],"count":30,"references":[{"code":"GM/HSS-027","program":"gma","name":"Beinn Chochan","coordinates":[-4.49634981,56.21863174]},{"code":"GM/HSS-094","program":"gma","name":"Craig Leven","coordinates":[-4.43098021,56.23072052]},{"code":"GM/HSS-170","program":"gma","name":"Gualann","coordinates":[-4.48174,56.11735916]},{"code":"GM/HSS-260","program":"gma","name":"Stob an Lochain","coordinates":[-4.4749999,56.21276855]},{"code":"GM/HSS-263","program":"gma","name":"Stuc Odhar","coordinates":[-4.34033012,56.24934006]},{"code":"GB-0807","program":"pota","name":"Achray Forest Country Park","coordinates":[-4.39828,56.2174]},{"code":"GB-0984","program":"pota","name":"The Great Trossachs Forest National Nature Reserve","coordinates":[-4.43767,56.2319]},{"code":"GB-1514","program":"pota","name":"Collymoon Moss Site of Significant Scientific Interest","coordinates":[-4.26821,56.1484]},{"code":"GB-1515","program":"pota","name":"Lake of Menteith Site of Significant Scientific Interest","coordinates":[-4.30784,56.1798]},{"code":"GB-1517","program":"pota","name":"Offerance Moss Site of Significant Scientific Interest","coordinates":[-4.35393,56.1315]},{"code":"GB-1518","program":"pota","name":"Gartfarran Woods Site of Significant Scientific Interest","coordinates":[-4.36913,56.1334]},{"code":"GB-1519","program":"pota","name":"Fairy Knowe and Doon Hill Site of Significant Scientific Interest","coordinates":[-4.37657,56.1713]},{"code":"GB-1520","program":"pota","name":"Cuilvona and Craigmore Woods Site of Significant Scientific Interest","coordinates":[-4.39526,56.1825]},{"code":"GB-1521","program":"pota","name":"Black Water Marshes Site of Significant Scientific Interest","coordinates":[-4.36623,56.22]},{"code":"GB-1522","program":"pota","name":"Brig o' Turk Mires Site of Significant Scientific Interest","coordinates":[-4.35607,56.2299]},{"code":"GB-1523","program":"pota","name":"Ben A'an and Brenachoile Woods Site of Significant Scientific Interest","coordinates":[-4.41239,56.2319]},{"code":"GB-2997","program":"pota","name":"The Trossachs Scenic Site","coordinates":[-4.40839,56.2238]},{"code":"GB-4621","program":"pota","name":"Ben A'an Forest Park","coordinates":[-4.4134,56.2344]},{"code":"GB-4622","program":"pota","name":"Ben Venue Forest Park","coordinates":[-4.41201,56.2309]},{"code":"GB-4623","program":"pota","name":"Loch Katrine Forest Park","coordinates":[-4.43028,56.2339]},{"code":"GB-4624","program":"pota","name":"Three Lochs Forest Drive Park","coordinates":[-4.39115,56.2022]},{"code":"GB-4625","program":"pota","name":"Loch Ard Forest Park","coordinates":[-4.41935,56.1787]},{"code":"GB-4626","program":"pota","name":"Lemahamish Forest Park","coordinates":[-4.3725,56.1552]},{"code":"GM/SS-058","program":"sota","name":"Ben Venue","coordinates":[-4.461986,56.225006]},{"code":"GM/SS-126","program":"sota","name":"Earl's Seat","coordinates":[-4.296327,56.02569]},{"code":"GM/SS-207","program":"sota","name":"Beinn Dearg","coordinates":[-4.276572,56.205723]},{"code":"GM/SS-223","program":"sota","name":"Craig of Monievreckie","coordinates":[-4.343554,56.188282]},{"code":"B/GM-0244","program":"wwbota","name":"ROC PostAberfoyle","coordinates":[-4.385892,56.182621]},{"code":"B/GM-0305","program":"wwbota","name":"ROC Post Killearn","coordinates":[-4.362558,56.049337]},{"code":"B/GM-0413","program":"wwbota","name":"Stirling Civil Defence Control","coordinates":[-4.337323,56.071403]}]}