{"lat":56,"lon":-6.25,"programs":["pota"],"count":5,"references":[{"code":"GB-1546","program":"pota","name":"North Colonsay Site of Significant Scientific Interest","coordinates":[-6.16697,56.1037]},{"code":"GB-1547","program":"pota","name":"West Colonsay Seabird Cliffs Site of Significant Scientific Interest","coordinates":[-6.22186,56.0984]},{"code":"GB-1548","program":"pota","name":"Loch Fada Site of Significant Scientific Interest","coordinates":[-6.19944,56.083]},{"code":"GB-1549","program":"pota","name":"Oronsay and South Colonsay Site of Significant Scientific Interest","coordinates":[-6.22641,56.0397]},{"code":"GB-2927","program":"pota","name":"Oronsay RSPB Reserve","coordinates":[-6.24285,56.0186]}]}