{"lat":56,"lon":-3,"programs":["pota","sota","wwbota"],"count":15,"references":[{"code":"GB-1455","program":"pota","name":"Fife Coastal Path National Scenic Trail","coordinates":[-2.75757,56.206]},{"code":"GB-1946","program":"pota","name":"Kilconquhar Loch Site of Significant Scientific Interest","coordinates":[-2.83133,56.2073]},{"code":"GB-3334","program":"pota","name":"Aberlady Bay Nature Reserve","coordinates":[-2.8688,56.0259]},{"code":"GB-3340","program":"pota","name":"Gillingshill Reservoir Nature Reserve","coordinates":[-2.79257,56.2467]},{"code":"GM/SS-259","program":"sota","name":"Largo Law","coordinates":[-2.925805,56.233883]},{"code":"B/GM-0143","program":"wwbota","name":"ROC Post Aberlady","coordinates":[-2.844579,56.034474]},{"code":"B/GM-0152","program":"wwbota","name":"ROC Post Leven","coordinates":[-2.986118,56.20387]},{"code":"B/GM-0155","program":"wwbota","name":"ROC Post Elie","coordinates":[-2.834664,56.192047]},{"code":"B/GM-0385","program":"wwbota","name":"Airfield Battle HQ - Drem","coordinates":[-2.809547,56.016919]},{"code":"B/GM-0430","program":"wwbota","name":"WW2 Coastal Observation Post Bunker, Kincraig (1)","coordinates":[-2.861947,56.1874]},{"code":"B/GM-0431","program":"wwbota","name":"WW2 Coastal Observation Post Bunker, Kincraig (2)","coordinates":[-2.862684,56.187134]},{"code":"B/GM-0437","program":"wwbota","name":"RAF Drem, WW2 ground defence bunker cluster","coordinates":[-2.794392,56.019252]},{"code":"B/GM-0459","program":"wwbota","name":"Lundin Links, WW2 Coastal Defence Bunkers","coordinates":[-2.9540467,56.21059]},{"code":"B/GM-0460","program":"wwbota","name":"Balcormo Mill, WW2 Auxiliary OB Bunker","coordinates":[-2.7933203,56.226641]},{"code":"B/GM-0475","program":"wwbota","name":"Elie, Coastal Defence Bunkers","coordinates":[-2.8160493,56.188128]}]}