{"lat":56,"lon":-4.75,"programs":["gma","pota","sota","wwbota"],"count":32,"references":[{"code":"GM/HSS-013","program":"gma","name":"Balcnock","coordinates":[-4.72870016,56.08533096]},{"code":"GM/HSS-025","program":"gma","name":"Beinn Bhan","coordinates":[-4.58902979,56.18167114]},{"code":"GM/HSS-039","program":"gma","name":"Ben Reoch","coordinates":[-4.72715998,56.18130875]},{"code":"GM/HSS-126","program":"gma","name":"Cruachan","coordinates":[-4.66135979,56.2329216]},{"code":"GM/HSS-193","program":"gma","name":"Knockour Hill - Mount Misery","coordinates":[-4.57317019,56.03358841]},{"code":"GB-0815","program":"pota","name":"Balloch Castle Country Park","coordinates":[-4.58578,56.013]},{"code":"GB-0929","program":"pota","name":"Loch Lomond National Nature Reserve","coordinates":[-4.52714,56.0613]},{"code":"GB-0930","program":"pota","name":"Loch Lomond and The Trossachs National Park","coordinates":[-4.67496,56.0992]},{"code":"GB-0931","program":"pota","name":"Loch Lomond Shores Country Park","coordinates":[-4.59431,56.0052]},{"code":"GB-0961","program":"pota","name":"Queen Elizabeth Forest Country Park","coordinates":[-4.59104,56.1682]},{"code":"GB-1471","program":"pota","name":"Three Lochs Way National Scenic Trail","coordinates":[-4.71375,56.0407]},{"code":"GB-1516","program":"pota","name":"Ben Lomond Site of Significant Scientific Interest","coordinates":[-4.62579,56.1878]},{"code":"GB-2926","program":"pota","name":"Loch Lomond RSPB Reserve","coordinates":[-4.51019,56.0512]},{"code":"GB-2996","program":"pota","name":"Loch Lomond Scenic Site","coordinates":[-4.63922,56.0533]},{"code":"GB-3076","program":"pota","name":"Loch Lomond Ramsar Site","coordinates":[-4.55743,56.0781]},{"code":"GB-4618","program":"pota","name":"Cruach Tairbeirt Forest Park","coordinates":[-4.72482,56.2092]},{"code":"GB-4627","program":"pota","name":"Rowardennan Forest Park","coordinates":[-4.64293,56.1575]},{"code":"GB-4628","program":"pota","name":"Balmaha Forest Park","coordinates":[-4.53869,56.0858]},{"code":"GM/SS-011","program":"sota","name":"Ben Lomond","coordinates":[-4.633009,56.190292]},{"code":"GM/SS-068","program":"sota","name":"Beinn Eich","coordinates":[-4.732345,56.114635]},{"code":"GM/SS-081","program":"sota","name":"Beinn Bhreac","coordinates":[-4.704575,56.16365]},{"code":"GM/SS-090","program":"sota","name":"Beinn Dubh","coordinates":[-4.70232,56.129482]},{"code":"GM/SS-102","program":"sota","name":"Cruinn a'Bheinn","coordinates":[-4.637088,56.210735]},{"code":"GM/SS-103","program":"sota","name":"Tullich Hill","coordinates":[-4.749948,56.167847]},{"code":"GM/SS-115","program":"sota","name":"Beinn Uamha","coordinates":[-4.604323,56.22725]},{"code":"GM/SS-117","program":"sota","name":"Beinn Uird","coordinates":[-4.578276,56.152447]},{"code":"GM/SS-124","program":"sota","name":"Binnean nan Gobhar","coordinates":[-4.545856,56.13729]},{"code":"GM/SS-162","program":"sota","name":"Beinn Dubh","coordinates":[-4.573894,56.206333]},{"code":"GM/SS-218","program":"sota","name":"Cruach Tairbeirt","coordinates":[-4.72256,56.21539]},{"code":"GM/SS-239","program":"sota","name":"Conic Hill","coordinates":[-4.521076,56.098587]},{"code":"GM/SS-251","program":"sota","name":"Ben Bowie","coordinates":[-4.664305,56.01005]},{"code":"B/GM-0137","program":"wwbota","name":"ROC Post Arrochar","coordinates":[-4.747357,56.209537]}]}