{"lat":56,"lon":-4,"programs":["gma","pota","sota","wwbota"],"count":23,"references":[{"code":"GM/HSS-086","program":"gma","name":"Core Hill","coordinates":[-3.79795003,56.22126007]},{"code":"GB-0811","program":"pota","name":"Alva Glen Country Park","coordinates":[-3.80675,56.1567]},{"code":"GB-0917","program":"pota","name":"Kippenrait Glen Protected Area","coordinates":[-3.93629,56.1756]},{"code":"GB-1457","program":"pota","name":"Forth & Clyde/Union Canal Towpath National Scenic Trail","coordinates":[-3.7548,56.0155]},{"code":"GB-1474","program":"pota","name":"Wester Moss Site of Significant Scientific Interest","coordinates":[-3.87169,56.0973]},{"code":"GB-1475","program":"pota","name":"Balquhidderock Wood Site of Significant Scientific Interest","coordinates":[-3.91573,56.0976]},{"code":"GB-1476","program":"pota","name":"Abbey Craig Site of Significant Scientific Interest","coordinates":[-3.91877,56.1379]},{"code":"GB-1477","program":"pota","name":"Wolf's Hole Quarry Site of Significant Scientific Interest","coordinates":[-3.95109,56.1598]},{"code":"GB-1478","program":"pota","name":"Craig Leith and Myreton Hill Site of Significant Scientific Interest","coordinates":[-3.83037,56.1577]},{"code":"GB-1479","program":"pota","name":"Sauchie Craig Wood Site of Significant Scientific Interest","coordinates":[-3.98595,56.0929]},{"code":"GB-1480","program":"pota","name":"Gartmorn Dam Site of Significant Scientific Interest","coordinates":[-3.75147,56.1263]},{"code":"GB-1481","program":"pota","name":"Gartmorn Dam Country Park & Nature Reserve","coordinates":[-3.75243,56.1267]},{"code":"GB-1483","program":"pota","name":"Mill Glen Site of Significant Scientific Interest","coordinates":[-3.75174,56.1593]},{"code":"GB-1489","program":"pota","name":"Carron Glen Site of Significant Scientific Interest","coordinates":[-3.94719,56.0264]},{"code":"GB-1494","program":"pota","name":"Kings Park Conservation Area","coordinates":[-3.94621,56.1138]},{"code":"GB-1495","program":"pota","name":"Kings Knot Conservation Area","coordinates":[-3.94951,56.1201]},{"code":"GB-2925","program":"pota","name":"Black Devon Wetlands RSPB Reserve","coordinates":[-3.78264,56.1016]},{"code":"GB-3325","program":"pota","name":"Bonnyfield Nature Park Nature Reserve","coordinates":[-3.90256,56.0007]},{"code":"GM/SS-059","program":"sota","name":"Ben Cleuch","coordinates":[-3.769489,56.185684]},{"code":"GM/SS-216","program":"sota","name":"Dumyat","coordinates":[-3.876602,56.157658]},{"code":"B/GM-0308","program":"wwbota","name":"ROC Post Bonnybridge","coordinates":[-3.899518,56.005125]},{"code":"B/GM-0309","program":"wwbota","name":"ROC Post Bannockburn","coordinates":[-3.8986,56.087725]},{"code":"B/GM-0412","program":"wwbota","name":"Falkirk Civil Defence Headquarters","coordinates":[-3.7910318,56.002083]}]}