{"lat":56,"lon":-3.25,"programs":["pota","sota","wwbota"],"count":10,"references":[{"code":"GB-0938","program":"pota","name":"Lomond Hills Regional Park","coordinates":[-3.24973,56.2422]},{"code":"GB-1505","program":"pota","name":"Craigmead Meadows Site of Significant Scientific Interest","coordinates":[-3.24568,56.2406]},{"code":"GB-1947","program":"pota","name":"Carriston Reservoir Site of Significant Scientific Interest","coordinates":[-3.08477,56.2199]},{"code":"GB-3085","program":"pota","name":"Firth of Forth Ramsar Site","coordinates":[-3.14841,56.1149]},{"code":"GB-3338","program":"pota","name":"Coul Den Nature Reserve","coordinates":[-3.17875,56.2205]},{"code":"GB-4522","program":"pota","name":"Star Moss Site of Significant Scientific Interest","coordinates":[-3.11799,56.2237]},{"code":"GM/SS-198","program":"sota","name":"East Lomond","coordinates":[-3.221245,56.24223]},{"code":"B/GM-0148","program":"wwbota","name":"ROC Post Leslie","coordinates":[-3.210103,56.191188]},{"code":"B/GM-0161","program":"wwbota","name":"ROC Post Dysart","coordinates":[-3.141108,56.146919]},{"code":"B/GM-0482","program":"wwbota","name":"Lummerlaws, coastal defence bunker","coordinates":[-3.223959,56.057253]}]}