{"lat":56.25,"lon":16.25,"programs":["pota"],"count":17,"references":[{"code":"SE-0359","program":"pota","name":"Albrunna Nature Conservation Reserve","coordinates":[16.4304,56.3186]},{"code":"SE-0360","program":"pota","name":"Stormaren Nature Reserve","coordinates":[16.4477,56.3436]},{"code":"SE-0361","program":"pota","name":"Kvinnsgröta Nature Conservation Reserve","coordinates":[16.4743,56.3276]},{"code":"SE-0362","program":"pota","name":"Mellstaby alvar Nature Reserve","coordinates":[16.4748,56.3345]},{"code":"SE-0363","program":"pota","name":"Solberga alvar Nature Reserve","coordinates":[16.4792,56.3457]},{"code":"SE-0378","program":"pota","name":"Bjärby Nature Reserve","coordinates":[16.4589,56.4374]},{"code":"SE-0390","program":"pota","name":"Parteby Nature Reserve","coordinates":[16.4691,56.4285]},{"code":"SE-1232","program":"pota","name":"Albrunna lund Nature Reserve","coordinates":[16.4153,56.3181]},{"code":"SE-1233","program":"pota","name":"Albrunna lund Natura 2000","coordinates":[16.4117,56.3228]},{"code":"SE-1234","program":"pota","name":"Alvlösa Nature Reserve","coordinates":[16.4543,56.4165]},{"code":"SE-1236","program":"pota","name":"Dalby lund Nature Reserve","coordinates":[16.4557,56.4762]},{"code":"SE-1237","program":"pota","name":"Dalby lund Natura 2000","coordinates":[16.4546,56.4745]},{"code":"SE-1239","program":"pota","name":"Eckelsudde Natura 2000","coordinates":[16.4043,56.4214]},{"code":"SE-1256","program":"pota","name":"Möckleby-Gårdstorp Nature Reserve","coordinates":[16.4493,56.3709]},{"code":"SE-1261","program":"pota","name":"Strandhagen Nature Reserve","coordinates":[16.3971,56.2972]},{"code":"SE-1263","program":"pota","name":"Västerstads almlund Nature Reserve","coordinates":[16.4228,56.4273]},{"code":"SE-1264","program":"pota","name":"Västerstads almlund Natura 2000","coordinates":[16.4196,56.4261]}]}