{"lat":56.25,"lon":-6.25,"programs":["pota","sota"],"count":15,"references":[{"code":"GB-0848","program":"pota","name":"Cnuic agus Cladach Mhuile Protected Area","coordinates":[-6.01431,56.4417]},{"code":"GB-1310","program":"pota","name":"Loch na Keal, Isle of Mull Scenic Site","coordinates":[-6.06137,56.4873]},{"code":"GB-1561","program":"pota","name":"Ardalanish Bay Site of Significant Scientific Interest","coordinates":[-6.24496,56.2896]},{"code":"GB-1562","program":"pota","name":"Ardtun Leaf Beds Site of Significant Scientific Interest","coordinates":[-6.24005,56.3426]},{"code":"GB-1565","program":"pota","name":"Ardmeanach Site of Significant Scientific Interest","coordinates":[-6.16816,56.3778]},{"code":"GB-1566","program":"pota","name":"Gribun Shore and Crags Site of Significant Scientific Interest","coordinates":[-6.13369,56.4379]},{"code":"GB-1567","program":"pota","name":"Ben More - Scarisdale Site of Significant Scientific Interest","coordinates":[-6.03364,56.4552]},{"code":"GB-1569","program":"pota","name":"Lagganulva Wood Site of Significant Scientific Interest","coordinates":[-6.14209,56.4984]},{"code":"GM/SI-003","program":"sota","name":"Ben More","coordinates":[-6.014015,56.424828]},{"code":"GM/SI-055","program":"sota","name":"Coirc Bheinn","coordinates":[-6.075534,56.419212]},{"code":"GM/SI-061","program":"sota","name":"Beinn na Sreine","coordinates":[-6.12361,56.39719]},{"code":"GM/SI-123","program":"sota","name":"Beinn Chreagach","coordinates":[-6.01282,56.322533]},{"code":"GM/SI-124","program":"sota","name":"Cruachan Min","coordinates":[-6.132379,56.31881]},{"code":"GM/SI-138","program":"sota","name":"Creachan Mor","coordinates":[-6.049046,56.302246]},{"code":"GM/SI-145","program":"sota","name":"Beinn Chreagach","coordinates":[-6.218893,56.48213]}]}