{"lat":56.25,"lon":-3.25,"programs":["gma","pota","sota","wwbota"],"count":21,"references":[{"code":"GM/HSS-045","program":"gma","name":"Black Hill","coordinates":[-3.21903992,56.32048035]},{"code":"GM/HSS-090","program":"gma","name":"Cowden Hill","coordinates":[-3.18844008,56.32437134]},{"code":"GM/HSS-164","program":"gma","name":"Gask Hill","coordinates":[-3.23926997,56.49547958]},{"code":"GM/HSS-235","program":"gma","name":"Ormiston Hill [Black Cairn Hill]","coordinates":[-3.24231005,56.3400116]},{"code":"GB-0841","program":"pota","name":"Camperdown Country Park","coordinates":[-3.04185,56.4813]},{"code":"GB-1952","program":"pota","name":"Lindores Loch Site of Significant Scientific Interest","coordinates":[-3.17886,56.3318]},{"code":"GB-3339","program":"pota","name":"Birnie and Gaddon Lochs Nature Reserve","coordinates":[-3.15879,56.2998]},{"code":"GB-4521","program":"pota","name":"Waltonhill and Cradle Den Site of Significant Scientific Interest","coordinates":[-3.02966,56.2723]},{"code":"GB-4527","program":"pota","name":"Black Loch (Abdie) Site of Significant Scientific Interest","coordinates":[-3.19465,56.3212]},{"code":"GB-4528","program":"pota","name":"Dunbog Bog Site of Significant Scientific Interest","coordinates":[-3.17006,56.3405]},{"code":"GB-4529","program":"pota","name":"North Fife Heaths Site of Significant Scientific Interest","coordinates":[-3.15937,56.3614]},{"code":"GB-4533","program":"pota","name":"Inchcoonans Claypit Site of Significant Scientific Interest","coordinates":[-3.22958,56.3957]},{"code":"GM/SS-262","program":"sota","name":"Norman's Law","coordinates":[-3.126658,56.369167]},{"code":"GM/SS-275","program":"sota","name":"Cairnie Hill","coordinates":[-3.166961,56.326305]},{"code":"GM/SS-277","program":"sota","name":"Mount Hill","coordinates":[-3.083769,56.335983]},{"code":"B/GM-0147","program":"wwbota","name":"ROC Post Newburgh - Fife","coordinates":[-3.228144,56.352202]},{"code":"B/GM-0149","program":"wwbota","name":"ROC Post Falkland","coordinates":[-3.198379,56.254468]},{"code":"B/GM-0150","program":"wwbota","name":"ROC Post Gauldry","coordinates":[-3.031939,56.403228]},{"code":"B/GM-0265","program":"wwbota","name":"ROC Post Abernyte","coordinates":[-3.208102,56.475671]},{"code":"B/GM-0445","program":"wwbota","name":"RAF Errol, WW2 ground defence bunker cluster","coordinates":[-3.185286,56.399611]},{"code":"B/GM-0506","program":"wwbota","name":"Merville House bunker","coordinates":[-3.1275,56.30321]}]}