{"lat":56.25,"lon":-4.25,"programs":["gma","pota","sota","wwbota"],"count":22,"references":[{"code":"GM/HSS-031","program":"gma","name":"Beinn nan Eun","coordinates":[-4.06486988,56.29309082]},{"code":"GM/HSS-113","program":"gma","name":"Creag Uchdag - Creag nan Eun","coordinates":[-4.06723022,56.46139908]},{"code":"GM/HSS-219","program":"gma","name":"Meall nan Saighdearan","coordinates":[-4.15128994,56.3644104]},{"code":"GM/HSS-249","program":"gma","name":"Ruadh Mheall","coordinates":[-4.14998007,56.45608902]},{"code":"XGM/SS-067","program":"gma","name":"Beinn Dearg","coordinates":[-4.11019993,56.35169983]},{"code":"GB-1854","program":"pota","name":"Coille Chriche Site of Significant Scientific Interest","coordinates":[-4.2465,56.3787]},{"code":"GB-1856","program":"pota","name":"Comrie Woods Site of Significant Scientific Interest","coordinates":[-4.00737,56.3775]},{"code":"GB-1858","program":"pota","name":"Cambusurich Wood Site of Significant Scientific Interest","coordinates":[-4.23351,56.4855]},{"code":"GB-2998","program":"pota","name":"River Earn (Comrie to St Fillans) Scenic Site","coordinates":[-4.08003,56.3836]},{"code":"GM/SS-008","program":"sota","name":"Ben Vorlich","coordinates":[-4.219448,56.34268]},{"code":"GM/SS-010","program":"sota","name":"Stuc a'Chroin","coordinates":[-4.237533,56.329315]},{"code":"GM/SS-022","program":"sota","name":"Creag Uchdag","coordinates":[-4.098107,56.46528]},{"code":"GM/SS-035","program":"sota","name":"Meall na Fearna","coordinates":[-4.184316,56.341248]},{"code":"GM/SS-047","program":"sota","name":"Shee of Ardtalnaig","coordinates":[-4.06498,56.49139]},{"code":"GM/SS-063","program":"sota","name":"Creag Ruadh","coordinates":[-4.152177,56.4368]},{"code":"GM/SS-084","program":"sota","name":"Creag Each","coordinates":[-4.185403,56.4103]},{"code":"GM/SS-085","program":"sota","name":"Uamh Bheag","coordinates":[-4.11566,56.28102]},{"code":"GM/SS-098","program":"sota","name":"Mor Bheinn","coordinates":[-4.079709,56.36537]},{"code":"GM/SS-099","program":"sota","name":"Creag Gharbh","coordinates":[-4.221506,56.46677]},{"code":"GM/SS-149","program":"sota","name":"Ben Clach","coordinates":[-4.007267,56.31322]},{"code":"GM/SS-288","program":"sota","name":"Creag na h-Eararuidh [Stuc na Cabaig]","coordinates":[-4.128961,56.34503]},{"code":"B/GM-0247","program":"wwbota","name":"ROC Post Callander","coordinates":[-4.198011,56.250452]}]}