{"lat":56.25,"lon":-7,"programs":["pota","wwbota"],"count":6,"references":[{"code":"GB-1581","program":"pota","name":"Sleibhtean agus Cladach Thiriodh Site of Significant Scientific Interest","coordinates":[-6.86153,56.492]},{"code":"GB-1583","program":"pota","name":"Ceann a' Mhara to Loch a' Phuill Site of Significant Scientific Interest","coordinates":[-6.95575,56.4682]},{"code":"GB-1589","program":"pota","name":"Tiree Wetlands and Coast Ramsar Site","coordinates":[-6.87809,56.4883]},{"code":"B/GM-0044","program":"wwbota","name":"ROC Post Scarinish - Tiree","coordinates":[-6.88479,56.498294]},{"code":"B/GM-0536","program":"wwbota","name":"Barrapol Chain Home","coordinates":[-6.93224,56.479041]},{"code":"B/GM-0537","program":"wwbota","name":"Tiree Airfield Battle HQ","coordinates":[-6.877,56.497]}]}