{"lat":56.25,"lon":-6,"programs":["pota","sota","wwbota"],"count":22,"references":[{"code":"GB-1558","program":"pota","name":"Loch Sguabain Site of Significant Scientific Interest","coordinates":[-5.84155,56.4014]},{"code":"GB-1559","program":"pota","name":"Allt Molach Site of Significant Scientific Interest","coordinates":[-5.85086,56.4143]},{"code":"GB-1560","program":"pota","name":"South Mull Coast Site of Significant Scientific Interest","coordinates":[-5.97303,56.3213]},{"code":"GB-1563","program":"pota","name":"Cruach Choireadail Site of Significant Scientific Interest","coordinates":[-5.90004,56.4048]},{"code":"GB-1564","program":"pota","name":"Coladoir Bog Site of Significant Scientific Interest","coordinates":[-5.97019,56.3923]},{"code":"GB-1568","program":"pota","name":"Loch Ba Woodland Site of Significant Scientific Interest","coordinates":[-5.96,56.482]},{"code":"GB-1636","program":"pota","name":"Mull Oakwoods Special Conservation Area","coordinates":[-5.76054,56.4057]},{"code":"GM/SI-016","program":"sota","name":"Dun da Ghaoithe","coordinates":[-5.779508,56.460438]},{"code":"GM/SI-017","program":"sota","name":"Beinn Talaidh","coordinates":[-5.854288,56.44457]},{"code":"GM/SI-019","program":"sota","name":"Sgurr Dearg","coordinates":[-5.788867,56.44012]},{"code":"GM/SI-029","program":"sota","name":"Ben Buie","coordinates":[-5.88177,56.37508]},{"code":"GM/SI-031","program":"sota","name":"Corra-bheinn","coordinates":[-5.936299,56.4193]},{"code":"GM/SI-034","program":"sota","name":"Beinn Fhada","coordinates":[-5.992496,56.44197]},{"code":"GM/SI-035","program":"sota","name":"Creach Beinn","coordinates":[-5.819701,56.381992]},{"code":"GM/SI-040","program":"sota","name":"Cruach Choireadail","coordinates":[-5.90011,56.405125]},{"code":"GM/SI-043","program":"sota","name":"Beinn a'Ghraig","coordinates":[-5.992294,56.463245]},{"code":"GM/SI-067","program":"sota","name":"Beinn na Croise","coordinates":[-5.951659,56.355164]},{"code":"GM/SI-085","program":"sota","name":"Beinn na Duatharach","coordinates":[-5.889406,56.458145]},{"code":"GM/SI-106","program":"sota","name":"Beinn Bhuidhe","coordinates":[-5.916267,56.4898]},{"code":"GM/SI-109","program":"sota","name":"Druim Fada","coordinates":[-5.808587,56.336773]},{"code":"GM/SI-135","program":"sota","name":"Maol Ban","coordinates":[-5.75028,56.350407]},{"code":"B/GM-0582","program":"wwbota","name":"Carsaig Chain Home Low radar station","coordinates":[-5.975629,56.32281]}]}