{"lat":56.5,"lon":-4.75,"programs":["pota","sota"],"count":18,"references":[{"code":"GB-1794","program":"pota","name":"Ben Heasgarnich Special Conservation Area","coordinates":[-4.58008,56.5088]},{"code":"GB-3384","program":"pota","name":"Rannoch Lochs Protected Area","coordinates":[-4.67681,56.6336]},{"code":"GM/CS-006","program":"sota","name":"Beinn a'Chreachain","coordinates":[-4.647622,56.560387]},{"code":"GM/CS-007","program":"sota","name":"Beinn Heasgarnich","coordinates":[-4.579218,56.510273]},{"code":"GM/CS-008","program":"sota","name":"Beinn Dorain","coordinates":[-4.722157,56.50287]},{"code":"GM/CS-018","program":"sota","name":"Beinn Achaladair","coordinates":[-4.69453,56.55189]},{"code":"GM/CS-025","program":"sota","name":"Beinn an Dothaidh","coordinates":[-4.713964,56.53013]},{"code":"GM/CS-034","program":"sota","name":"Beinn Mhanach","coordinates":[-4.646042,56.534042]},{"code":"GM/CS-048","program":"sota","name":"Meall Buidhe","coordinates":[-4.562,56.570152]},{"code":"GM/CS-066","program":"sota","name":"Sron a'Choire Chnapanich","coordinates":[-4.514859,56.57418]},{"code":"GM/CS-075","program":"sota","name":"Beinn nam Fuaran","coordinates":[-4.664664,56.507156]},{"code":"GM/CS-076","program":"sota","name":"Meall nan Subh","coordinates":[-4.503808,56.524498]},{"code":"GM/WS-110","program":"sota","name":"Leum Uilleim","coordinates":[-4.730756,56.73893]},{"code":"GM/WS-136","program":"sota","name":"Meall na Meoig","coordinates":[-4.538979,56.743614]},{"code":"GM/WS-201","program":"sota","name":"Stob na Cruaiche","coordinates":[-4.672645,56.676918]},{"code":"GM/WS-286","program":"sota","name":"Leathad Mor","coordinates":[-4.644662,56.622894]},{"code":"GM/WS-300","program":"sota","name":"Sron Smeur","coordinates":[-4.530629,56.707493]},{"code":"GM/WS-303","program":"sota","name":"Glas Bheinn","coordinates":[-4.726247,56.58786]}]}