{"lat":56.5,"lon":-3,"programs":["gma","pota","sota","wwbota"],"count":15,"references":[{"code":"GM/HSS-147","program":"gma","name":"Dunnichen Hill","coordinates":[-2.80367994,56.63562012]},{"code":"GM/HSS-156","program":"gma","name":"Fothringham Hill","coordinates":[-2.87132001,56.59923172]},{"code":"GB-0861","program":"pota","name":"Crombie Country Park Country Park","coordinates":[-2.77535,56.5522]},{"code":"GB-0881","program":"pota","name":"Forfar Loch Country Park","coordinates":[-2.89905,56.6456]},{"code":"GB-0943","program":"pota","name":"Monikie Country Park","coordinates":[-2.812,56.5348]},{"code":"GB-1867","program":"pota","name":"Rescobie and Balgavies Lochs Site of Significant Scientific Interest","coordinates":[-2.77346,56.65]},{"code":"GM/SS-271","program":"sota","name":"Turin Hill","coordinates":[-2.793552,56.671154]},{"code":"B/GM-0031","program":"wwbota","name":"ROC Post Powrie Brae","coordinates":[-2.937648,56.502536]},{"code":"B/GM-0032","program":"wwbota","name":"ROC Post Forfar","coordinates":[-2.883444,56.6306]},{"code":"B/GM-0033","program":"wwbota","name":"ROC Post Fern","coordinates":[-2.844663,56.747842]},{"code":"B/GM-0035","program":"wwbota","name":"ROC Post Newbigging Master Post","coordinates":[-2.794093,56.528513]},{"code":"B/GM-0036","program":"wwbota","name":"ROC Post Aberlemno","coordinates":[-2.776623,56.68351]},{"code":"B/GM-0037","program":"wwbota","name":"ROC Post Letham Master Post","coordinates":[-2.772754,56.638075]},{"code":"B/GM-0349","program":"wwbota","name":"Chain Home - Douglas Wood","coordinates":[-2.837603,56.562727]},{"code":"B/GM-0406","program":"wwbota","name":"Airfield Battle HQ - Tealing","coordinates":[-2.963749,56.525966]}]}