{"lat":56.5,"lon":-132.5,"programs":["sota"],"count":11,"references":[{"code":"KLS/PE-007","program":"sota","name":"Wilkes Range (HP)","coordinates":[-132.3916,56.7069]},{"code":"KLS/PE-008","program":"sota","name":"Wilkes Peak","coordinates":[-132.4764,56.7296]},{"code":"KLS/WR-106","program":"sota","name":"4510","coordinates":[-132.3042,56.7315]},{"code":"KLS/WR-155","program":"sota","name":"Wrangell Peak","coordinates":[-132.3221,56.5422]},{"code":"KLS/WR-175","program":"sota","name":"3360","coordinates":[-132.3696,56.6942]},{"code":"KLS/WR-185","program":"sota","name":"3250","coordinates":[-132.26,56.5874]},{"code":"KLS/WR-193","program":"sota","name":"Garnet Mountain","coordinates":[-132.3355,56.5656]},{"code":"KLS/WR-213","program":"sota","name":"2905","coordinates":[-132.3051,56.5862]},{"code":"KLS/WR-239","program":"sota","name":"Farm Island","coordinates":[-132.3684,56.6502]},{"code":"KLS/WR-277","program":"sota","name":"Kadin Island","coordinates":[-132.4552,56.5291]},{"code":"KLS/WR-312","program":"sota","name":"Sergief Island","coordinates":[-132.4166,56.5942]}]}