{"lat":56.5,"lon":16.25,"programs":["pota"],"count":10,"references":[{"code":"SE-0387","program":"pota","name":"Mysinge Nature Reserve","coordinates":[16.4568,56.5227]},{"code":"SE-0393","program":"pota","name":"Vickleby ädellövskog Nature Reserve","coordinates":[16.4351,56.5962]},{"code":"SE-0394","program":"pota","name":"Vickleby ädellövskog Natura 2000","coordinates":[16.4334,56.5924]},{"code":"SE-0406","program":"pota","name":"Beijershamn Nature Reserve","coordinates":[16.4171,56.5893]},{"code":"SE-0407","program":"pota","name":"Beijershamn och Svansholmarna Natura 2000","coordinates":[16.4136,56.5849]},{"code":"SE-0408","program":"pota","name":"Stora alvaret Natura 2000","coordinates":[16.4958,56.5723]},{"code":"SE-1253","program":"pota","name":"Lilla Vickleby lund Nature Reserve","coordinates":[16.4431,56.5717]},{"code":"SE-1254","program":"pota","name":"Lilla Vickleby lund Natura 2000","coordinates":[16.4415,56.5678]},{"code":"SE-1259","program":"pota","name":"Skogsbylund Nature Reserve","coordinates":[16.497,56.6229]},{"code":"SE-1260","program":"pota","name":"Skogsbylund Natura 2000","coordinates":[16.4982,56.6252]}]}