{"lat":56.5,"lon":-4.5,"programs":["pota","sota"],"count":16,"references":[{"code":"GB-0824","program":"pota","name":"Ben Lawers National Nature Reserve","coordinates":[-4.29697,56.5112]},{"code":"GB-1779","program":"pota","name":"Black Wood of Rannoch Site of Significant Scientific Interest","coordinates":[-4.39131,56.6805]},{"code":"GB-1785","program":"pota","name":"Meall Ghaordie Site of Significant Scientific Interest","coordinates":[-4.41655,56.5256]},{"code":"GM/CS-010","program":"sota","name":"Meall Corranaich","coordinates":[-4.253469,56.540947]},{"code":"GM/CS-015","program":"sota","name":"Meall nan Tarmachan","coordinates":[-4.301343,56.521656]},{"code":"GM/CS-017","program":"sota","name":"Meall Ghaordaidh","coordinates":[-4.416654,56.52581]},{"code":"GM/CS-032","program":"sota","name":"Stuchd an Lochain","coordinates":[-4.470602,56.570908]},{"code":"GM/CS-040","program":"sota","name":"Meall Buidhe","coordinates":[-4.44864,56.61722]},{"code":"GM/CS-041","program":"sota","name":"Meall a'Choire Leith","coordinates":[-4.259617,56.56631]},{"code":"GM/CS-047","program":"sota","name":"Beinn nan Oighreag","coordinates":[-4.373237,56.540092]},{"code":"GM/CS-058","program":"sota","name":"Cam Chreag","coordinates":[-4.385627,56.611088]},{"code":"GM/CS-068","program":"sota","name":"Beinn Dearg","coordinates":[-4.268971,56.61893]},{"code":"GM/CS-082","program":"sota","name":"Meall nam Maigheach","coordinates":[-4.302495,56.562874]},{"code":"GM/CS-087","program":"sota","name":"Meall a'Mhuic","coordinates":[-4.317252,56.62743]},{"code":"GM/CS-099","program":"sota","name":"Leagag","coordinates":[-4.417577,56.6535]},{"code":"GM/CS-124","program":"sota","name":"Meall Chomraidh","coordinates":[-4.475545,56.66814]}]}