{"lat":56.75,"lon":-4.25,"programs":["pota","sota","wwbota"],"count":12,"references":[{"code":"GB-1773","program":"pota","name":"Drumochter Hills Site of Significant Scientific Interest","coordinates":[-4.24655,56.8557]},{"code":"GB-1777","program":"pota","name":"Glen Garry Site of Significant Scientific Interest","coordinates":[-4.11231,56.8113]},{"code":"GB-3182","program":"pota","name":"Drumochter Hills Special Conservation Area","coordinates":[-4.2478,56.859]},{"code":"GM/CS-035","program":"sota","name":"Meall Chuaich","coordinates":[-4.112568,56.96385]},{"code":"GM/CS-039","program":"sota","name":"Carn na Caim","coordinates":[-4.174478,56.91174]},{"code":"GM/CS-057","program":"sota","name":"A'Chaoirnich","coordinates":[-4.078194,56.90042]},{"code":"GM/CS-069","program":"sota","name":"An Dun","coordinates":[-4.108635,56.8948]},{"code":"GM/CS-083","program":"sota","name":"Meall na Leitreach","coordinates":[-4.227991,56.80404]},{"code":"GM/CS-084","program":"sota","name":"Meallach Mhor","coordinates":[-4.015269,56.99279]},{"code":"GM/CS-092","program":"sota","name":"Creag Ruadh","coordinates":[-4.163957,56.966385]},{"code":"GM/CS-098","program":"sota","name":"Creag a'Mhadaidh","coordinates":[-4.234726,56.75674]},{"code":"B/GM-0182","program":"wwbota","name":"ROC Post Dalwhinnie","coordinates":[-4.243457,56.946989]}]}