{"lat":56.75,"lon":-2.75,"programs":["pota","sota","wwbota"],"count":7,"references":[{"code":"GB-1901","program":"pota","name":"Gannochy Gorge Site of Significant Scientific Interest","coordinates":[-2.6653,56.8346]},{"code":"GB-1902","program":"pota","name":"North Esk and West Water Palaeochannels Site of Significant Scientific Interest","coordinates":[-2.62939,56.8039]},{"code":"GM/ES-032","program":"sota","name":"Mount Battock","coordinates":[-2.741962,56.949265]},{"code":"GM/ES-059","program":"sota","name":"Kerloch","coordinates":[-2.500912,56.98117]},{"code":"GM/ES-075","program":"sota","name":"Strathfinella Hill","coordinates":[-2.50554,56.89896]},{"code":"B/GM-0040","program":"wwbota","name":"ROC Post Edzell Master Post","coordinates":[-2.667062,56.810817]},{"code":"B/GM-0420","program":"wwbota","name":"RAF Edzell bunker","coordinates":[-2.605527,56.809309]}]}