{"lat":56.75,"lon":-2.5,"programs":["pota","sota","wwbota"],"count":11,"references":[{"code":"GB-0976","program":"pota","name":"St Cyrus National Nature Reserve","coordinates":[-2.42383,56.7616]},{"code":"GB-1870","program":"pota","name":"St Cyrus and Kinnaber Links Site of Significant Scientific Interest","coordinates":[-2.41174,56.7672]},{"code":"GB-6674","program":"pota","name":"West Bradieston and Craig of Garvock Site of Significant Scientific Interest","coordinates":[-2.44464,56.8104]},{"code":"GM/ES-085","program":"sota","name":"Hill of Garvock","coordinates":[-2.449335,56.813362]},{"code":"B/GM-0190","program":"wwbota","name":"ROC Post Laurencekirk","coordinates":[-2.472086,56.843958]},{"code":"B/GM-0191","program":"wwbota","name":"ROC PostAuchenblae","coordinates":[-2.447649,56.89786]},{"code":"B/GM-0192","program":"wwbota","name":"ROC Post St. Cyrus","coordinates":[-2.407707,56.772676]},{"code":"B/GM-0193","program":"wwbota","name":"ROC Post Inverbervie","coordinates":[-2.290139,56.845412]},{"code":"B/GM-0374","program":"wwbota","name":"ROTOR Radar - Inverbervie (LGZ)","coordinates":[-2.262315,56.851762]},{"code":"B/GM-0485","program":"wwbota","name":"Bervie Bay, coastal defence bunker","coordinates":[-2.276004,56.840414]},{"code":"B/GM-0593","program":"wwbota","name":"Bervie Bay pillbox","coordinates":[-2.270288,56.84389]}]}