{"lat":57,"lon":-5.75,"programs":["gma","pota","sota"],"count":27,"references":[{"code":"XGM/WS-330","program":"gma","name":"Glas Bheinn","coordinates":[-5.61460018,57.24119949]},{"code":"GB-2097","program":"pota","name":"Rubha Camas na Cailinn Site of Significant Scientific Interest","coordinates":[-5.55042,57.1165]},{"code":"GB-2098","program":"pota","name":"Coille Mhialairidh Site of Significant Scientific Interest","coordinates":[-5.60975,57.1465]},{"code":"GB-2099","program":"pota","name":"Eilean Chlamail - Camas nan Ceann Site of Significant Scientific Interest","coordinates":[-5.68119,57.1513]},{"code":"GB-2100","program":"pota","name":"Beinn a' Chapuill Site of Significant Scientific Interest","coordinates":[-5.58398,57.1743]},{"code":"GB-2101","program":"pota","name":"Druim Iosal Site of Significant Scientific Interest","coordinates":[-5.55088,57.1844]},{"code":"GB-2102","program":"pota","name":"Allt Cracaig Coast Site of Significant Scientific Interest","coordinates":[-5.64528,57.1955]},{"code":"GB-2103","program":"pota","name":"Cosag Sallow Carr Site of Significant Scientific Interest","coordinates":[-5.60697,57.2168]},{"code":"GB-3011","program":"pota","name":"Knoydart Scenic Site","coordinates":[-5.64586,57.0859]},{"code":"GM/SI-020","program":"sota","name":"Sgurr na Coinnich","coordinates":[-5.709427,57.23615]},{"code":"GM/SI-023","program":"sota","name":"Beinn na Caillich","coordinates":[-5.696791,57.242916]},{"code":"GM/SI-041","program":"sota","name":"Ben Aslak","coordinates":[-5.725955,57.207546]},{"code":"GM/WS-046","program":"sota","name":"Ladhar Bheinn","coordinates":[-5.591745,57.075264]},{"code":"GM/WS-073","program":"sota","name":"Beinn Sgritheall","coordinates":[-5.579711,57.153816]},{"code":"GM/WS-084","program":"sota","name":"Meall Buidhe","coordinates":[-5.546334,57.03155]},{"code":"GM/WS-089","program":"sota","name":"Luinne Bheinn","coordinates":[-5.513607,57.048325]},{"code":"GM/WS-148","program":"sota","name":"Beinn Bhuidhe","coordinates":[-5.589145,57.0101]},{"code":"GM/WS-167","program":"sota","name":"Beinn na h-Eaglaise","coordinates":[-5.548692,57.14863]},{"code":"GM/WS-174","program":"sota","name":"Sgurr Coire Choinnichean","coordinates":[-5.643923,57.047638]},{"code":"GM/WS-182","program":"sota","name":"Beinn na Caillich","coordinates":[-5.640339,57.09827]},{"code":"GM/WS-188","program":"sota","name":"Beinn nan Caorach","coordinates":[-5.520434,57.15047]},{"code":"GM/WS-196","program":"sota","name":"Beinn a'Chapuill","coordinates":[-5.582893,57.173187]},{"code":"GM/WS-267","program":"sota","name":"Beinn a'Chuirn","coordinates":[-5.53133,57.238987]},{"code":"GM/WS-287","program":"sota","name":"Beinn Mhialairigh","coordinates":[-5.638889,57.153687]},{"code":"GM/WS-295","program":"sota","name":"Druim na Cluain-airighe","coordinates":[-5.710454,57.067142]},{"code":"GM/WS-326","program":"sota","name":"Beinn a'Chaoinich","coordinates":[-5.545073,57.20617]},{"code":"GM/WS-349","program":"sota","name":"Glas Bheinn","coordinates":[-5.612056,57.243313]}]}