{"lat":57,"lon":-4.75,"programs":["pota","sota","wwbota"],"count":15,"references":[{"code":"GB-1459","program":"pota","name":"Great Glen Way National Scenic Trail","coordinates":[-4.59125,57.215]},{"code":"GB-1999","program":"pota","name":"Glen Tarff Site of Significant Scientific Interest","coordinates":[-4.6796,57.129]},{"code":"GB-2004","program":"pota","name":"Glendoe Lochans Site of Significant Scientific Interest","coordinates":[-4.56965,57.0995]},{"code":"GB-2005","program":"pota","name":"Loch Knockie and nearby Lochs Special Protected Area","coordinates":[-4.56729,57.1798]},{"code":"GB-2006","program":"pota","name":"Ness Woods Special Conservation Area","coordinates":[-4.58177,57.1977]},{"code":"GB-2007","program":"pota","name":"River Moriston Special Conservation Area","coordinates":[-4.65321,57.218]},{"code":"GB-2008","program":"pota","name":"Levishie Wood Site of Significant Scientific Interest","coordinates":[-4.64715,57.2236]},{"code":"GM/CS-052","program":"sota","name":"Gairbeinn","coordinates":[-4.539681,57.051987]},{"code":"GM/CS-072","program":"sota","name":"Carn a'Chuilinn","coordinates":[-4.614836,57.09427]},{"code":"GM/CS-073","program":"sota","name":"Carn Dearg","coordinates":[-4.720434,57.031128]},{"code":"GM/CS-085","program":"sota","name":"Carn Dearg","coordinates":[-4.707348,57.01574]},{"code":"GM/CS-104","program":"sota","name":"Beinn a'Bhacaidh","coordinates":[-4.595836,57.17125]},{"code":"GM/WS-266","program":"sota","name":"Burach","coordinates":[-4.677549,57.18953]},{"code":"B/GM-0166","program":"wwbota","name":"ROC Post Fort Augustus","coordinates":[-4.688124,57.134407]},{"code":"B/GM-0167","program":"wwbota","name":"ROC Post Gorthleck","coordinates":[-4.50301,57.205279]}]}