{"lat":57,"lon":15,"programs":["pota"],"count":8,"references":[{"code":"SE-0477","program":"pota","name":"Svarta hål Nature Reserve","coordinates":[15.217,57.2379]},{"code":"SE-0473","program":"pota","name":"Fagraholms fly Nature Reserve","coordinates":[15.2362,57.1138]},{"code":"SE-0494","program":"pota","name":"Rosenholm Natura 2000","coordinates":[15.2103,57.1351]},{"code":"SE-0497","program":"pota","name":"Soldatmossen Nature Reserve","coordinates":[15.1487,57.0562]},{"code":"SE-0504","program":"pota","name":"Änghults björkhage Nature Reserve","coordinates":[15.1462,57.1399]},{"code":"SE-0505","program":"pota","name":"Ösjöbol Nature Reserve","coordinates":[15.2317,57.1832]},{"code":"SE-0506","program":"pota","name":"Getaryggarna Nature Reserve","coordinates":[15.1038,57.182]},{"code":"SE-0509","program":"pota","name":"Horshaga fly Nature Reserve","coordinates":[15.2348,57.1688]}]}