{"lat":57,"lon":-2.75,"programs":["pota","sota","wwbota"],"count":8,"references":[{"code":"GB-0865","program":"pota","name":"Deeside Activity Park Country Park","coordinates":[-2.71745,57.1025]},{"code":"GB-0901","program":"pota","name":"Haughton Country Park","coordinates":[-2.69474,57.2413]},{"code":"GB-1888","program":"pota","name":"River Dee Special Conservation Area","coordinates":[-2.56673,57.0503]},{"code":"GM/ES-065","program":"sota","name":"Benaquhallie","coordinates":[-2.65245,57.16744]},{"code":"GM/ES-070","program":"sota","name":"Hill of Fare","coordinates":[-2.543536,57.11613]},{"code":"GM/ES-072","program":"sota","name":"Cairn William","coordinates":[-2.571282,57.24076]},{"code":"B/GM-0005","program":"wwbota","name":"ROC Post Alford","coordinates":[-2.721609,57.236151]},{"code":"B/GM-0189","program":"wwbota","name":"ROC Post Feughside","coordinates":[-2.591055,57.017912]}]}