{"lat":57,"lon":-6.5,"programs":["pota","sota"],"count":7,"references":[{"code":"GB-0862","program":"pota","name":"Cuillins (Isle of Skye) Protected Area","coordinates":[-6.25757,57.2373]},{"code":"GB-0968","program":"pota","name":"Rum National Nature Reserve","coordinates":[-6.26785,57.0102]},{"code":"GB-2045","program":"pota","name":"Rum Special Protected Area","coordinates":[-6.37779,57.0068]},{"code":"GM/SI-050","program":"sota","name":"Orval","coordinates":[-6.39314,57.00588]},{"code":"GM/SI-082","program":"sota","name":"Beinn a'Bhraghad","coordinates":[-6.295516,57.24587]},{"code":"GM/SI-096","program":"sota","name":"An Cruachan","coordinates":[-6.338703,57.218254]},{"code":"GM/SI-147","program":"sota","name":"Mullach Mor","coordinates":[-6.308654,57.030415]}]}