{"lat":57,"lon":-5.25,"programs":["pota","sota"],"count":16,"references":[{"code":"GB-2123","program":"pota","name":"West Inverness-shire Lochs Special Protected Area","coordinates":[-5.03036,57.1479]},{"code":"GM/WS-014","program":"sota","name":"A'Chralaig","coordinates":[-5.154837,57.184185]},{"code":"GM/WS-016","program":"sota","name":"Sgurr nan Conbhairean","coordinates":[-5.095407,57.177624]},{"code":"GM/WS-018","program":"sota","name":"Mullach Fraoch-choire","coordinates":[-5.155652,57.20538]},{"code":"GM/WS-036","program":"sota","name":"Gleouraich","coordinates":[-5.238035,57.097164]},{"code":"GM/WS-045","program":"sota","name":"Aonach air Chrith","coordinates":[-5.221291,57.12464]},{"code":"GM/WS-056","program":"sota","name":"Aonach Meadhoin","coordinates":[-5.229166,57.173027]},{"code":"GM/WS-060","program":"sota","name":"Spidean Mialach","coordinates":[-5.193614,57.088963]},{"code":"GM/WS-070","program":"sota","name":"Ciste Dhubh","coordinates":[-5.209032,57.199234]},{"code":"GM/WS-120","program":"sota","name":"Aonach Shasuinn","coordinates":[-5.026852,57.21638]},{"code":"GM/WS-141","program":"sota","name":"Carn a'Choire Ghairbh","coordinates":[-5.087627,57.222595]},{"code":"GM/WS-168","program":"sota","name":"Geal Charn","coordinates":[-5.037525,57.0026]},{"code":"GM/WS-170","program":"sota","name":"Am Bathach","coordinates":[-5.189141,57.179256]},{"code":"GM/WS-179","program":"sota","name":"Druim nan Cnamh","coordinates":[-5.089277,57.122036]},{"code":"GM/WS-197","program":"sota","name":"Sgurr Choinich","coordinates":[-5.084898,57.007763]},{"code":"GM/WS-248","program":"sota","name":"Meall Blair","coordinates":[-5.167566,57.00639]}]}