{"lat":57,"lon":12,"programs":["pota"],"count":6,"references":[{"code":"SE-0088","program":"pota","name":"Gamla Köpstad (norra) Nature Reserve","coordinates":[12.2469,57.0634]},{"code":"SE-0429","program":"pota","name":"Västra Getterön Nature Reserve","coordinates":[12.1941,57.1192]},{"code":"SE-0726","program":"pota","name":"Västra Getterön Natura 2000","coordinates":[12.1945,57.1194]},{"code":"SE-0780","program":"pota","name":"Balgö Natura 2000","coordinates":[12.1217,57.1677]},{"code":"SE-0784","program":"pota","name":"Gamla Varberg Natura 2000","coordinates":[12.2347,57.1599]},{"code":"SE-0785","program":"pota","name":"Gamla Varberg och Fyrkullens kustlandskap National Reserve","coordinates":[12.2328,57.1602]}]}