{"lat":57.25,"lon":18,"programs":["pota"],"count":5,"references":[{"code":"SE-0440","program":"pota","name":"Ekstakusten Nature Reserve","coordinates":[18.0968,57.2793]},{"code":"SE-0454","program":"pota","name":"Lilla Karlsö Nature Reserve","coordinates":[18.0632,57.3127]},{"code":"SE-0461","program":"pota","name":"Smågårde naturskog Nature Reserve","coordinates":[18.1307,57.4924]},{"code":"SE-1905","program":"pota","name":"Ugnen Natura 2000","coordinates":[18.1105,57.2552]},{"code":"SE-1906","program":"pota","name":"Gannarveviken Natura 2000","coordinates":[18.1775,57.3453]}]}