{"lat":57.25,"lon":12,"programs":["pota"],"count":16,"references":[{"code":"SE-0064","program":"pota","name":"Kungsbackafjorden Nature Reserve","coordinates":[12.0661,57.3923]},{"code":"SE-0067","program":"pota","name":"Fjärås Bräcka Nature Reserve","coordinates":[12.1848,57.4518]},{"code":"SE-0073","program":"pota","name":"Gäddevik Nature Reserve","coordinates":[12.2415,57.4447]},{"code":"SE-0421","program":"pota","name":"Näsbokrok Nature Reserve","coordinates":[12.0709,57.3405]},{"code":"SE-0423","program":"pota","name":"Rolfsån Natura 2000","coordinates":[12.0775,57.4574]},{"code":"SE-0424","program":"pota","name":"Rossared Natura 2000","coordinates":[12.1997,57.4886]},{"code":"SE-0719","program":"pota","name":"Gäddevik Natura 2000","coordinates":[12.2411,57.4459]},{"code":"SE-0720","program":"pota","name":"Kungsbackafjorden Natura 2000","coordinates":[12.0623,57.412]},{"code":"SE-0781","program":"pota","name":"Biskopshagen National Reserve","coordinates":[12.0958,57.2532]},{"code":"SE-0782","program":"pota","name":"Båtafjorden Natura 2000","coordinates":[12.1318,57.2514]},{"code":"SE-1688","program":"pota","name":"Vallda 92:1 - Börsås fornborg Historic Site","coordinates":[12.0058,57.443]},{"code":"SE-1691","program":"pota","name":"Vallda 90:1 - Forsbäck Historic Site","coordinates":[12.0442,57.4518]},{"code":"SE-1692","program":"pota","name":"Vallda 262:1 Historic Site","coordinates":[12.0428,57.4588]},{"code":"SE-1693","program":"pota","name":"Hanhals 71:1 - Hunehals borgruin Historic Site","coordinates":[12.0689,57.4484]},{"code":"SE-1694","program":"pota","name":"Kungsbacka 1:1 - Börsåsberget Historic Site","coordinates":[12.0819,57.4754]},{"code":"SE-1695","program":"pota","name":"Fjärås 213:1 -  Borgudden Historic Site","coordinates":[12.2139,57.4486]}]}