{"lat":57.5,"lon":-7.75,"programs":["iota","pota"],"count":6,"references":[{"code":"EU-111","program":"iota","name":"MONACH ISLANDS","coordinates":[-7.650000095,57.52499962]},{"code":"GB-0818","program":"pota","name":"Balranald RSPB Reserve","coordinates":[-7.51739,57.6056]},{"code":"GB-0942","program":"pota","name":"Monach Isles National Nature Reserve","coordinates":[-7.6743,57.5228]},{"code":"GB-2187","program":"pota","name":"North Uist Machair and Islands Ramsar Site","coordinates":[-7.5229,57.6029]},{"code":"GB-2194","program":"pota","name":"Balranald Bog and Loch nam Feithean Site of Significant Scientific Interest","coordinates":[-7.5013,57.604]},{"code":"GB-2201","program":"pota","name":"Monach Isles Site of Significant Scientific Interest","coordinates":[-7.60709,57.5255]}]}