{"lat":57.5,"lon":-2.25,"programs":["pota","sota","wwbota"],"count":11,"references":[{"code":"GB-0808","program":"pota","name":"Aden Country Park","coordinates":[-2.03224,57.5217]},{"code":"GB-1911","program":"pota","name":"Rosehearty to Fraserburgh Coast Site of Significant Scientific Interest","coordinates":[-2.11725,57.6998]},{"code":"GB-1917","program":"pota","name":"Turclossie Moss Special Conservation Area","coordinates":[-2.19641,57.6122]},{"code":"GM/ES-087","program":"sota","name":"Waughton Hill","coordinates":[-2.062615,57.60519]},{"code":"B/GM-0012","program":"wwbota","name":"ROC Post New Deer","coordinates":[-2.19275,57.509084]},{"code":"B/GM-0015","program":"wwbota","name":"ROC Post Rosehearty","coordinates":[-2.105507,57.696919]},{"code":"B/GM-0016","program":"wwbota","name":"ROC Post Strichen","coordinates":[-2.087812,57.594624]},{"code":"B/GM-0351","program":"wwbota","name":"Chain Home - Hill Head","coordinates":[-2.090445,57.644294]},{"code":"B/GM-0490","program":"wwbota","name":"Fraserburgh , coastal defence bunker (cluster)","coordinates":[-2.001217,57.68066]},{"code":"B/GM-0563","program":"wwbota","name":"Maud WW2 Pillbox","coordinates":[-2.124879,57.521583]},{"code":"B/GM-0592","program":"wwbota","name":"Hillhead CH Pillbox cluster","coordinates":[-2.099123,57.645047]}]}