{"lat":57.5,"lon":-3.5,"programs":["pota","sota","wwbota"],"count":13,"references":[{"code":"GB-0960","program":"pota","name":"Quarrywood Woodland Country Park","coordinates":[-3.37211,57.6598]},{"code":"GB-1407","program":"pota","name":"Moray Coastal National Scenic Trail","coordinates":[-3.48793,57.6933]},{"code":"GB-1409","program":"pota","name":"Masonshaugh Site of Significant Scientific Interest","coordinates":[-3.47072,57.7032]},{"code":"GB-1410","program":"pota","name":"Clashach - Covesea Site of Significant Scientific Interest","coordinates":[-3.4049,57.7132]},{"code":"GB-1411","program":"pota","name":"Lossiemouth Shore Site of Significant Scientific Interest","coordinates":[-3.29497,57.7229]},{"code":"GB-1953","program":"pota","name":"Loch Spynie Ramsar Site","coordinates":[-3.28823,57.6782]},{"code":"GB-1954","program":"pota","name":"Loch Spynie RSPB Reserve","coordinates":[-3.27788,57.6797]},{"code":"GB-1957","program":"pota","name":"Millbuies Country Park","coordinates":[-3.27413,57.5935]},{"code":"GM/CS-121","program":"sota","name":"Hill of the Wangie","coordinates":[-3.444798,57.565475]},{"code":"B/GM-0230","program":"wwbota","name":"ROC Post Dallas","coordinates":[-3.462555,57.559057]},{"code":"B/GM-0231","program":"wwbota","name":"ROC Post Elgin","coordinates":[-3.35016,57.629302]},{"code":"B/GM-0394","program":"wwbota","name":"Airfield Battle HQ - Lossiemouth","coordinates":[-3.304713,57.716198]},{"code":"B/GM-0486","program":"wwbota","name":"Lossiemouth.coastal defence bunkers (cluster)","coordinates":[-3.337641,57.724871]}]}