{"lat":57.5,"lon":-4.5,"programs":["pota","sota","wwbota"],"count":14,"references":[{"code":"GB-0858","program":"pota","name":"Cromarty Firth (West) - Conan Islands Protected Area","coordinates":[-4.46695,57.5572]},{"code":"GB-2245","program":"pota","name":"Roskill Site of Significant Scientific Interest","coordinates":[-4.25441,57.5678]},{"code":"GB-2246","program":"pota","name":"Dam Wood Site of Significant Scientific Interest","coordinates":[-4.27021,57.584]},{"code":"GB-2247","program":"pota","name":"Monadh Mor Site of Significant Scientific Interest","coordinates":[-4.37438,57.5483]},{"code":"GB-2248","program":"pota","name":"Drummondreach Wood Site of Significant Scientific Interest","coordinates":[-4.37902,57.5874]},{"code":"GB-2250","program":"pota","name":"Loch Ussie Site of Significant Scientific Interest","coordinates":[-4.49159,57.5803]},{"code":"GB-2253","program":"pota","name":"Novar Special Protected Area","coordinates":[-4.34274,57.6927]},{"code":"GB-2254","program":"pota","name":"Alness River Valley Site of Significant Scientific Interest","coordinates":[-4.26976,57.7105]},{"code":"GM/NS-058","program":"sota","name":"Meall Mor","coordinates":[-4.495456,57.73619]},{"code":"GM/NS-105","program":"sota","name":"Cnoc Ceislein","coordinates":[-4.369191,57.703205]},{"code":"GM/NS-151","program":"sota","name":"Mount Eagle","coordinates":[-4.263101,57.6008]},{"code":"B/GM-0283","program":"wwbota","name":"ROC Post Dingwall","coordinates":[-4.42025,57.609475]},{"code":"B/GM-0442","program":"wwbota","name":"RNAS Evanton, WW2 ground defence bunker cluster","coordinates":[-4.301262,57.667986]},{"code":"B/GM-0480","program":"wwbota","name":"Alness Bay, coastal defence bunker","coordinates":[-4.301185,57.66783]}]}