{"lat":57.5,"lon":18.75,"programs":["pota"],"count":11,"references":[{"code":"SE-0451","program":"pota","name":"Klinteklinten Nature Reserve","coordinates":[18.7733,57.6717]},{"code":"SE-0459","program":"pota","name":"S:t Olofsholm Nature Reserve","coordinates":[18.9108,57.7176]},{"code":"SE-1028","program":"pota","name":"Slite Nature Reserve","coordinates":[18.9281,57.7074]},{"code":"SE-1029","program":"pota","name":"Sajgs Nature Reserve","coordinates":[18.8979,57.7295]},{"code":"SE-1030","program":"pota","name":"Hideviken Nature Reserve","coordinates":[18.8691,57.7276]},{"code":"SE-1031","program":"pota","name":"Dagghagen Nature Reserve","coordinates":[18.8507,57.7499]},{"code":"SE-1032","program":"pota","name":"Dagghagen Natura 2000","coordinates":[18.8602,57.7437]},{"code":"SE-1033","program":"pota","name":"Bruten Nature Reserve","coordinates":[18.7984,57.7499]},{"code":"SE-1034","program":"pota","name":"Bruten Natura 2000","coordinates":[18.797,57.7443]},{"code":"SE-1277","program":"pota","name":"Hajdhagskogen Nature Reserve","coordinates":[18.754,57.7437]},{"code":"SE-1895","program":"pota","name":"Liste-Hammars Natura 2000","coordinates":[18.7658,57.5222]}]}