{"lat":57.5,"lon":-4.25,"programs":["pota","sota","wwbota"],"count":19,"references":[{"code":"GB-0859","program":"pota","name":"Cromarty Firth Special Protected Area","coordinates":[-4.00507,57.7309]},{"code":"GB-0860","program":"pota","name":"Udale Bay RSPB Reserve","coordinates":[-4.1598,57.6571]},{"code":"GB-1962","program":"pota","name":"Inner Moray Firth Ramsar Site","coordinates":[-4.14972,57.5144]},{"code":"GB-1964","program":"pota","name":"Longman and Castle Stuart Bays Site of Significant Scientific Interest","coordinates":[-4.14884,57.5089]},{"code":"GB-1965","program":"pota","name":"Munlochy Bay Site of Significant Scientific Interest","coordinates":[-4.20346,57.5401]},{"code":"GB-2240","program":"pota","name":"Cromarty Firth Special Protected Area","coordinates":[-4.15227,57.6587]},{"code":"GB-2243","program":"pota","name":"The Dens Site of Significant Scientific Interest","coordinates":[-4.1264,57.5928]},{"code":"GB-2244","program":"pota","name":"Braelangwell Wood Site of Significant Scientific Interest","coordinates":[-4.19039,57.6396]},{"code":"GB-2915","program":"pota","name":"Nigg Bay RSPB Reserve","coordinates":[-4.00524,57.731]},{"code":"GB-2916","program":"pota","name":"Fairy Glen RSPB Reserve","coordinates":[-4.1177,57.5927]},{"code":"GM/NS-135","program":"sota","name":"Cnoc Corr Guinie","coordinates":[-4.233436,57.749287]},{"code":"B/GM-0285","program":"wwbota","name":"ROC Post Invergordon","coordinates":[-4.211535,57.69291]},{"code":"B/GM-0286","program":"wwbota","name":"ROC Post Fortrose","coordinates":[-4.097478,57.574544]},{"code":"B/GM-0288","program":"wwbota","name":"ROC Post Cromarty","coordinates":[-4.003401,57.676341]},{"code":"B/GM-0384","program":"wwbota","name":"Airfield Battle HQ - Dalcross","coordinates":[-4.060902,57.536961]},{"code":"B/GM-0424","program":"wwbota","name":"WW2 Ammunition Bunker","coordinates":[-4.171288,57.718022]},{"code":"B/GM-0481","program":"wwbota","name":"Nigg Ferry, coastal defence bunker","coordinates":[-4.020705,57.692585]},{"code":"B/GM-0581","program":"wwbota","name":"Fort George UNITER Bunker","coordinates":[-4.048605,57.584557]},{"code":"B/GM-0587","program":"wwbota","name":"Invergordon Pillbox Cluster","coordinates":[-4.186873,57.690688]}]}