{"lat":57.75,"lon":-152.5,"programs":["pota","sota"],"count":10,"references":[{"code":"US-7205","program":"pota","name":"Buskin River State Recreation Site","coordinates":[-152.487,57.7639]},{"code":"US-7206","program":"pota","name":"Fort Abercrombie State Historical Park","coordinates":[-152.357,57.8339]},{"code":"KLA/NK-252","program":"sota","name":"South Devils Prongs","coordinates":[-152.4685,57.8119]},{"code":"KLA/NK-285","program":"sota","name":"North Devils Prongs","coordinates":[-152.4509,57.8211]},{"code":"KLA/NK-374","program":"sota","name":"Monashka Mountain","coordinates":[-152.4503,57.8536]},{"code":"KLA/NK-401","program":"sota","name":"1660","coordinates":[-152.4959,57.845]},{"code":"KLA/NK-417","program":"sota","name":"Mount Herman","coordinates":[-152.3881,57.9147]},{"code":"KLA/NK-451","program":"sota","name":"1444","coordinates":[-152.4876,57.883]},{"code":"KLA/NK-497","program":"sota","name":"862","coordinates":[-152.4513,57.9117]},{"code":"KLA/NK-508","program":"sota","name":"550","coordinates":[-152.4201,57.9663]}]}