{"lat":57.75,"lon":-7,"programs":["pota","sota","wwbota"],"count":12,"references":[{"code":"GB-2167","program":"pota","name":"Luskentyre Banks and Saltings Site of Significant Scientific Interest","coordinates":[-6.94677,57.8836]},{"code":"GB-4563","program":"pota","name":"The Hebridean Way State Trail","coordinates":[-6.80439,57.889]},{"code":"GM/SI-012","program":"sota","name":"Clisham","coordinates":[-6.812548,57.963688]},{"code":"GM/SI-026","program":"sota","name":"Uisgnaval Mor","coordinates":[-6.871155,57.97294]},{"code":"GM/SI-036","program":"sota","name":"Tirga Mor","coordinates":[-6.985049,57.994884]},{"code":"GM/SI-038","program":"sota","name":"Oreval","coordinates":[-6.935215,57.98306]},{"code":"GM/SI-056","program":"sota","name":"Sgaoth Aird","coordinates":[-6.7901,57.934788]},{"code":"GM/SI-066","program":"sota","name":"Beinn Dhubh","coordinates":[-6.914232,57.899864]},{"code":"GM/SI-083","program":"sota","name":"Roineabhal","coordinates":[-6.975395,57.76661]},{"code":"GM/SI-116","program":"sota","name":"An Coileach","coordinates":[-6.910323,57.829456]},{"code":"GM/SI-117","program":"sota","name":"Heileasbhal Mor","coordinates":[-6.931663,57.828274]},{"code":"B/GM-0272","program":"wwbota","name":"ROC Post Harris","coordinates":[-6.804731,57.899857]}]}