{"lat":57.75,"lon":16.5,"programs":["pota"],"count":7,"references":[{"code":"SE-0993","program":"pota","name":"Gränsö Natura 2000","coordinates":[16.6931,57.758]},{"code":"SE-0994","program":"pota","name":"Kvarntorpet Nature Reserve","coordinates":[16.5237,57.8609]},{"code":"SE-0995","program":"pota","name":"Kvarntorpet Natura 2000","coordinates":[16.5419,57.8446]},{"code":"SE-0996","program":"pota","name":"Rågö Nature Reserve","coordinates":[16.7253,57.8642]},{"code":"SE-0997","program":"pota","name":"Rågö Natura 2000","coordinates":[16.7395,57.8586]},{"code":"SE-0998","program":"pota","name":"Segersgärde Natura 2000","coordinates":[16.5215,57.8496]},{"code":"SE-0999","program":"pota","name":"Segersgärde Nature Reserve","coordinates":[16.5331,57.8516]}]}