{"lat":58,"lon":-7,"programs":["pota","sota"],"count":13,"references":[{"code":"GB-2170","program":"pota","name":"Glen Valtos Site of Significant Scientific Interest","coordinates":[-6.98997,58.2013]},{"code":"GB-2171","program":"pota","name":"Tob Valasay Site of Significant Scientific Interest","coordinates":[-6.87284,58.2395]},{"code":"GB-2172","program":"pota","name":"Little Loch Roag Valley Bog Site of Significant Scientific Interest","coordinates":[-6.85483,58.1193]},{"code":"GB-2175","program":"pota","name":"Loch Siadar Site of Significant Scientific Interest","coordinates":[-6.79192,58.2486]},{"code":"GB-3211","program":"pota","name":"Loch Roag Lagoons Conservation Area","coordinates":[-6.8646,58.237]},{"code":"GB-3362","program":"pota","name":"Tràigh na Berie Conservation Area","coordinates":[-6.93723,58.2158]},{"code":"GM/SI-044","program":"sota","name":"Stulaval","coordinates":[-6.854655,58.00648]},{"code":"GM/SI-071","program":"sota","name":"Liuthaid","coordinates":[-6.785603,58.02174]},{"code":"GM/SI-100","program":"sota","name":"Suainaval","coordinates":[-6.971366,58.1698]},{"code":"GM/SI-112","program":"sota","name":"Beinn Mheadhonach","coordinates":[-6.940955,58.105335]},{"code":"GM/SI-121","program":"sota","name":"Kearnaval","coordinates":[-6.769519,58.041355]},{"code":"GM/SI-174","program":"sota","name":"Conostom","coordinates":[-6.820328,58.167404]},{"code":"GM/SI-187","program":"sota","name":"Caultrashal Mor","coordinates":[-6.824721,58.102654]}]}