{"lat":58,"lon":8,"programs":["pota","wwbota"],"count":26,"references":[{"code":"NO-0004","program":"pota","name":"Ådnevik Nature Reserve","coordinates":[8.18122,58.1428]},{"code":"NO-0088","program":"pota","name":"Badstudalen Nature Reserve","coordinates":[8.21224,58.2171]},{"code":"NO-0213","program":"pota","name":"Brattholmene Nature Reserve","coordinates":[8.18996,58.1285]},{"code":"NO-0503","program":"pota","name":"Gåseholmen og Slettholmen Nature Reserve","coordinates":[8.09543,58.1073]},{"code":"NO-0878","program":"pota","name":"Indre Ulvøya Nature Reserve","coordinates":[8.20611,58.1211]},{"code":"NO-1266","program":"pota","name":"Lyngholmen Nature Reserve","coordinates":[8.22776,58.1191]},{"code":"NO-1404","program":"pota","name":"Nedre Timenes Nature Reserve","coordinates":[8.12363,58.1643]},{"code":"NO-1504","program":"pota","name":"Oksø Nature Reserve","coordinates":[8.05335,58.0743]},{"code":"NO-1650","program":"pota","name":"Revsund Nature Reserve","coordinates":[8.1577,58.1123]},{"code":"NO-1883","program":"pota","name":"Skjede Nature Reserve","coordinates":[8.01344,58.103]},{"code":"NO-2223","program":"pota","name":"Terneholmen og Grønningen Nature Reserve","coordinates":[8.08876,58.0818]},{"code":"NO-2253","program":"pota","name":"Toreheia Nature Reserve","coordinates":[8.17142,58.1786]},{"code":"NO-2307","program":"pota","name":"Tveitvann Nature Reserve","coordinates":[8.1024,58.2462]},{"code":"NO-2384","program":"pota","name":"Vassvannet Nature Reserve","coordinates":[8.14814,58.1393]},{"code":"NO-2475","program":"pota","name":"Østre Ertholmen Nature Reserve","coordinates":[8.22316,58.1124]},{"code":"NO-2587","program":"pota","name":"Odderøya National Recreation Area","coordinates":[8.00666,58.1327]},{"code":"NO-2633","program":"pota","name":"Kvarodden og Nesodden National Recreation Area","coordinates":[8.15855,58.1214]},{"code":"NO-2634","program":"pota","name":"Paradisbukta National Recreation Area","coordinates":[8.04536,58.1782]},{"code":"NO-3257","program":"pota","name":"Hamresanden (med Kolmila og Elvesand mv.) National Recreation Area","coordinates":[8.0767,58.1917]},{"code":"B/LA-0051","program":"wwbota","name":"Odderøya vestre batteri","coordinates":[8.00143,58.13349]},{"code":"B/LA-0052","program":"wwbota","name":"Odderøya haubitser batteri","coordinates":[8.00444,58.1333]},{"code":"B/LA-0053","program":"wwbota","name":"Odderøya bunkers","coordinates":[8.00459,58.1326]},{"code":"B/LA-0054","program":"wwbota","name":"Odderøya søndre strandbatteri","coordinates":[8.00921,58.13078]},{"code":"B/LA-0055","program":"wwbota","name":"Odderøya luftvernbatteri","coordinates":[8.0056,58.13498]},{"code":"B/LA-0056","program":"wwbota","name":"Odderøya østre strandbatteri","coordinates":[8.01021,58.13569]},{"code":"B/LA-0061","program":"wwbota","name":"Laksevika fort","coordinates":[8.00757,58.08857]}]}