{"lat":58,"lon":-4,"programs":["pota","sota","wwbota"],"count":11,"references":[{"code":"GB-2372","program":"pota","name":"Coir' an Eoin Site of Significant Scientific Interest","coordinates":[-3.9901,58.121]},{"code":"GB-2374","program":"pota","name":"Carrol Rock Site of Significant Scientific Interest","coordinates":[-3.95505,58.0493]},{"code":"GB-2380","program":"pota","name":"Inverbrora Site of Significant Scientific Interest","coordinates":[-3.84616,58.008]},{"code":"GB-2382","program":"pota","name":"Loth Gorge Site of Significant Scientific Interest","coordinates":[-3.79225,58.0721]},{"code":"GM/NS-082","program":"sota","name":"Beinn Dhorain","coordinates":[-3.82561,58.116768]},{"code":"GM/NS-087","program":"sota","name":"Beinn Mhealaich","coordinates":[-3.765095,58.11141]},{"code":"GM/NS-097","program":"sota","name":"Creag Scalabsdale","coordinates":[-3.753724,58.19329]},{"code":"GM/NS-101","program":"sota","name":"Carn Garbh","coordinates":[-3.880183,58.099197]},{"code":"GM/NS-129","program":"sota","name":"Beinn Dubhain","coordinates":[-3.808641,58.162464]},{"code":"GM/NS-136","program":"sota","name":"Creag nam Fiadh","coordinates":[-3.972728,58.186977]},{"code":"B/GM-0353","program":"wwbota","name":"Chain Home - Loth","coordinates":[-3.766012,58.063217]}]}