{"lat":58,"lon":6.75,"programs":["pota","sota"],"count":18,"references":[{"code":"NO-0892","program":"pota","name":"Jakobsholmen, Lilleholmen og Rundholmen Nature Reserve","coordinates":[6.87601,58.0819]},{"code":"NO-1305","program":"pota","name":"Markøy Nature Reserve","coordinates":[6.98581,58.0013]},{"code":"NO-1699","program":"pota","name":"Røyrtjønn Nature Reserve","coordinates":[6.79366,58.0691]},{"code":"NO-1808","program":"pota","name":"Sellegrod Nature Reserve","coordinates":[6.79042,58.1156]},{"code":"NO-1926","program":"pota","name":"Skydskjær Nature Reserve","coordinates":[6.82046,58.0866]},{"code":"NO-2377","program":"pota","name":"Vassenden Nature Reserve","coordinates":[6.89938,58.1027]},{"code":"NO-2512","program":"pota","name":"Terneholmen Nature Reserve","coordinates":[6.82379,58.1551]},{"code":"NO-2788","program":"pota","name":"Einarsneset Flora Reserve","coordinates":[6.77785,58.0663]},{"code":"NO-2790","program":"pota","name":"Lundevågen National Wildlife Area","coordinates":[6.77427,58.0793]},{"code":"NO-2793","program":"pota","name":"Einarsneset Flora and Fauna Reserve","coordinates":[6.78692,58.0607]},{"code":"LA/VA-073","program":"sota","name":"Kaldåsknipa","coordinates":[6.9338,58.1939]},{"code":"LA/VA-079","program":"sota","name":"Homsknipa","coordinates":[6.9091,58.1763]},{"code":"LA/VA-090","program":"sota","name":"Mørkevannsheia","coordinates":[6.7839,58.1407]},{"code":"LA/VA-094","program":"sota","name":"Kalvenesfjellet","coordinates":[6.767,58.1687]},{"code":"LA/VA-098","program":"sota","name":"Briseidheia","coordinates":[6.7654,58.1505]},{"code":"LA/VA-100","program":"sota","name":"Tosåsen","coordinates":[6.8288,58.1824]},{"code":"LA/VA-103","program":"sota","name":"Brusåsen","coordinates":[6.9959,58.1137]},{"code":"LA/VA-110","program":"sota","name":"Kistefjellet","coordinates":[6.7733,58.1092]}]}