{"lat":58.25,"lon":-3.5,"programs":["pota","wwbota"],"count":15,"references":[{"code":"GB-2520","program":"pota","name":"Blar nam Faoileag Site of Significant Scientific Interest","coordinates":[-3.47395,58.3719]},{"code":"GB-2521","program":"pota","name":"Coire na Beinne Mires Site of Significant Scientific Interest","coordinates":[-3.40971,58.3542]},{"code":"GB-2523","program":"pota","name":"Dunbeath Water Site of Significant Scientific Interest","coordinates":[-3.44077,58.2542]},{"code":"GB-2524","program":"pota","name":"Knockinnon Heath Site of Significant Scientific Interest","coordinates":[-3.4146,58.2638]},{"code":"GB-2525","program":"pota","name":"Dunbeath to Sgaps Geo Site of Significant Scientific Interest","coordinates":[-3.29237,58.2949]},{"code":"GB-2526","program":"pota","name":"Reisgill Burn Site of Significant Scientific Interest","coordinates":[-3.29553,58.2985]},{"code":"GB-2532","program":"pota","name":"Leavad Site of Significant Scientific Interest","coordinates":[-3.41396,58.3967]},{"code":"GB-2533","program":"pota","name":"Shielton Peatlands Site of Significant Scientific Interest","coordinates":[-3.40261,58.4043]},{"code":"GB-2553","program":"pota","name":"Loch Watten Site of Significant Scientific Interest","coordinates":[-3.29262,58.4762]},{"code":"GB-2555","program":"pota","name":"Spittal Quarry Site of Significant Scientific Interest","coordinates":[-3.41439,58.4655]},{"code":"GB-2556","program":"pota","name":"Banniskirk Quarry Site of Significant Scientific Interest","coordinates":[-3.43026,58.4912]},{"code":"GB-2557","program":"pota","name":"Achanarras Quarry Site of Significant Scientific Interest","coordinates":[-3.45804,58.4697]},{"code":"B/GM-0115","program":"wwbota","name":"ROC Post Halkirk","coordinates":[-3.490117,58.498815]},{"code":"B/GM-0116","program":"wwbota","name":"ROC Post Latheron","coordinates":[-3.36026,58.282165]},{"code":"B/GM-0118","program":"wwbota","name":"ROC Post Watten","coordinates":[-3.291381,58.4698]}]}