{"lat":58.25,"lon":-134.25,"programs":["sota"],"count":17,"references":[{"code":"KLS/JU-250","program":"sota","name":"4860","coordinates":[-134.2492,58.4268]},{"code":"KLS/JU-278","program":"sota","name":"4574","coordinates":[-134.0009,58.2577]},{"code":"KLS/JU-296","program":"sota","name":"Norris-Taku Ridge","coordinates":[-134.1522,58.4906]},{"code":"KLS/JU-310","program":"sota","name":"Hawthorne Peak","coordinates":[-134.243,58.2621]},{"code":"KLS/JU-313","program":"sota","name":"Annex Peak","coordinates":[-134.1394,58.3619]},{"code":"KLS/JU-314","program":"sota","name":"Thoroughfare Mountain","coordinates":[-134.2424,58.3703]},{"code":"KLS/JU-315","program":"sota","name":"4150","coordinates":[-134.2249,58.4552]},{"code":"KLS/JU-321","program":"sota","name":"Norris Mountain","coordinates":[-134.142,58.4471]},{"code":"KLS/JU-326","program":"sota","name":"3950","coordinates":[-134.2104,58.3869]},{"code":"KLS/JU-338","program":"sota","name":"3773","coordinates":[-134.1721,58.4052]},{"code":"KLS/JU-350","program":"sota","name":"Annex Ridge","coordinates":[-134.2174,58.3506]},{"code":"KLS/JU-353","program":"sota","name":"South Rhine Peak","coordinates":[-134.1697,58.25]},{"code":"KLS/JU-358","program":"sota","name":"North Rhine Peak","coordinates":[-134.1985,58.2642]},{"code":"KLS/JU-365","program":"sota","name":"3123","coordinates":[-134.2038,58.3345]},{"code":"KLS/JU-367","program":"sota","name":"3051","coordinates":[-134.2,58.2974]},{"code":"KLS/JU-384","program":"sota","name":"West Brassiere Hills","coordinates":[-134.0477,58.461]},{"code":"KLS/JU-385","program":"sota","name":"East Brassiere Hills","coordinates":[-134.0056,58.4644]}]}