{"lat":58.25,"lon":-4.75,"programs":["pota","sota"],"count":14,"references":[{"code":"GB-2647","program":"pota","name":"Druim nam Bad Site of Significant Scientific Interest","coordinates":[-4.58928,58.3065]},{"code":"GB-2648","program":"pota","name":"Loch Meadie Peatlands Site of Significant Scientific Interest","coordinates":[-4.55048,58.3398]},{"code":"GB-2651","program":"pota","name":"Carn a' Mhadaidh Site of Significant Scientific Interest","coordinates":[-4.52592,58.4102]},{"code":"GB-2652","program":"pota","name":"Ben Hope Site of Significant Scientific Interest","coordinates":[-4.60781,58.4124]},{"code":"GB-2655","program":"pota","name":"Eriboll Site of Significant Scientific Interest","coordinates":[-4.67468,58.4816]},{"code":"GM/NS-020","program":"sota","name":"Ben Hope","coordinates":[-4.60786,58.413113]},{"code":"GM/NS-026","program":"sota","name":"Ben Hee","coordinates":[-4.68391,58.26589]},{"code":"GM/NS-053","program":"sota","name":"Carn an Tionail","coordinates":[-4.745739,58.31036]},{"code":"GM/NS-075","program":"sota","name":"Beinn Direach","coordinates":[-4.721409,58.30211]},{"code":"GM/NS-098","program":"sota","name":"Creag Dhubh Mhor","coordinates":[-4.628801,58.264797]},{"code":"GM/NS-109","program":"sota","name":"An Lean-charn","coordinates":[-4.708197,58.432865]},{"code":"GM/NS-122","program":"sota","name":"Feinne-bheinn Mhor","coordinates":[-4.678924,58.376835]},{"code":"GM/NS-130","program":"sota","name":"Meadie Ridge","coordinates":[-4.566444,58.35692]},{"code":"GM/NS-142","program":"sota","name":"Cnoc an Daimh Mor","coordinates":[-4.508052,58.348335]}]}