{"lat":58.25,"lon":15.5,"programs":["pota"],"count":5,"references":[{"code":"SE-0037","program":"pota","name":"Tinnerö eklandskap Natura 2000","coordinates":[15.6259,58.3719]},{"code":"SE-0150","program":"pota","name":"Kärna mosse Natura 2000","coordinates":[15.5276,58.4162]},{"code":"SE-0159","program":"pota","name":"Kungsbro Nature Reserve","coordinates":[15.5427,58.4971]},{"code":"SE-0531","program":"pota","name":"Stafsäters lövskog Nature Reserve","coordinates":[15.6761,58.2873]},{"code":"SE-0534","program":"pota","name":"Svartåmynningen Nature Reserve","coordinates":[15.5553,58.4641]}]}