{"lat":58.25,"lon":8,"programs":["pota","sota"],"count":8,"references":[{"code":"NO-0120","program":"pota","name":"Berse Nature Reserve","coordinates":[8.22309,58.3229]},{"code":"NO-0157","program":"pota","name":"Bjorvannsheia Nature Reserve","coordinates":[8.1292,58.2899]},{"code":"NO-1348","program":"pota","name":"Mørkeli Nature Reserve","coordinates":[8.13931,58.3919]},{"code":"NO-1660","program":"pota","name":"Risdalen Nature Reserve","coordinates":[8.13853,58.2974]},{"code":"NO-2482","program":"pota","name":"Øygardsmarka og Brattefossheia Nature Reserve","coordinates":[8.16712,58.3421]},{"code":"NO-2559","program":"pota","name":"Langåsen Nature Reserve","coordinates":[8.08225,58.3056]},{"code":"LA/AA-124","program":"sota","name":"Heimdalsknuten","coordinates":[8.2123,58.4457]},{"code":"LA/AA-131","program":"sota","name":"Barlindåsen","coordinates":[8.2114,58.2958]}]}