{"lat":58.25,"lon":6.25,"programs":["pota","sota"],"count":19,"references":[{"code":"NO-0018","program":"pota","name":"Årstad Nature Reserve","coordinates":[6.29183,58.3342]},{"code":"NO-0294","program":"pota","name":"Drangsdalen Nature Reserve","coordinates":[6.45215,58.4822]},{"code":"NO-0321","program":"pota","name":"Eikebakka Nature Reserve","coordinates":[6.30797,58.3487]},{"code":"NO-0357","program":"pota","name":"Eptavatnet Nature Reserve","coordinates":[6.25235,58.4699]},{"code":"NO-1194","program":"pota","name":"Linborgvatnet Nature Reserve","coordinates":[6.44384,58.457]},{"code":"NO-1279","program":"pota","name":"Målsjuvet Nature Reserve","coordinates":[6.38664,58.2995]},{"code":"NO-1637","program":"pota","name":"Rekedal Nature Reserve","coordinates":[6.26228,58.3584]},{"code":"NO-2069","program":"pota","name":"Store og Litle Fokksteinen Nature Reserve","coordinates":[6.29558,58.2993]},{"code":"NO-2574","program":"pota","name":"Adnaråsen Nature Reserve","coordinates":[6.26991,58.3694]},{"code":"NO-2681","program":"pota","name":"Fokksteinane National Wildlife Area","coordinates":[6.30245,58.2992]},{"code":"LA/RL-228","program":"sota","name":"Stora Heia","coordinates":[6.433,58.4911]},{"code":"LA/RL-235","program":"sota","name":"Grønhaug","coordinates":[6.4602,58.4648]},{"code":"LA/RL-248","program":"sota","name":"Kisthei","coordinates":[6.491,58.3603]},{"code":"LA/RL-261","program":"sota","name":"Glerhaugen","coordinates":[6.3888,58.4318]},{"code":"LA/RL-263","program":"sota","name":"Stoleberga","coordinates":[6.4289,58.4046]},{"code":"LA/RL-265","program":"sota","name":"Solknuden","coordinates":[6.343,58.4841]},{"code":"LA/RL-271","program":"sota","name":"Myrbærfjellet","coordinates":[6.3123,58.4449]},{"code":"LA/RL-273","program":"sota","name":"Ljosknuten","coordinates":[6.3119,58.4574]},{"code":"LA/RL-282","program":"sota","name":"Sellfjellet","coordinates":[6.3545,58.4453]}]}