{"lat":58.5,"lon":6.25,"programs":["pota","sota"],"count":20,"references":[{"code":"NO-2310","program":"pota","name":"Tverrådalen Nature Reserve","coordinates":[6.46502,58.5645]},{"code":"NO-2380","program":"pota","name":"Vasshusvika Nature Reserve","coordinates":[6.35107,58.5335]},{"code":"NO-2672","program":"pota","name":"Førland/Sletthei Landscape Reserve","coordinates":[6.43645,58.56]},{"code":"LA/RL-107","program":"sota","name":"Skykula Store","coordinates":[6.3236,58.6286]},{"code":"LA/RL-173","program":"sota","name":"Svartevassknuten","coordinates":[6.3973,58.7467]},{"code":"LA/RL-185","program":"sota","name":"Skaraknuten","coordinates":[6.3345,58.6948]},{"code":"LA/RL-187","program":"sota","name":"Gryteheia","coordinates":[6.4192,58.7104]},{"code":"LA/RL-195","program":"sota","name":"Mjåvassknuten","coordinates":[6.4398,58.6705]},{"code":"LA/RL-197","program":"sota","name":"Greipa","coordinates":[6.3272,58.7433]},{"code":"LA/RL-200","program":"sota","name":"Storafjellet","coordinates":[6.3202,58.6764]},{"code":"LA/RL-204","program":"sota","name":"Lauarknuten","coordinates":[6.4404,58.6984]},{"code":"LA/RL-208","program":"sota","name":"Refslandsknuten","coordinates":[6.3035,58.5301]},{"code":"LA/RL-215","program":"sota","name":"Rygla","coordinates":[6.3256,58.5801]},{"code":"LA/RL-218","program":"sota","name":"Navarsheia","coordinates":[6.2654,58.5876]},{"code":"LA/RL-225","program":"sota","name":"Gystølheia","coordinates":[6.4064,58.5981]},{"code":"LA/RL-231","program":"sota","name":"Krokvassheia","coordinates":[6.4224,58.5404]},{"code":"LA/RL-232","program":"sota","name":"Rogleheia","coordinates":[6.4052,58.5523]},{"code":"LA/RL-251","program":"sota","name":"Botnaknuten","coordinates":[6.3924,58.5621]},{"code":"LA/RL-256","program":"sota","name":"Vestknuten","coordinates":[6.332,58.5141]},{"code":"LA/VA-046","program":"sota","name":"Bleikheia","coordinates":[6.4599,58.5849]}]}