{"lat":58.5,"lon":-4.25,"programs":["pota","wwbota"],"count":5,"references":[{"code":"GB-2628","program":"pota","name":"Strathy Coast Site of Significant Scientific Interest","coordinates":[-4.07404,58.5512]},{"code":"GB-2629","program":"pota","name":"Armadale Gorge Site of Significant Scientific Interest","coordinates":[-4.0716,58.5467]},{"code":"GB-2630","program":"pota","name":"Lochan Buidhe Mires Site of Significant Scientific Interest","coordinates":[-4.12671,58.5213]},{"code":"GB-2640","program":"pota","name":"Invernaver Site of Significant Scientific Interest","coordinates":[-4.24887,58.522]},{"code":"B/GM-0318","program":"wwbota","name":"ROC Post Bettyhill","coordinates":[-4.234487,58.53293]}]}