{"lat":58.5,"lon":-4.75,"programs":["pota","sota","wwbota"],"count":6,"references":[{"code":"GB-2653","program":"pota","name":"A' Mhoine Site of Significant Scientific Interest","coordinates":[-4.55792,58.5049]},{"code":"GB-2654","program":"pota","name":"Ben Hutig Site of Significant Scientific Interest","coordinates":[-4.51305,58.551]},{"code":"GB-2664","program":"pota","name":"Eilean Hoan Site of Significant Scientific Interest","coordinates":[-4.67572,58.567]},{"code":"GM/NS-127","program":"sota","name":"Meall Meadhonach","coordinates":[-4.732036,58.524178]},{"code":"GM/NS-132","program":"sota","name":"Ben Hutig","coordinates":[-4.512812,58.550762]},{"code":"B/GM-0358","program":"wwbota","name":"Chain Home - Sango","coordinates":[-4.723312,58.56662]}]}