{"lat":58.5,"lon":15.5,"programs":["pota"],"count":6,"references":[{"code":"SE-0153","program":"pota","name":"Farsboviken Nature Reserve","coordinates":[15.7367,58.5266]},{"code":"SE-0537","program":"pota","name":"Tokorp Nature Reserve","coordinates":[15.5682,58.5667]},{"code":"SE-0884","program":"pota","name":"Torstorpeskogen National Reserve","coordinates":[15.7161,58.6946]},{"code":"SE-0885","program":"pota","name":"Strussjöskogen National Reserve","coordinates":[15.6153,58.6319]},{"code":"SE-0886","program":"pota","name":"Lotorp National Reserve","coordinates":[15.6153,58.6319]},{"code":"SE-1295","program":"pota","name":"Farsboviken Natura 2000","coordinates":[15.7206,58.53]}]}