{"lat":58.5,"lon":9,"programs":["pota","sota","wwbota"],"count":14,"references":[{"code":"NO-0320","program":"pota","name":"Eikåsen Nature Reserve","coordinates":[9.00398,58.6238]},{"code":"NO-0413","program":"pota","name":"Fjellheia Nature Reserve","coordinates":[9.00758,58.6328]},{"code":"NO-0649","program":"pota","name":"Gulspettvannet Nature Reserve","coordinates":[9.10319,58.6752]},{"code":"NO-0682","program":"pota","name":"Hammartjønn Nature Reserve","coordinates":[9.05488,58.7189]},{"code":"NO-1184","program":"pota","name":"Lille Halsholmen Nature Reserve","coordinates":[9.04016,58.613]},{"code":"NO-1187","program":"pota","name":"Lille Lestholmen Nature Reserve","coordinates":[9.11854,58.6422]},{"code":"NO-1300","program":"pota","name":"Mannskjæret Nature Reserve","coordinates":[9.20506,58.6677]},{"code":"NO-1452","program":"pota","name":"Nordskogen Nature Reserve","coordinates":[9.0476,58.5935]},{"code":"NO-1601","program":"pota","name":"Randvik-Store Furuøya-Leikerøya Nature Reserve","coordinates":[9.21443,58.6978]},{"code":"NO-1729","program":"pota","name":"Ruholmen Nature Reserve","coordinates":[9.06863,58.62]},{"code":"NO-3205","program":"pota","name":"Pers Øygard National Recreation Area","coordinates":[9.0251,58.5867]},{"code":"NO-3206","program":"pota","name":"Movika National Recreation Area","coordinates":[9.0217,58.583]},{"code":"LA/AA-034","program":"sota","name":"Barmsheia","coordinates":[9.1164,58.7397]},{"code":"B/LA-0063","program":"wwbota","name":"Urheia festning","coordinates":[9.23837,58.72433]}]}