{"lat":58.5,"lon":-3.25,"programs":["pota","wwbota"],"count":10,"references":[{"code":"GB-2344","program":"pota","name":"Caithness Lochs Special Protected Area","coordinates":[-3.14966,58.5117]},{"code":"GB-2539","program":"pota","name":"Loch of Wester Site of Significant Scientific Interest","coordinates":[-3.14969,58.5114]},{"code":"GB-2540","program":"pota","name":"Stroupster Peatlands Site of Significant Scientific Interest","coordinates":[-3.1047,58.6115]},{"code":"GB-2542","program":"pota","name":"Duncansby Head Site of Significant Scientific Interest","coordinates":[-3.0255,58.6435]},{"code":"GB-2543","program":"pota","name":"John o' Groats Site of Significant Scientific Interest","coordinates":[-3.06977,58.6444]},{"code":"GB-2544","program":"pota","name":"Phillips Mains Mire Site of Significant Scientific Interest","coordinates":[-3.1919,58.6198]},{"code":"GB-2685","program":"pota","name":"Stroma Site of Significant Scientific Interest","coordinates":[-3.12288,58.6868]},{"code":"GB-2686","program":"pota","name":"Pentland Firth Islands Site of Significant Scientific Interest","coordinates":[-3.05712,58.7438]},{"code":"B/GM-0120","program":"wwbota","name":"ROC Post John o' Groats","coordinates":[-3.025901,58.64303]},{"code":"B/GM-0493","program":"wwbota","name":"Tang Head, coastal defence bunker","coordinates":[-3.111632,58.533078]}]}