{"lat":58.5,"lon":-3.75,"programs":["pota"],"count":11,"references":[{"code":"GB-2559","program":"pota","name":"River Thurso Site of Significant Scientific Interest","coordinates":[-3.52894,58.5838]},{"code":"GB-2560","program":"pota","name":"Pennylands Site of Significant Scientific Interest","coordinates":[-3.53295,58.5999]},{"code":"GB-2562","program":"pota","name":"Holborn Head Site of Significant Scientific Interest","coordinates":[-3.54338,58.622]},{"code":"GB-2564","program":"pota","name":"Newlands of Geise Mire Site of Significant Scientific Interest","coordinates":[-3.56073,58.5853]},{"code":"GB-2566","program":"pota","name":"Loch Calder Site of Significant Scientific Interest","coordinates":[-3.57277,58.5141]},{"code":"GB-2568","program":"pota","name":"Broubster Leans Site of Significant Scientific Interest","coordinates":[-3.65598,58.5205]},{"code":"GB-2569","program":"pota","name":"Westfield Bridge Site of Significant Scientific Interest","coordinates":[-3.62446,58.5554]},{"code":"GB-2570","program":"pota","name":"Loch Lieurary Site of Significant Scientific Interest","coordinates":[-3.60094,58.556]},{"code":"GB-2571","program":"pota","name":"Ushat Head Site of Significant Scientific Interest","coordinates":[-3.66709,58.615]},{"code":"GB-2684","program":"pota","name":"North Caithness Cliffs Special Protected Area","coordinates":[-3.53757,58.6215]},{"code":"GB-2913","program":"pota","name":"Broubster Leans RSPB Reserve","coordinates":[-3.66216,58.5216]}]}