{"lat":58.5,"lon":8.75,"programs":["iota","pota","wwbota"],"count":18,"references":[{"code":"EU-061","program":"iota","name":"VEST AGDER TO OSTFOLD COUNTY group","coordinates":[8.78999996,58.67499924]},{"code":"NO-0153","program":"pota","name":"Bjormyr Nature Reserve","coordinates":[8.81227,58.5062]},{"code":"NO-0251","program":"pota","name":"Buøyskjæra Nature Reserve","coordinates":[8.89436,58.503]},{"code":"NO-1260","program":"pota","name":"Lusemyr Nature Reserve","coordinates":[8.77587,58.5738]},{"code":"NO-1685","program":"pota","name":"Rørvikholmene Nature Reserve","coordinates":[8.90436,58.5164]},{"code":"NO-1720","program":"pota","name":"Rosstøl Nature Reserve","coordinates":[8.78029,58.6]},{"code":"NO-2017","program":"pota","name":"Stakketoskjæret Nature Reserve","coordinates":[8.94536,58.5989]},{"code":"NO-2103","program":"pota","name":"Stormyrlia Nature Reserve","coordinates":[8.8172,58.7163]},{"code":"NO-2108","program":"pota","name":"Storskjæret Nature Reserve","coordinates":[8.94963,58.5944]},{"code":"NO-2349","program":"pota","name":"Våjemyrane Nature Reserve","coordinates":[8.76887,58.6553]},{"code":"NO-3026","program":"pota","name":"Vakerknatten og Nøklefjell Nature Reserve","coordinates":[8.90323,58.6735]},{"code":"NO-3030","program":"pota","name":"Ubergsfjell Nature Reserve","coordinates":[8.81508,58.6771]},{"code":"NO-3031","program":"pota","name":"Eidbo Nature Reserve","coordinates":[8.99587,58.6052]},{"code":"NO-3185","program":"pota","name":"Vennevannsliene Nature Reserve","coordinates":[8.89671,58.6046]},{"code":"NO-3215","program":"pota","name":"Øygårdsåsen National Recreation Area","coordinates":[8.9624,58.5435]},{"code":"NO-3355","program":"pota","name":"Hårmyrliene og Toksåsen Nature Reserve","coordinates":[8.76535,58.6114]},{"code":"B/LA-0092","program":"wwbota","name":"Flostaøyen HKB 34./979","coordinates":[8.97686,58.53895]},{"code":"B/LA-0099","program":"wwbota","name":"Observasjonspost FluWA KRS 8 Narestø","coordinates":[8.9624,58.5435]}]}