{"lat":58.75,"lon":-152.25,"programs":["iota","sota"],"count":10,"references":[{"code":"NA-206","program":"iota","name":"BARREN ISLANDS","coordinates":[-152.165000915,58.875]},{"code":"KLA/NK-455","program":"sota","name":"West Amatuli Island","coordinates":[-152.0575,58.9284]},{"code":"KLA/NK-456","program":"sota","name":"1358","coordinates":[-152.0626,58.917]},{"code":"KLA/NK-457","program":"sota","name":"1350","coordinates":[-152.0271,58.9446]},{"code":"KLA/NK-458","program":"sota","name":"Table Mountain","coordinates":[-152.1718,58.9426]},{"code":"KLA/NK-465","program":"sota","name":"1305","coordinates":[-152.013,58.9124]},{"code":"KLA/NK-474","program":"sota","name":"Sugarloaf Island","coordinates":[-152.042,58.8874]},{"code":"KLA/NK-486","program":"sota","name":"1114","coordinates":[-152.2323,58.9367]},{"code":"KLA/NK-494","program":"sota","name":"Sud Island","coordinates":[-152.2168,58.8941]},{"code":"KLA/NK-502","program":"sota","name":"Nord Island","coordinates":[-152.1493,58.9688]}]}