{"lat":58.75,"lon":6.25,"programs":["pota","sota"],"count":21,"references":[{"code":"NO-1482","program":"pota","name":"Ørestø Nature Reserve","coordinates":[6.25966,58.8531]},{"code":"NO-2505","program":"pota","name":"Migaren Nature Reserve","coordinates":[6.31454,58.8472]},{"code":"NO-2608","program":"pota","name":"Eikeskog-Månafossen-Mån National Recreation Area","coordinates":[6.39968,58.862]},{"code":"NO-3289","program":"pota","name":"Griggelia Nature Reserve","coordinates":[6.26419,58.9897]},{"code":"LA/RL-034","program":"sota","name":"Vinjakula","coordinates":[6.2739,58.7581]},{"code":"LA/RL-078","program":"sota","name":"Fidjaknutane","coordinates":[6.4694,58.8914]},{"code":"LA/RL-080","program":"sota","name":"Frafjordhatten","coordinates":[6.303,58.8742]},{"code":"LA/RL-086","program":"sota","name":"Helgefjell","coordinates":[6.2708,58.7761]},{"code":"LA/RL-090","program":"sota","name":"Høga knuten","coordinates":[6.4253,58.9076]},{"code":"LA/RL-108","program":"sota","name":"Steinheia nordre","coordinates":[6.4825,58.9569]},{"code":"LA/RL-160","program":"sota","name":"Bergeheia","coordinates":[6.3809,58.9711]},{"code":"LA/RL-162","program":"sota","name":"Myrfjell","coordinates":[6.4441,58.7864]},{"code":"LA/RL-178","program":"sota","name":"Bjødnaknuden","coordinates":[6.4164,58.7956]},{"code":"LA/RL-179","program":"sota","name":"Vallresknuten","coordinates":[6.3422,58.8137]},{"code":"LA/RL-189","program":"sota","name":"Tyllebakknuten","coordinates":[6.2942,58.9524]},{"code":"LA/RL-191","program":"sota","name":"Reiarstofjellet","coordinates":[6.2634,58.9306]},{"code":"LA/RL-198","program":"sota","name":"Mulekosrinda","coordinates":[6.2983,58.9825]},{"code":"LA/RL-199","program":"sota","name":"Sauafjellet","coordinates":[6.2933,58.8983]},{"code":"LA/RL-213","program":"sota","name":"Storaknuten","coordinates":[6.3559,58.8577]},{"code":"LA/RL-237","program":"sota","name":"Kvitalandsfjellet","coordinates":[6.2556,58.8177]},{"code":"LA/RL-244","program":"sota","name":"Sollifjellet","coordinates":[6.2589,58.9823]}]}