{"lat":58.75,"lon":-137.5,"programs":["sota"],"count":6,"references":[{"code":"KLS/HO-001","program":"sota","name":"Mount Quincy Adams","coordinates":[-137.4523,58.9077]},{"code":"KLS/HO-003","program":"sota","name":"Mount Tlingit","coordinates":[-137.3941,58.8923]},{"code":"KLS/HO-004","program":"sota","name":"Mount Salisbury","coordinates":[-137.3731,58.8497]},{"code":"KLS/HO-005","program":"sota","name":"South Salisbury","coordinates":[-137.3797,58.8395]},{"code":"KLS/HO-006","program":"sota","name":"Lituya Mountain","coordinates":[-137.4369,58.8045]},{"code":"KLS/HO-013","program":"sota","name":"10110","coordinates":[-137.4062,58.8138]}]}