{"lat":59,"lon":17.25,"programs":["pota"],"count":19,"references":[{"code":"SE-0930","program":"pota","name":"Ekeby Nature Reserve","coordinates":[17.2823,59.015]},{"code":"SE-1454","program":"pota","name":"Holmsjöskogen Nature Reserve","coordinates":[17.3005,59.1356]},{"code":"SE-1455","program":"pota","name":"Lugnet Nature Reserve","coordinates":[17.255,59.1414]},{"code":"SE-1461","program":"pota","name":"Tussmötet Natura 2000","coordinates":[17.2641,59.168]},{"code":"SE-1462","program":"pota","name":"Tussmötet Nature Reserve","coordinates":[17.2654,59.1588]},{"code":"SE-1850","program":"pota","name":"Härnöängen Nature Reserve","coordinates":[17.2694,59.2495]},{"code":"SE-0933","program":"pota","name":"Skogstorp Nature Reserve","coordinates":[17.3548,59.0606]},{"code":"SE-0934","program":"pota","name":"Skogstorp Natura 2000","coordinates":[17.3601,59.0594]},{"code":"SE-0935","program":"pota","name":"Stora Alsjön Nature Reserve","coordinates":[17.4067,59.0986]},{"code":"SE-0936","program":"pota","name":"Stora Alsjön Natura 2000","coordinates":[17.4172,59.0911]},{"code":"SE-1412","program":"pota","name":"Stora Envättern Nature Reserve","coordinates":[17.3407,59.1203]},{"code":"SE-1413","program":"pota","name":"Stora Envättern Natura 2000","coordinates":[17.3498,59.1134]},{"code":"SE-1451","program":"pota","name":"Vattgruvsmossens National Reserve","coordinates":[17.4522,59.0913]},{"code":"SE-1452","program":"pota","name":"Vattgruvsmossen Natura 2000","coordinates":[17.4571,59.0816]},{"code":"SE-1453","program":"pota","name":"Uddaberget Nature Reserve","coordinates":[17.4455,59.0346]},{"code":"SE-1464","program":"pota","name":"Sjögård Natura 2000","coordinates":[17.3594,59.0226]},{"code":"SE-1589","program":"pota","name":"Orrsättra Natura 2000","coordinates":[17.4776,59.108]},{"code":"SE-1590","program":"pota","name":"Björkviksmossens domänreservat Nature Reserve","coordinates":[17.3965,59.1416]},{"code":"SE-1591","program":"pota","name":"Björkviksmossen Natura 2000","coordinates":[17.4011,59.1414]}]}