{"lat":59,"lon":7.5,"programs":["pota","sota"],"count":10,"references":[{"code":"NO-3352","program":"pota","name":"Homsli Nature Reserve","coordinates":[7.5178,59.2416]},{"code":"LA/AA-047","program":"sota","name":"Ljomsnuten","coordinates":[7.6092,59.1914]},{"code":"LA/AA-062","program":"sota","name":"Bergeheii, vest","coordinates":[7.7351,59.1859]},{"code":"LA/AA-064","program":"sota","name":"Oksetjørnheii","coordinates":[7.688,59.0997]},{"code":"LA/AA-066","program":"sota","name":"Flatestøylåsen","coordinates":[7.5711,59.0967]},{"code":"LA/AA-089","program":"sota","name":"Glåmsheii","coordinates":[7.6385,59.1635]},{"code":"LA/AA-090","program":"sota","name":"Pløsa","coordinates":[7.664,59.1404]},{"code":"LA/AA-092","program":"sota","name":"Vasslandsnuten","coordinates":[7.5942,59.1705]},{"code":"LA/AA-108","program":"sota","name":"Skogestøylheii","coordinates":[7.5661,59.1268]},{"code":"LA/AA-121","program":"sota","name":"Vardeheii","coordinates":[7.621,59.0353]}]}