{"lat":59,"lon":18,"programs":["pota","wwbota"],"count":10,"references":[{"code":"SE-0034","program":"pota","name":"Orlången Nature Reserve","coordinates":[18.0234,59.1918]},{"code":"SE-0044","program":"pota","name":"Häringe-Hammersta Nature Reserve","coordinates":[18.0167,59.0333]},{"code":"SE-0746","program":"pota","name":"Gullringskärret Nature Reserve","coordinates":[18.1255,59.1266]},{"code":"SE-0764","program":"pota","name":"Häringe-Hammersta Natura 2000","coordinates":[18.0161,59.0462]},{"code":"SE-1599","program":"pota","name":"Skeppnan Nature Reserve","coordinates":[18.0681,59.136]},{"code":"SE-1600","program":"pota","name":"Riddartorpsmossen Natura 2000","coordinates":[18.0681,59.136]},{"code":"SE-1601","program":"pota","name":"Svartsjön Nature Reserve","coordinates":[18.0398,59.1427]},{"code":"SE-1602","program":"pota","name":"Hanveden Natura 2000","coordinates":[18.0317,59.1477]},{"code":"SE-1603","program":"pota","name":"Granby Natura 2000","coordinates":[18.0598,59.1693]},{"code":"B/SM-0017","program":"wwbota","name":"Lännafortet","coordinates":[18.199,59.242]}]}