{"lat":59,"lon":16.25,"programs":["pota"],"count":13,"references":[{"code":"SE-0987","program":"pota","name":"Harpsund-Ön Natura 2000","coordinates":[16.4805,59.093]},{"code":"SE-0988","program":"pota","name":"Himlingeskogen Nature Reserve","coordinates":[16.4054,59.0973]},{"code":"SE-0989","program":"pota","name":"Naturreservat Himlingeskogen Natura 2000","coordinates":[16.3945,59.0996]},{"code":"SE-1736","program":"pota","name":"Källarhalsen Natura 2000","coordinates":[16.2516,59.1633]},{"code":"SE-1737","program":"pota","name":"Kokärret Natura 2000","coordinates":[16.2663,59.1392]},{"code":"SE-1738","program":"pota","name":"Bränntorp Natura 2000","coordinates":[16.3241,59.1384]},{"code":"SE-1743","program":"pota","name":"Kokäret Nature Reserve","coordinates":[16.2663,59.1469]},{"code":"SE-1778","program":"pota","name":"Varglyan Natura 2000","coordinates":[16.3963,59.2027]},{"code":"SE-1779","program":"pota","name":"Varglyan Nature Reserve","coordinates":[16.4115,59.2004]},{"code":"SE-1872","program":"pota","name":"Holmsjöberg Nature Reserve","coordinates":[16.4981,59.1953]},{"code":"SE-1873","program":"pota","name":"Stora Fjällsjön Nature Reserve","coordinates":[16.4641,59.1881]},{"code":"SE-1874","program":"pota","name":"Ormsjöbergen Natura 2000","coordinates":[16.4154,59.1917]},{"code":"SE-1875","program":"pota","name":"Ormsjöbergen Nature Reserve","coordinates":[16.4253,59.1866]}]}