{"lat":59,"lon":5.5,"programs":["pota","sota","wwbota"],"count":12,"references":[{"code":"NO-0127","program":"pota","name":"Bjargavatnet Nature Reserve","coordinates":[5.7281,59.0897]},{"code":"NO-0454","program":"pota","name":"Førsvollvatna Nature Reserve","coordinates":[5.74365,59.1039]},{"code":"NO-1399","program":"pota","name":"Nautøy, Longholmen og Bukkholmen Nature Reserve","coordinates":[5.55196,59.2369]},{"code":"NO-2459","program":"pota","name":"Vollholmen Nature Reserve","coordinates":[5.61828,59.1335]},{"code":"NO-2546","program":"pota","name":"Nordre Rennesøy Bird Sanctuary","coordinates":[5.59111,59.1377]},{"code":"NO-2648","program":"pota","name":"Vignesholmane National Reserve","coordinates":[5.72397,59.1682]},{"code":"NO-2724","program":"pota","name":"Fjøløy Fort National Recreation Area","coordinates":[5.5774,59.0866]},{"code":"LA/RL-022","program":"sota","name":"Mastravarden","coordinates":[5.6244,59.0883]},{"code":"LA/RL-311","program":"sota","name":"Skjena","coordinates":[5.666,59.1068]},{"code":"B/LA-0042","program":"wwbota","name":"Børaunen Bunker","coordinates":[5.56959,59.0121]},{"code":"B/LA-0043","program":"wwbota","name":"Fjøløy Fort","coordinates":[5.57654,59.0865]},{"code":"B/LA-0048","program":"wwbota","name":"Grødem fort","coordinates":[5.65533,59.01102]}]}