{"lat":59,"lon":23.5,"programs":["pota"],"count":5,"references":[{"code":"EE-0019","program":"pota","name":"Silma Nature Reserve","coordinates":[23.608,59.01]},{"code":"EE-0033","program":"pota","name":"Nõva State Recreation Area","coordinates":[23.624,59.209]},{"code":"EE-0114","program":"pota","name":"Peraküla telkimisala State Recreation Site","coordinates":[23.603,59.2215]},{"code":"EE-0141","program":"pota","name":"Metskonna puhkekoht State Recreation Site","coordinates":[23.7027,59.2281]},{"code":"EE-0144","program":"pota","name":"Põõsaspea puhkekoht State Recreation Site","coordinates":[23.5113,59.2281]}]}