{"lat":59,"lon":16.5,"programs":["pota"],"count":19,"references":[{"code":"SE-0432","program":"pota","name":"Stavåsen Natura 2000","coordinates":[16.5611,59.035]},{"code":"SE-0433","program":"pota","name":"Stenhammar Nature Reserve","coordinates":[16.5524,59.033]},{"code":"SE-0434","program":"pota","name":"Stenhammars Kohage Natura 2000","coordinates":[16.54,59.0485]},{"code":"SE-0841","program":"pota","name":"Malmköpings Nature Reserve","coordinates":[16.7169,59.1478]},{"code":"SE-0842","program":"pota","name":"Malmaåsen Natura 2000","coordinates":[16.719,59.1418]},{"code":"SE-0843","program":"pota","name":"Malma Nature Reserve","coordinates":[16.7007,59.1552]},{"code":"SE-1463","program":"pota","name":"Skedevi Natura 2000","coordinates":[16.6988,59.0486]},{"code":"SE-1605","program":"pota","name":"Björknäset Nature Reserve","coordinates":[16.6687,59.0974]},{"code":"SE-1730","program":"pota","name":"Hamra Nature Reserve","coordinates":[16.6103,59.2264]},{"code":"SE-1744","program":"pota","name":"Rinkesta såg Natura 2000","coordinates":[16.704,59.2276]},{"code":"SE-1759","program":"pota","name":"Ärla 21:1 Fornborg Historic Site","coordinates":[16.5707,59.242]},{"code":"SE-1765","program":"pota","name":"Ärla 34:1 Fornborg Historic Site","coordinates":[16.6208,59.2417]},{"code":"SE-1869","program":"pota","name":"Rosmossen Nature Reserve","coordinates":[16.5926,59.2]},{"code":"SE-1870","program":"pota","name":"Rosmossen Natura 2000","coordinates":[16.5913,59.1921]},{"code":"SE-1871","program":"pota","name":"Stubbkärrsvägen Nature Reserve","coordinates":[16.5913,59.1921]},{"code":"SE-1888","program":"pota","name":"Mellösa 28:1 Fornborg Historic Site","coordinates":[16.5844,59.1054]},{"code":"SE-1889","program":"pota","name":"Flen 10:1 Fornborg Historic Site","coordinates":[16.5368,59.0392]},{"code":"SE-1890","program":"pota","name":"Sköldinge 49:1 Fornborg Historic Site","coordinates":[16.5502,59.0224]},{"code":"SE-1915","program":"pota","name":"Forssa 5:1 Fornborg Historic Site","coordinates":[16.7098,59.0001]}]}