{"lat":59.25,"lon":6.75,"programs":["sota"],"count":6,"references":[{"code":"LA/AA-043","program":"sota","name":"Storevassnuten","coordinates":[6.9966,59.2561]},{"code":"LA/AA-088","program":"sota","name":"Storsteinheia","coordinates":[6.8688,59.2816]},{"code":"LA/RL-007","program":"sota","name":"Leirnuten","coordinates":[6.9175,59.4956]},{"code":"LA/RL-114","program":"sota","name":"Såta","coordinates":[6.7542,59.4719]},{"code":"LA/RL-129","program":"sota","name":"Grønafjellet","coordinates":[6.9761,59.4724]},{"code":"LA/RL-136","program":"sota","name":"Odden","coordinates":[6.7995,59.4119]}]}