{"lat":59.25,"lon":10.75,"programs":["pota","wwbota"],"count":17,"references":[{"code":"NO-0202","program":"pota","name":"Bråneåsen Nature Reserve","coordinates":[10.9918,59.3871]},{"code":"NO-0274","program":"pota","name":"Desiderialunden Nature Reserve","coordinates":[10.9629,59.3256]},{"code":"NO-0901","program":"pota","name":"Jerndalsfjellet Nature Reserve","coordinates":[10.82,59.3007]},{"code":"NO-1038","program":"pota","name":"Kråkstadfjorden Nature Reserve","coordinates":[10.7828,59.3165]},{"code":"NO-1364","program":"pota","name":"Moskjæra Nature Reserve","coordinates":[10.8393,59.3785]},{"code":"NO-1765","program":"pota","name":"Sandå og Henestangen Nature Reserve","coordinates":[10.9093,59.4033]},{"code":"NO-1875","program":"pota","name":"Skinnerflo Nature Reserve","coordinates":[10.895,59.3138]},{"code":"NO-1995","program":"pota","name":"Solgårdhavna Nature Reserve","coordinates":[10.9706,59.3354]},{"code":"NO-2064","program":"pota","name":"Stordamsmyra Nature Reserve","coordinates":[10.9553,59.2554]},{"code":"NO-2206","program":"pota","name":"Tasken Nature Reserve","coordinates":[10.7544,59.3397]},{"code":"NO-2883","program":"pota","name":"Moltemyra National Recreation Area","coordinates":[10.7679,59.2939]},{"code":"NO-2964","program":"pota","name":"Halvorsrødtangen National Recreation Area","coordinates":[10.8761,59.3703]},{"code":"NO-3004","program":"pota","name":"Verkenslund Biosphere Reserve","coordinates":[10.8125,59.3261]},{"code":"NO-3020","program":"pota","name":"Karlshusskogen National Recreation Area","coordinates":[10.8657,59.3616]},{"code":"NO-3197","program":"pota","name":"Gudøya National Recreation Area","coordinates":[10.8554,59.4013]},{"code":"B/LA-0029","program":"wwbota","name":"Grimstad","coordinates":[10.78628,59.35681]},{"code":"B/LA-0031","program":"wwbota","name":"Desiderialunden","coordinates":[10.96318,59.32575]}]}