{"lat":59.25,"lon":10.25,"programs":["pota","wwbota"],"count":31,"references":[{"code":"NO-0027","program":"pota","name":"Adalstjern Nature Reserve","coordinates":[10.4352,59.3712]},{"code":"NO-0175","program":"pota","name":"Bliksekilen Nature Reserve","coordinates":[10.4994,59.3242]},{"code":"NO-0200","program":"pota","name":"Borrevannet Nature Reserve","coordinates":[10.4316,59.4118]},{"code":"NO-0376","program":"pota","name":"Falkensten Nature Reserve","coordinates":[10.4221,59.4371]},{"code":"NO-0422","program":"pota","name":"Fjugstad Nature Reserve","coordinates":[10.4605,59.3628]},{"code":"NO-0474","program":"pota","name":"Frebergsvik Nature Reserve","coordinates":[10.3935,59.4331]},{"code":"NO-0622","program":"pota","name":"Grøum Nature Reserve","coordinates":[10.342,59.369]},{"code":"NO-0647","program":"pota","name":"Gullkronene Nature Reserve","coordinates":[10.3822,59.2868]},{"code":"NO-0873","program":"pota","name":"Ilene Nature Reserve","coordinates":[10.384,59.2754]},{"code":"NO-1134","program":"pota","name":"Langøya Nature Reserve","coordinates":[10.3875,59.4927]},{"code":"NO-1233","program":"pota","name":"Løvøya Nature Reserve","coordinates":[10.4447,59.4509]},{"code":"NO-1367","program":"pota","name":"Mulåsen Nature Reserve","coordinates":[10.3536,59.4758]},{"code":"NO-1567","program":"pota","name":"Presterødkilen Nature Reserve","coordinates":[10.4347,59.2656]},{"code":"NO-2203","program":"pota","name":"Tangenbekken Nature Reserve","coordinates":[10.352,59.4472]},{"code":"NO-2351","program":"pota","name":"Våle prestegårdsskog Nature Reserve","coordinates":[10.2686,59.4229]},{"code":"NO-2386","program":"pota","name":"Vealøs Nature Reserve","coordinates":[10.4963,59.4405]},{"code":"NO-2535","program":"pota","name":"Slottsfjellet Historic Site","coordinates":[10.4042,59.2713]},{"code":"NO-2536","program":"pota","name":"Gunnarsbøparken Park","coordinates":[10.416,59.2646]},{"code":"NO-2537","program":"pota","name":"Stoltenbergparken Park","coordinates":[10.4101,59.2707]},{"code":"NO-2538","program":"pota","name":"Grinvollparken Park","coordinates":[10.4135,59.2713]},{"code":"NO-2541","program":"pota","name":"Borrehaugene National Park","coordinates":[10.4716,59.3823]},{"code":"NO-2725","program":"pota","name":"Verpelva Nature Reserve","coordinates":[10.3161,59.3904]},{"code":"NO-2733","program":"pota","name":"Karljohansvern Flora and Fauna Reserve","coordinates":[10.494,59.4214]},{"code":"NO-2809","program":"pota","name":"Hortenskogen National Recreation Area","coordinates":[10.4943,59.4215]},{"code":"NO-2810","program":"pota","name":"Møringa National Recreation Area","coordinates":[10.4954,59.4338]},{"code":"NO-2812","program":"pota","name":"Brårudåsen National Recreation Area","coordinates":[10.4706,59.4168]},{"code":"NO-2824","program":"pota","name":"Falkenstendammen National Wildlife Area","coordinates":[10.4285,59.4366]},{"code":"NO-1345","program":"pota","name":"Mølen Nature Reserve","coordinates":[10.4989,59.4856]},{"code":"B/LA-0010","program":"wwbota","name":"Tuft Karljohansvern 1","coordinates":[10.49711,59.41881]},{"code":"B/LA-0011","program":"wwbota","name":"Tuft Karljohansvern 2","coordinates":[10.49536,59.41846]},{"code":"B/LA-0131","program":"wwbota","name":"Slottsfjellet bunker","coordinates":[10.4019901,59.2732315]}]}