{"lat":59.25,"lon":6,"programs":["pota","sota"],"count":19,"references":[{"code":"NO-0097","program":"pota","name":"Barkeland Nature Reserve","coordinates":[6.06496,59.34]},{"code":"NO-0977","program":"pota","name":"Kjølvikskorpa Nature Reserve","coordinates":[6.03677,59.3899]},{"code":"NO-1495","program":"pota","name":"Øyna Nature Reserve","coordinates":[6.17366,59.4274]},{"code":"LA/RL-025","program":"sota","name":"Bandåsen","coordinates":[6.0536,59.2886]},{"code":"LA/RL-029","program":"sota","name":"Svidkoll","coordinates":[6.0786,59.2658]},{"code":"LA/RL-035","program":"sota","name":"Gunlanuten","coordinates":[6.2289,59.3]},{"code":"LA/RL-079","program":"sota","name":"Fjetlandsnuten","coordinates":[6.0765,59.4425]},{"code":"LA/RL-201","program":"sota","name":"Akslandsnuten","coordinates":[6.082,59.4923]},{"code":"LA/RL-210","program":"sota","name":"Moltenuten","coordinates":[6.2446,59.4309]},{"code":"LA/RL-222","program":"sota","name":"Herefjellet","coordinates":[6.1739,59.2979]},{"code":"LA/RL-257","program":"sota","name":"Tveitaråheia","coordinates":[6.0715,59.3642]},{"code":"LA/RL-260","program":"sota","name":"Fuglanuten","coordinates":[6.1948,59.415]},{"code":"LA/RL-262","program":"sota","name":"Skute","coordinates":[6.1992,59.3766]},{"code":"LA/RL-264","program":"sota","name":"Lødalsheia","coordinates":[6.1632,59.3664]},{"code":"LA/RL-266","program":"sota","name":"Helgafjellet","coordinates":[6.1348,59.3455]},{"code":"LA/RL-270","program":"sota","name":"Hamborgnuten","coordinates":[6.1541,59.4099]},{"code":"LA/RL-277","program":"sota","name":"Middagsfjellet","coordinates":[6.1752,59.408]},{"code":"LA/RL-284","program":"sota","name":"Skiftesnuten","coordinates":[6.1634,59.386]},{"code":"LA/RL-299","program":"sota","name":"Selsnuten","coordinates":[6.2182,59.3322]}]}