{"lat":59.25,"lon":11,"programs":["pota","sota","wwbota"],"count":17,"references":[{"code":"NO-0007","program":"pota","name":"Ågårdselva Nature Reserve","coordinates":[11.0188,59.3516]},{"code":"NO-0058","program":"pota","name":"Asbjørnåsen Nature Reserve","coordinates":[11.0664,59.392]},{"code":"NO-0232","program":"pota","name":"Brentåsen Nature Reserve","coordinates":[11.179,59.3791]},{"code":"NO-0393","program":"pota","name":"Finnskutt og Haugen Nature Reserve","coordinates":[11.2054,59.4147]},{"code":"NO-1267","program":"pota","name":"Lysakermoa Nature Reserve","coordinates":[11.2436,59.4999]},{"code":"NO-1750","program":"pota","name":"Sagåsen og Stueåsen Nature Reserve","coordinates":[11.1153,59.3808]},{"code":"NO-2083","program":"pota","name":"Storesand Nature Reserve","coordinates":[11.1853,59.4229]},{"code":"NO-2425","program":"pota","name":"Vestvannet Nature Reserve","coordinates":[11.0695,59.3073]},{"code":"NO-2727","program":"pota","name":"Landeparken National Recreation Area","coordinates":[11.0879,59.2962]},{"code":"NO-2959","program":"pota","name":"Kiærmarka Nature Reserve","coordinates":[11.2095,59.4281]},{"code":"NO-3370","program":"pota","name":"Eidet National Recreation Area","coordinates":[11.009,59.3086]},{"code":"NO-3372","program":"pota","name":"Greåker fort National Military Park","coordinates":[11.0334,59.2719]},{"code":"NO-3374","program":"pota","name":"Ravneberget National Military Park","coordinates":[11.1209,59.3071]},{"code":"LA/OF-002","program":"sota","name":"Tremannsrøset","coordinates":[11.1375,59.3692]},{"code":"B/LA-0030","program":"wwbota","name":"Trøsken bru","coordinates":[11.06761,59.35669]},{"code":"B/LA-0137","program":"wwbota","name":"Kulås bunker","coordinates":[11.1085525,59.2807633]},{"code":"B/LA-0138","program":"wwbota","name":"Ravneberget bunker","coordinates":[11.1277006,59.3024206]}]}