{"lat":59.25,"lon":14.75,"programs":["pota"],"count":8,"references":[{"code":"SE-0020","program":"pota","name":"Garphyttan National Park","coordinates":[14.8833,59.2786]},{"code":"SE-1616","program":"pota","name":"Trangärdet Nature Reserve","coordinates":[14.7617,59.3573]},{"code":"SE-1617","program":"pota","name":"Trangärdet Natura 2000","coordinates":[14.7548,59.3446]},{"code":"SE-1622","program":"pota","name":"Jönsaskogen Nature Reserve","coordinates":[14.8405,59.2692]},{"code":"SE-1623","program":"pota","name":"Jönasskogen Natura 2000","coordinates":[14.8345,59.2745]},{"code":"SE-1624","program":"pota","name":"Älgtjärnarna Nature Reserve","coordinates":[14.8568,59.2739]},{"code":"SE-1625","program":"pota","name":"Svenshyttan Natura 2000","coordinates":[14.8846,59.2747]},{"code":"SE-1626","program":"pota","name":"Svenshyttan Nature Reserve","coordinates":[14.8536,59.283]}]}