{"lat":59.25,"lon":6.5,"programs":["pota","sota"],"count":12,"references":[{"code":"NO-2626","program":"pota","name":"Vormedalsheia Landscape Reserve","coordinates":[6.52395,59.2594]},{"code":"LA/RL-032","program":"sota","name":"Torehaugen","coordinates":[6.5131,59.4247]},{"code":"LA/RL-068","program":"sota","name":"Blåfjell Stora Ø","coordinates":[6.7474,59.3336]},{"code":"LA/RL-100","program":"sota","name":"Napen","coordinates":[6.692,59.4147]},{"code":"LA/RL-135","program":"sota","name":"North of Litla Gilavatnet","coordinates":[6.7119,59.3533]},{"code":"LA/RL-140","program":"sota","name":"Svinstølnuten","coordinates":[6.6185,59.4428]},{"code":"LA/RL-141","program":"sota","name":"Kvitserk","coordinates":[6.6991,59.3662]},{"code":"LA/RL-143","program":"sota","name":"Snønuten","coordinates":[6.613,59.4516]},{"code":"LA/RL-146","program":"sota","name":"Midtre Brendeknuten","coordinates":[6.6118,59.2785]},{"code":"LA/RL-156","program":"sota","name":"Kvitenuten","coordinates":[6.6374,59.4022]},{"code":"LA/RL-193","program":"sota","name":"Kruneheia","coordinates":[6.5416,59.3622]},{"code":"LA/RL-247","program":"sota","name":"Skjelstadnuten","coordinates":[6.5451,59.4868]}]}