{"lat":59.5,"lon":11.25,"programs":["pota","wwbota"],"count":18,"references":[{"code":"NO-0637","program":"pota","name":"Gukilhøgda og Abbortjernhøgda Nature Reserve","coordinates":[11.4341,59.6736]},{"code":"NO-0658","program":"pota","name":"Håkås Nature Reserve","coordinates":[11.2547,59.6734]},{"code":"NO-0671","program":"pota","name":"Hæra Nature Reserve","coordinates":[11.3818,59.651]},{"code":"NO-0731","program":"pota","name":"Hellesjøvann Nature Reserve","coordinates":[11.4598,59.7398]},{"code":"NO-0803","program":"pota","name":"Holene Nature Reserve","coordinates":[11.2933,59.5591]},{"code":"NO-0927","program":"pota","name":"Kallakmosen Nature Reserve","coordinates":[11.404,59.6741]},{"code":"NO-1014","program":"pota","name":"Kollerudvika Nature Reserve","coordinates":[11.4355,59.7086]},{"code":"NO-1041","program":"pota","name":"Kragtorpvika Nature Reserve","coordinates":[11.4837,59.6654]},{"code":"NO-1590","program":"pota","name":"Raknerud og Gimmingsrud Nature Reserve","coordinates":[11.2669,59.6663]},{"code":"NO-1932","program":"pota","name":"Sletner Nature Reserve","coordinates":[11.2746,59.5618]},{"code":"NO-1938","program":"pota","name":"Slitu Nature Reserve","coordinates":[11.2572,59.5688]},{"code":"NO-2134","program":"pota","name":"Strønes Nature Reserve","coordinates":[11.2727,59.653]},{"code":"NO-3009","program":"pota","name":"Bergsjø-Hølandselva National Wildlife Area","coordinates":[11.4867,59.7328]},{"code":"NO-3083","program":"pota","name":"Eikhaugen Nature Reserve","coordinates":[11.2559,59.713]},{"code":"NO-3375","program":"pota","name":"Høytorp fort National Military Park","coordinates":[11.344,59.5627]},{"code":"NO-3378","program":"pota","name":"Trøgstad fort National Military Park","coordinates":[11.3436,59.6337]},{"code":"B/LA-0077","program":"wwbota","name":"Høytorp fort","coordinates":[11.34167,59.56289]},{"code":"B/LA-0082","program":"wwbota","name":"Trøgstad fort","coordinates":[11.34005,59.63398]}]}