{"lat":59.5,"lon":10.25,"programs":["pota","sota"],"count":22,"references":[{"code":"NO-0143","program":"pota","name":"Bjørkøya Nature Reserve","coordinates":[10.3549,59.5154]},{"code":"NO-0192","program":"pota","name":"Bogen Nature Reserve","coordinates":[10.2654,59.5287]},{"code":"NO-0504","program":"pota","name":"Gåserumpa Nature Reserve","coordinates":[10.3284,59.5159]},{"code":"NO-0947","program":"pota","name":"Kattholmane Nature Reserve","coordinates":[10.2721,59.5372]},{"code":"NO-0954","program":"pota","name":"Killingholmen Nature Reserve","coordinates":[10.3334,59.5214]},{"code":"NO-1021","program":"pota","name":"Kommersøya Nature Reserve","coordinates":[10.3227,59.5169]},{"code":"NO-1551","program":"pota","name":"Petersætra og Trestikledalen Nature Reserve","coordinates":[10.3158,59.6216]},{"code":"NO-0363","program":"pota","name":"Ertsvikskjær Nature Reserve","coordinates":[10.4896,59.5196]},{"code":"NO-0544","program":"pota","name":"Geitmyråsen Nature Reserve","coordinates":[10.4012,59.7016]},{"code":"NO-0626","program":"pota","name":"Grunnane Nature Reserve","coordinates":[10.4024,59.5798]},{"code":"NO-0691","program":"pota","name":"Haraldsfjellet Nature Reserve","coordinates":[10.4615,59.5267]},{"code":"NO-0812","program":"pota","name":"Holtnesdalen Nature Reserve","coordinates":[10.4261,59.5428]},{"code":"NO-1790","program":"pota","name":"Sandungåsen Nature Reserve","coordinates":[10.4511,59.676]},{"code":"NO-1961","program":"pota","name":"Søndre Verksøya Nature Reserve","coordinates":[10.4143,59.6097]},{"code":"NO-1993","program":"pota","name":"Solfjellåsene Nature Reserve","coordinates":[10.4369,59.5237]},{"code":"NO-2272","program":"pota","name":"Trestikle Nature Reserve","coordinates":[10.2993,59.6761]},{"code":"NO-2661","program":"pota","name":"Saltskjær Biosphere Reserve","coordinates":[10.4163,59.5859]},{"code":"LA/BU-122","program":"sota","name":"Villingstadåsen","coordinates":[10.40861,59.7178]},{"code":"LA/BU-123","program":"sota","name":"Knivsfjellet","coordinates":[10.45,59.5875]},{"code":"LA/BU-124","program":"sota","name":"Vardåsen","coordinates":[10.44389,59.6894]},{"code":"LA/BU-165","program":"sota","name":"Haraldsfjellet","coordinates":[10.45594,59.5387]},{"code":"LA/VF-006","program":"sota","name":"Seteråsen","coordinates":[10.3514,59.6264]}]}