{"lat":59.5,"lon":7.75,"programs":["gma","pota","sota"],"count":13,"references":[{"code":"LA/TM-269","program":"gma","name":"Fjellhovdane","coordinates":[7.9476,59.5965]},{"code":"LA/TM-286","program":"gma","name":"Steinnuten","coordinates":[7.7933,59.5104]},{"code":"LA/TM-290","program":"gma","name":"Breiarbekknuten","coordinates":[7.788,59.7169]},{"code":"LA/TM-297","program":"gma","name":"Tverrfjell","coordinates":[7.7509,59.6666]},{"code":"LA/TM-304","program":"gma","name":"Veggsfjell","coordinates":[7.8456,59.5956]},{"code":"LA/TM-305","program":"gma","name":"Skromenuten","coordinates":[7.8494,59.542]},{"code":"NO-1564","program":"pota","name":"Presteheie Nature Reserve","coordinates":[7.83324,59.6433]},{"code":"LA/TM-269","program":"sota","name":"Fjellhovdane","coordinates":[7.9476,59.5965]},{"code":"LA/TM-286","program":"sota","name":"Steinnuten","coordinates":[7.7933,59.5104]},{"code":"LA/TM-290","program":"sota","name":"Kilsnuten","coordinates":[7.788,59.7169]},{"code":"LA/TM-297","program":"sota","name":"Tverrfjell","coordinates":[7.7509,59.6666]},{"code":"LA/TM-304","program":"sota","name":"Veggsfjell","coordinates":[7.8456,59.5956]},{"code":"LA/TM-305","program":"sota","name":"Skromenuten","coordinates":[7.8494,59.542]}]}