{"lat":59.5,"lon":18.25,"programs":["iota","pota"],"count":6,"references":[{"code":"EU-084","program":"iota","name":"UPPSALA / STOCKHOLM COUNTY group","coordinates":[18.43500042,59.66999817]},{"code":"SE-0103","program":"pota","name":"Trehörningsskogen Nature Reserve","coordinates":[18.3678,59.5357]},{"code":"SE-0409","program":"pota","name":"Smedsmoraskogen Nature Reserve","coordinates":[18.3242,59.7109]},{"code":"SE-0410","program":"pota","name":"Smedsmoraskogen Natura 2000","coordinates":[18.3252,59.7095]},{"code":"SE-0960","program":"pota","name":"Trehörningsskogen Natura 2000","coordinates":[18.3736,59.5356]},{"code":"SE-0961","program":"pota","name":"Domarudden Nature Reserve","coordinates":[18.3409,59.5168]}]}