{"lat":59.5,"lon":6.5,"programs":["pota","sota"],"count":12,"references":[{"code":"NO-0865","program":"pota","name":"Hylsskaret Nature Reserve","coordinates":[6.59804,59.5626]},{"code":"NO-2125","program":"pota","name":"Strandaliane Nature Reserve","coordinates":[6.68313,59.5553]},{"code":"LA/HL-114","program":"sota","name":"Hegerlandsnuten","coordinates":[6.6983,59.7385]},{"code":"LA/RL-059","program":"sota","name":"Hovden","coordinates":[6.6372,59.5256]},{"code":"LA/RL-104","program":"sota","name":"Skaulen","coordinates":[6.5797,59.6344]},{"code":"LA/RL-132","program":"sota","name":"Fidjanuten","coordinates":[6.6837,59.657]},{"code":"LA/RL-134","program":"sota","name":"Reinaskardnuten","coordinates":[6.5423,59.732]},{"code":"LA/RL-144","program":"sota","name":"Snøvassnuten","coordinates":[6.6077,59.604]},{"code":"LA/RL-145","program":"sota","name":"Dyrskarnuten","coordinates":[6.712,59.5331]},{"code":"LA/RL-159","program":"sota","name":"Vatndalsnuten","coordinates":[6.5245,59.5335]},{"code":"LA/RL-175","program":"sota","name":"Hestfjellet","coordinates":[6.5848,59.5734]},{"code":"LA/RL-223","program":"sota","name":"Raudlen","coordinates":[6.6171,59.5532]}]}