{"lat":59.5,"lon":9.5,"programs":["gma","pota","sota"],"count":22,"references":[{"code":"LA/TM-043","program":"gma","name":"Sveinsbuvarden","coordinates":[9.51469994,59.5381012]},{"code":"NO-0100","program":"pota","name":"Barmen Nature Reserve","coordinates":[9.50325,59.6662]},{"code":"NO-0701","program":"pota","name":"Haugene Nature Reserve","coordinates":[9.70463,59.5681]},{"code":"NO-0910","program":"pota","name":"Jondalsåsen Nature Reserve","coordinates":[9.53299,59.7131]},{"code":"NO-0968","program":"pota","name":"Kjerkebergåsen Nature Reserve","coordinates":[9.57575,59.6293]},{"code":"NO-1012","program":"pota","name":"Kolknuten Nature Reserve","coordinates":[9.55087,59.5989]},{"code":"NO-1053","program":"pota","name":"Krona Nature Reserve","coordinates":[9.66397,59.5512]},{"code":"NO-1385","program":"pota","name":"Mysutjernene Nature Reserve","coordinates":[9.64901,59.555]},{"code":"NO-1681","program":"pota","name":"Rønningsfossene Nature Reserve","coordinates":[9.63372,59.564]},{"code":"NO-1719","program":"pota","name":"Rosstjern Nature Reserve","coordinates":[9.68659,59.568]},{"code":"NO-1766","program":"pota","name":"Sandågjelet Nature Reserve","coordinates":[9.6603,59.5481]},{"code":"NO-1767","program":"pota","name":"Sandågrotta Nature Reserve","coordinates":[9.64755,59.543]},{"code":"NO-2972","program":"pota","name":"Skrimfjella Landscape Reserve","coordinates":[9.697,59.5285]},{"code":"NO-3362","program":"pota","name":"Byggmesteråsen National Recreation Area","coordinates":[9.68672,59.6871]},{"code":"NO-3366","program":"pota","name":"Kongsgårdmoen National Recreation Area","coordinates":[9.64875,59.6307]},{"code":"NO-3367","program":"pota","name":"Skavanger flyplass National Recreation Area","coordinates":[9.63975,59.6878]},{"code":"LA/BU-010","program":"sota","name":"Styggmann","coordinates":[9.6436,59.5206]},{"code":"LA/BU-011","program":"sota","name":"Skrim","coordinates":[9.5878,59.515]},{"code":"LA/BU-092","program":"sota","name":"Jonsknuten","coordinates":[9.52222,59.6708]},{"code":"LA/BU-104","program":"sota","name":"Kolknuten","coordinates":[9.50639,59.6194]},{"code":"LA/BU-109","program":"sota","name":"Skjennåsknatten","coordinates":[9.65111,59.7428]},{"code":"LA/TM-043","program":"sota","name":"Sveinsbuvarden","coordinates":[9.5147,59.5381]}]}