{"lat":59.5,"lon":6,"programs":["sota"],"count":13,"references":[{"code":"LA/HL-140","program":"sota","name":"Håfjellet","coordinates":[6.0281,59.7186]},{"code":"LA/HL-145","program":"sota","name":"East of Austmannavatnet","coordinates":[6.1352,59.677]},{"code":"LA/HL-147","program":"sota","name":"Nordfjellet","coordinates":[6.1482,59.6979]},{"code":"LA/HL-149","program":"sota","name":"Grønskornuten","coordinates":[6.1694,59.7132]},{"code":"LA/HL-157","program":"sota","name":"Hålandshovda","coordinates":[6.1019,59.7276]},{"code":"LA/RL-066","program":"sota","name":"Bjørndalsnuten","coordinates":[6.1443,59.5855]},{"code":"LA/RL-069","program":"sota","name":"Bordheia","coordinates":[6.2239,59.6598]},{"code":"LA/RL-089","program":"sota","name":"Hustveitsåta","coordinates":[6.2004,59.5834]},{"code":"LA/RL-097","program":"sota","name":"Lysenuten","coordinates":[6.0477,59.5945]},{"code":"LA/RL-149","program":"sota","name":"Vardanuten","coordinates":[6.2106,59.5994]},{"code":"LA/RL-158","program":"sota","name":"East of Istjørna","coordinates":[6.1514,59.54]},{"code":"LA/RL-177","program":"sota","name":"Sellandsnuten","coordinates":[6.1507,59.5095]},{"code":"LA/RL-182","program":"sota","name":"Horganuten","coordinates":[6.0574,59.5278]}]}