{"lat":59.5,"lon":17.5,"programs":["pota"],"count":13,"references":[{"code":"SE-1109","program":"pota","name":"Rösaringsåsen Nature Reserve","coordinates":[17.5433,59.5157]},{"code":"SE-1110","program":"pota","name":"Rösaringsåsen Natura 2000","coordinates":[17.5444,59.5098]},{"code":"SE-1113","program":"pota","name":"Hebbokärret Natura 2000","coordinates":[17.5252,59.5144]},{"code":"SE-0762","program":"pota","name":"Arnö huvud Nature Reserve","coordinates":[17.543,59.7264]},{"code":"SE-0763","program":"pota","name":"Arnö huvud Natura 2000","coordinates":[17.5618,59.7282]},{"code":"SE-1043","program":"pota","name":"Sandviksåsen Nature Reserve","coordinates":[17.5207,59.6653]},{"code":"SE-1044","program":"pota","name":"Sandviksåsen Natura 2000","coordinates":[17.5185,59.6751]},{"code":"SE-1047","program":"pota","name":"Ekillaåsen Natura 2000","coordinates":[17.5198,59.6058]},{"code":"SE-1048","program":"pota","name":"Ekillaåsen Nature Reserve","coordinates":[17.5049,59.6069]},{"code":"SE-1049","program":"pota","name":"Stora och Lilla Ullfjärden Natura 2000","coordinates":[17.5119,59.6118]},{"code":"SE-1596","program":"pota","name":"Rickebasta alsumpskog Natura 2000","coordinates":[17.7282,59.7361]},{"code":"SE-1597","program":"pota","name":"Rickebasta alsumpskog Nature Reserve","coordinates":[17.7172,59.7341]},{"code":"SE-1598","program":"pota","name":"Morga Natura 2000","coordinates":[17.6368,59.7488]}]}