{"lat":59.75,"lon":11.25,"programs":["pota","sota"],"count":7,"references":[{"code":"NO-0219","program":"pota","name":"Breimosen Nature Reserve","coordinates":[11.274,59.8846]},{"code":"NO-0428","program":"pota","name":"Flåtten Nature Reserve","coordinates":[11.2525,59.7643]},{"code":"NO-1565","program":"pota","name":"Prestehesten Nature Reserve","coordinates":[11.4039,59.8792]},{"code":"NO-1742","program":"pota","name":"Sæter Nature Reserve","coordinates":[11.2583,59.7565]},{"code":"NO-3003","program":"pota","name":"Mjøsjødalen Nature Reserve","coordinates":[11.2949,59.8371]},{"code":"LA/AH-008","program":"sota","name":"Gåsebrenna","coordinates":[11.4542,59.9764]},{"code":"LA/AH-019","program":"sota","name":"Elgheia","coordinates":[11.4713,59.8849]}]}