{"lat":59.75,"lon":6.5,"programs":["pota","sota"],"count":12,"references":[{"code":"NO-0767","program":"pota","name":"Hildal Nature Reserve","coordinates":[6.57444,59.9962]},{"code":"LA/HL-094","program":"sota","name":"Kvitenuten","coordinates":[6.7377,59.8594]},{"code":"LA/HL-099","program":"sota","name":"Såta","coordinates":[6.7223,59.775]},{"code":"LA/HL-102","program":"sota","name":"Holmanuten","coordinates":[6.7457,59.7602]},{"code":"LA/HL-105","program":"sota","name":"Elvershei","coordinates":[6.7111,59.8352]},{"code":"LA/HL-108","program":"sota","name":"Borddalsnuten","coordinates":[6.508,59.8448]},{"code":"LA/HL-111","program":"sota","name":"Smalatinden","coordinates":[6.6975,59.8055]},{"code":"LA/HL-130","program":"sota","name":"Øktarenuten","coordinates":[6.5396,59.9247]},{"code":"LA/HL-152","program":"sota","name":"Nonsnut","coordinates":[6.5783,59.919]},{"code":"LA/RL-005","program":"sota","name":"Kyrkjenuten","coordinates":[6.5492,59.7942]},{"code":"LA/RL-126","program":"sota","name":"North of Heimstetinden","coordinates":[6.616,59.7721]},{"code":"LA/RL-128","program":"sota","name":"Tindane","coordinates":[6.6408,59.7959]}]}