{"lat":59.75,"lon":11,"programs":["pota","sota"],"count":14,"references":[{"code":"NO-0429","program":"pota","name":"Flaen Nature Reserve","coordinates":[11.1089,59.9814]},{"code":"NO-0809","program":"pota","name":"Holmen Nature Reserve","coordinates":[11.0976,59.9668]},{"code":"NO-0903","program":"pota","name":"Jølsen Nature Reserve","coordinates":[11.0966,59.9687]},{"code":"NO-1028","program":"pota","name":"Kongsrudtjern Nature Reserve","coordinates":[11.1377,59.9742]},{"code":"NO-1443","program":"pota","name":"Nordre Øyeren Nature Reserve","coordinates":[11.1587,59.8598]},{"code":"NO-1488","program":"pota","name":"Østmarka Nature Reserve","coordinates":[11.0394,59.8399]},{"code":"NO-1582","program":"pota","name":"Råsok Nature Reserve","coordinates":[11.1786,59.8938]},{"code":"NO-1600","program":"pota","name":"Ramstadslottet Nature Reserve","coordinates":[11.0355,59.9021]},{"code":"NO-1726","program":"pota","name":"Rud Nature Reserve","coordinates":[11.1522,59.8381]},{"code":"NO-1980","program":"pota","name":"Sørumsneset Nature Reserve","coordinates":[11.084,59.9432]},{"code":"NO-2049","program":"pota","name":"Stilla og Brauterstilla Nature Reserve","coordinates":[11.087,59.9697]},{"code":"NO-2967","program":"pota","name":"Styggvannsdalen Nature Reserve","coordinates":[11.0019,59.8997]},{"code":"LA/AH-010","program":"sota","name":"Barlinderåsen","coordinates":[11.0358,59.9019]},{"code":"LA/AH-011","program":"sota","name":"Bjørnholen","coordinates":[11.1671,59.9888]}]}