{"lat":59.75,"lon":14.75,"programs":["pota","sota"],"count":7,"references":[{"code":"SE-0983","program":"pota","name":"Kindla Nature Reserve","coordinates":[14.895,59.7616]},{"code":"SE-1337","program":"pota","name":"Sörgårdsmarken Nature Reserve","coordinates":[14.8155,59.8116]},{"code":"SE-1338","program":"pota","name":"Gäddtjärn Nature Reserve","coordinates":[14.9435,59.7642]},{"code":"SE-1350","program":"pota","name":"Rasbackstjärn Nature Reserve","coordinates":[14.8939,59.7514]},{"code":"SE-1351","program":"pota","name":"Salboknös Nature Reserve","coordinates":[14.941,59.7967]},{"code":"SE-1352","program":"pota","name":"Salboknös Natura 2000","coordinates":[14.9351,59.8089]},{"code":"SM/OR-001","program":"sota","name":"Kindlahöjden","coordinates":[14.8994,59.7633]}]}