{"lat":59.75,"lon":15,"programs":["pota"],"count":8,"references":[{"code":"SE-1353","program":"pota","name":"Rällsälven och Bredsjöbäcken Nature Reserve","coordinates":[15.0407,59.8138]},{"code":"SE-1354","program":"pota","name":"Södra Sandsjöåsen Natura 2000","coordinates":[15.164,59.9306]},{"code":"SE-1355","program":"pota","name":"Jämmerdalen Natura 2000","coordinates":[15.1204,59.907]},{"code":"SE-1356","program":"pota","name":"Lilla Kroktjärnsberget Nature Reserve","coordinates":[15.1346,59.8927]},{"code":"SE-1357","program":"pota","name":"Dragtjärn Nature Reserve","coordinates":[15.1581,59.9172]},{"code":"SE-1358","program":"pota","name":"Getryggsområdet Nature Reserve","coordinates":[15.1667,59.9051]},{"code":"SE-1359","program":"pota","name":"Lilla Korslången Nature Reserve","coordinates":[15.2457,59.8932]},{"code":"SE-1360","program":"pota","name":"Södra Sandsjöåsen Nature Reserve","coordinates":[15.167,59.9488]}]}