{"lat":59.75,"lon":18.5,"programs":["pota"],"count":10,"references":[{"code":"SE-0705","program":"pota","name":"Klovsten Nature Reserve","coordinates":[18.6973,59.9828]},{"code":"SE-0708","program":"pota","name":"Norra Malma Nature Reserve","coordinates":[18.6529,59.8343]},{"code":"SE-0710","program":"pota","name":"Ön-Bokulludden Nature Reserve","coordinates":[18.5769,59.831]},{"code":"SE-0730","program":"pota","name":"Hasselhorn Nature Reserve","coordinates":[18.6053,59.8574]},{"code":"SE-0731","program":"pota","name":"Hasselhorn Natura 2000","coordinates":[18.6268,59.8616]},{"code":"SE-0732","program":"pota","name":"Norra Malma Natura 2000","coordinates":[18.6535,59.8326]},{"code":"SE-1704","program":"pota","name":"Lohärads Prästgård Nature Reserve","coordinates":[18.5555,59.8137]},{"code":"SE-1705","program":"pota","name":"Ladängssjöns Nature Reserve","coordinates":[18.5235,59.8623]},{"code":"SE-1793","program":"pota","name":"Lohärad-Svartkärret Nature Reserve","coordinates":[18.5142,59.8625]},{"code":"SE-1794","program":"pota","name":"Svartkärret Natura 2000","coordinates":[18.514,59.8625]}]}