{"lat":59.75,"lon":-1.5,"programs":["pota","sota","wwbota"],"count":15,"references":[{"code":"GB-2761","program":"pota","name":"Lochs of Spiggie and Brow Special Protected Area","coordinates":[-1.34307,59.9425]},{"code":"GB-2770","program":"pota","name":"Sumburgh Head Site of Significant Scientific Interest","coordinates":[-1.27215,59.8583]},{"code":"GB-2771","program":"pota","name":"Pool of Virkie Site of Significant Scientific Interest","coordinates":[-1.29552,59.886]},{"code":"GB-2772","program":"pota","name":"The Cletts, Exnaboe Site of Significant Scientific Interest","coordinates":[-1.27521,59.8978]},{"code":"GB-2773","program":"pota","name":"Quendale Site of Significant Scientific Interest","coordinates":[-1.33696,59.8993]},{"code":"GB-2774","program":"pota","name":"Dalsetter Site of Significant Scientific Interest","coordinates":[-1.28045,59.9275]},{"code":"GB-2775","program":"pota","name":"St Ninian's Tombolo Site of Significant Scientific Interest","coordinates":[-1.33003,59.9716]},{"code":"GB-2904","program":"pota","name":"Sumburgh Head RSPB Reserve","coordinates":[-1.2744,59.8545]},{"code":"GB-2905","program":"pota","name":"Loch of Spiggie RSPB Reserve","coordinates":[-1.33776,59.9424]},{"code":"GM/SI-160","program":"sota","name":"Fitful Head","coordinates":[-1.382725,59.905567]},{"code":"GM/SI-171","program":"sota","name":"Ward of Scousburgh","coordinates":[-1.307235,59.952374]},{"code":"B/GM-0302","program":"wwbota","name":"ROC Post Sumburgh Head","coordinates":[-1.303326,59.897363]},{"code":"B/GM-0356","program":"wwbota","name":"Chain Home - Noss Hill","coordinates":[-1.355543,59.923624]},{"code":"B/GM-0404","program":"wwbota","name":"Airfield Battle HQ - Sumburgh","coordinates":[-1.301614,59.876701]},{"code":"B/GM-0446","program":"wwbota","name":"Grind, WW2 Decoy Control Bunker","coordinates":[-1.3082136,59.868564]}]}