{"lat":59.75,"lon":10.25,"programs":["pota","sota"],"count":33,"references":[{"code":"NO-0059","program":"pota","name":"Asdøljuvet Nature Reserve","coordinates":[10.3087,59.8741]},{"code":"NO-0131","program":"pota","name":"Bjerkås Nature Reserve","coordinates":[10.4938,59.7929]},{"code":"NO-0161","program":"pota","name":"Blåfjell Nature Reserve","coordinates":[10.3834,59.7837]},{"code":"NO-0279","program":"pota","name":"Djupdalen og Kjaglidalen Nature Reserve","coordinates":[10.3849,59.9863]},{"code":"NO-0329","program":"pota","name":"Eine Nature Reserve","coordinates":[10.4736,59.9422]},{"code":"NO-0356","program":"pota","name":"Enli Nature Reserve","coordinates":[10.4564,59.9398]},{"code":"NO-0497","program":"pota","name":"Furuåsen og Hagahogget Nature Reserve","coordinates":[10.3698,59.8505]},{"code":"NO-0552","program":"pota","name":"Gjellebekkmyrene Nature Reserve","coordinates":[10.2994,59.8122]},{"code":"NO-0785","program":"pota","name":"Høgåsen Nature Reserve","coordinates":[10.3154,59.8972]},{"code":"NO-0863","program":"pota","name":"Hvalskjæret Nature Reserve","coordinates":[10.4971,59.8438]},{"code":"NO-0888","program":"pota","name":"Isi Nature Reserve","coordinates":[10.4356,59.9506]},{"code":"NO-1210","program":"pota","name":"Linnesstranda Nature Reserve","coordinates":[10.2752,59.7505]},{"code":"NO-1227","program":"pota","name":"Løkenesskogen Nature Reserve","coordinates":[10.4876,59.836]},{"code":"NO-1446","program":"pota","name":"Nordre Skaugumsåsen Nature Reserve","coordinates":[10.4512,59.8689]},{"code":"NO-1522","program":"pota","name":"Oppsjømyrene Nature Reserve","coordinates":[10.3929,59.8177]},{"code":"NO-1597","program":"pota","name":"Ramsåsen Nature Reserve","coordinates":[10.4298,59.9064]},{"code":"NO-1655","program":"pota","name":"Ringiåsen Nature Reserve","coordinates":[10.4476,59.9007]},{"code":"NO-1866","program":"pota","name":"Skaugumsåsen og Åstad Nature Reserve","coordinates":[10.4599,59.8687]},{"code":"NO-1931","program":"pota","name":"Slemmestadåsen - Morberg Nature Reserve","coordinates":[10.4973,59.7656]},{"code":"NO-1956","program":"pota","name":"Søndre Hørtekollen Nature Reserve","coordinates":[10.2813,59.9114]},{"code":"NO-2012","program":"pota","name":"Spirodden Nature Reserve","coordinates":[10.4941,59.8303]},{"code":"NO-2176","program":"pota","name":"Svarverudelva Nature Reserve","coordinates":[10.2524,59.9721]},{"code":"NO-2285","program":"pota","name":"Trollmyr Nature Reserve","coordinates":[10.4436,59.8946]},{"code":"NO-2292","program":"pota","name":"Tronstad Nature Reserve","coordinates":[10.2507,59.8824]},{"code":"NO-2294","program":"pota","name":"Tuemyr Nature Reserve","coordinates":[10.3884,59.8857]},{"code":"NO-2311","program":"pota","name":"Tverrbergkastet Nature Reserve","coordinates":[10.3348,59.9444]},{"code":"NO-2382","program":"pota","name":"Vassmyråsen Nature Reserve","coordinates":[10.3937,59.8945]},{"code":"NO-2399","program":"pota","name":"Vensåsmyra Nature Reserve","coordinates":[10.4821,59.9728]},{"code":"NO-2950","program":"pota","name":"Løkeneshalvøya Landscape Reserve","coordinates":[10.492,59.8337]},{"code":"NO-2955","program":"pota","name":"Tranby Landscape Reserve","coordinates":[10.2855,59.8112]},{"code":"NO-2956","program":"pota","name":"Søbråten Nature Reserve","coordinates":[10.4384,59.8984]},{"code":"NO-3010","program":"pota","name":"Semsvannet Landscape Reserve","coordinates":[10.4216,59.8577]},{"code":"LA/BU-125","program":"sota","name":"Kraftkollen","coordinates":[10.28694,59.8347]}]}