{"lat":59.75,"lon":9.75,"programs":["gma","pota","sota"],"count":9,"references":[{"code":"LB/BU-002","program":"gma","name":"Glomsrudkollen","coordinates":[9.9847002,59.89139938]},{"code":"NO-0288","program":"pota","name":"Dokkene Nature Reserve","coordinates":[9.91033,59.9629]},{"code":"NO-1306","program":"pota","name":"Mastedalen Nature Reserve","coordinates":[9.91846,59.9541]},{"code":"NO-2375","program":"pota","name":"Vassbunn Nature Reserve","coordinates":[9.97008,59.9194]},{"code":"NO-2999","program":"pota","name":"Vikersund-Bergsjø Biosphere Reserve","coordinates":[9.99037,59.9496]},{"code":"LA/BU-013","program":"sota","name":"Hafella","coordinates":[9.7953,59.8469]},{"code":"LA/BU-014","program":"sota","name":"Myrehogget","coordinates":[9.7511,59.8333]},{"code":"LA/BU-108","program":"sota","name":"Knivfjellet","coordinates":[9.965,59.8461]},{"code":"LA/BU-145","program":"sota","name":"Heggåsen/Røysa","coordinates":[9.79241,59.9264]}]}