{"lat":59.75,"lon":6,"programs":["pota","sota"],"count":20,"references":[{"code":"NO-2763","program":"pota","name":"Sævareidberget Landscape Reserve","coordinates":[6.13093,59.7662]},{"code":"NO-2859","program":"pota","name":"Hattebergsdalen Landscape Reserve","coordinates":[6.08445,59.9747]},{"code":"LA/HL-109","program":"sota","name":"Blåhatten","coordinates":[6.1734,59.9977]},{"code":"LA/HL-113","program":"sota","name":"Blådalshorga","coordinates":[6.1924,59.9019]},{"code":"LA/HL-117","program":"sota","name":"Alvaldsnuten","coordinates":[6.2265,59.865]},{"code":"LA/HL-118","program":"sota","name":"Veranuten","coordinates":[6.1696,59.944]},{"code":"LA/HL-121","program":"sota","name":"Sandvasshorga","coordinates":[6.1666,59.8717]},{"code":"LA/HL-122","program":"sota","name":"South of Rindafjellet","coordinates":[6.1337,59.9303]},{"code":"LA/HL-125","program":"sota","name":"Brattagrød","coordinates":[6.0875,59.9133]},{"code":"LA/HL-126","program":"sota","name":"Skeidsfjellet","coordinates":[6.1126,59.955]},{"code":"LA/HL-128","program":"sota","name":"Kvanndalsnuten","coordinates":[6.1704,59.8405]},{"code":"LA/HL-133","program":"sota","name":"Reinsnuten","coordinates":[6.2075,59.7724]},{"code":"LA/HL-135","program":"sota","name":"Kvannto","coordinates":[6.0416,59.9259]},{"code":"LA/HL-137","program":"sota","name":"Kallviknut","coordinates":[6.1406,59.8169]},{"code":"LA/HL-138","program":"sota","name":"Ingahogg","coordinates":[6.0867,59.836]},{"code":"LA/HL-139","program":"sota","name":"Tindafjellet","coordinates":[6.0348,59.8476]},{"code":"LA/HL-144","program":"sota","name":"Skredkollen","coordinates":[6.15,59.7561]},{"code":"LA/HL-146","program":"sota","name":"Malmangersnuten","coordinates":[6.0381,59.9761]},{"code":"LA/HL-161","program":"sota","name":"N Bergshovda","coordinates":[6.0238,59.8804]},{"code":"LA/HL-189","program":"sota","name":"Åsen","coordinates":[6.0008,59.8554]}]}