{"lat":6,"lon":-75.75,"programs":["pota"],"count":11,"references":[{"code":"CO-0006","program":"pota","name":"Cerro Nutibara Recreation Site","coordinates":[-75.5802,6.23601]},{"code":"CO-0080","program":"pota","name":"Divisoria Valle de Aburrá Río Cauca State Conservation Area","coordinates":[-75.6724,6.23409]},{"code":"CO-0128","program":"pota","name":"San Miguel State Conservation Area","coordinates":[-75.5541,6.03655]},{"code":"CO-0301","program":"pota","name":"Alto de San Miguel State Forest","coordinates":[-75.5912,6.03102]},{"code":"CO-0469","program":"pota","name":"Telemedellín - Canal Parque Gabriel García Márquez Metropolitan Protected Areas","coordinates":[-75.5707,6.21909]},{"code":"CO-0470","program":"pota","name":"Telemedellín - Canal Parque Gabriel García Márquez Metropolitan Protected Areas","coordinates":[-75.5707,6.21909]},{"code":"CO-0473","program":"pota","name":"Cerro La Asomadera Protected Area","coordinates":[-75.566,6.23607]},{"code":"CO-0475","program":"pota","name":"Parque Ambiental Miraflores Park","coordinates":[-75.6298,6.12068]},{"code":"CO-0483","program":"pota","name":"PARQUE ECOLOGICO EL SALADO. Nature Recreation Reserve","coordinates":[-75.5704,6.1378]},{"code":"CO-0484","program":"pota","name":"PARQUE ECOLOGICO LA ROMERA. Ecological Park","coordinates":[-75.5975,6.1199]},{"code":"CO-0502","program":"pota","name":"Humedal Ditaires Habitat Protection Area","coordinates":[-75.6282,6.16636]}]}