{"lat":6,"lon":102.25,"programs":["wwbota"],"count":5,"references":[{"code":"B/9M-0016","program":"wwbota","name":"Pantai Chap  (bunker)","coordinates":[102.41285,6.03718]},{"code":"B/9M-0017","program":"wwbota","name":"Pantai Kundur (bunker)","coordinates":[102.2535,6.20663]},{"code":"B/9M-0019","program":"wwbota","name":"Pantai Perupok (bunker)","coordinates":[102.39218,6.08947]},{"code":"B/9M-0023","program":"wwbota","name":"Pillbox Kampung Baung (bunker)","coordinates":[102.27662,6.16102]},{"code":"B/9M-0025","program":"wwbota","name":"Dataran Kubu Kuala Gel (bunker)","coordinates":[102.42981,6.00141]}]}