{"lat":6.75,"lon":158,"programs":["pota"],"count":7,"references":[{"code":"FM-0004","program":"pota","name":"Palikir Marine Protected Area","coordinates":[158.169,6.94101]},{"code":"FM-0005","program":"pota","name":"Nicho Marine Park","coordinates":[158.169,6.94101]},{"code":"FM-0014","program":"pota","name":"Pasa Marine Protected Area","coordinates":[158.013,6.80129]},{"code":"FM-0017","program":"pota","name":"Kehpara Marine Protected Area","coordinates":[158.117,6.79403]},{"code":"FM-0018","program":"pota","name":"Pwudoi Forest Reserve","coordinates":[158.157,6.85471]},{"code":"FM-0019","program":"pota","name":"Enipein Forest Reserve","coordinates":[158.216,6.80584]},{"code":"FM-0023","program":"pota","name":"Pohnpei Watershed Forest Reserve","coordinates":[158.239,6.88466]}]}