{"lat":60,"lon":6.5,"programs":["sota"],"count":5,"references":[{"code":"LA/HL-086","program":"sota","name":"Stridfallsnuten","coordinates":[6.6615,60.0359]},{"code":"LA/HL-087","program":"sota","name":"Bleikaberg","coordinates":[6.6418,60.0626]},{"code":"LA/HL-091","program":"sota","name":"Mosaskornuten","coordinates":[6.6786,60.098]},{"code":"LA/HL-132","program":"sota","name":"Jordalsnuten","coordinates":[6.5192,60.0341]},{"code":"LA/HL-221","program":"sota","name":"Storenuten","coordinates":[6.7214,60.1515]}]}