{"lat":60,"lon":23.75,"programs":["pota"],"count":11,"references":[{"code":"FI-0366","program":"pota","name":"Karkali Nature Park","coordinates":[23.799,60.2414]},{"code":"FI-0422","program":"pota","name":"Långån kosteikko Natura 2000","coordinates":[23.7921,60.0666]},{"code":"FI-1301","program":"pota","name":"Lohjanjärven alueet Natura 2000","coordinates":[23.9167,60.1972]},{"code":"FI-1302","program":"pota","name":"Pikkujärvi Natura 2000","coordinates":[23.9387,60.1759]},{"code":"FI-1303","program":"pota","name":"Pytbergin luonnonsuojelualue State Nature Preserve","coordinates":[23.9113,60.1493]},{"code":"FI-1304","program":"pota","name":"Åkärr, Strykmossen ja Pytberg Natura 2000","coordinates":[23.9428,60.1464]},{"code":"FI-1388","program":"pota","name":"Lohjanjärven alueiden luonnonsuojelualue State Nature Preserve","coordinates":[23.8244,60.2382]},{"code":"FI-1394","program":"pota","name":"Mustionjoki Natura 2000","coordinates":[23.766,60.1503]},{"code":"FI-1395","program":"pota","name":"Varvarinsuon luonnonsuojelualu State Nature Preserve","coordinates":[23.8155,60.1217]},{"code":"FI-1396","program":"pota","name":"Varvarinsuo Natura 2000","coordinates":[23.8066,60.1149]},{"code":"FI-1397","program":"pota","name":"Långån kosteikon luonnonsuojelualue National Park","coordinates":[23.7644,60.0674]}]}