{"lat":60,"lon":11,"programs":["pota"],"count":14,"references":[{"code":"NO-0791","program":"pota","name":"Høgsmåsan Nature Reserve","coordinates":[11.0039,60.0354]},{"code":"NO-1220","program":"pota","name":"Ljøgodttjern Nature Reserve","coordinates":[11.1384,60.1482]},{"code":"NO-1392","program":"pota","name":"Nannestad Kapellangård Nature Reserve","coordinates":[11.0697,60.1415]},{"code":"NO-1788","program":"pota","name":"Sandtjern Nature Reserve","coordinates":[11.1883,60.219]},{"code":"NO-2181","program":"pota","name":"Svenskestutjern Nature Reserve","coordinates":[11.175,60.1731]},{"code":"NO-2601","program":"pota","name":"Nordbytjern Landscape Reserve","coordinates":[11.1613,60.1593]},{"code":"NO-2602","program":"pota","name":"Romerike Landscape Reserve","coordinates":[11.0939,60.1657]},{"code":"NO-2603","program":"pota","name":"Elstad Landscape Reserve","coordinates":[11.1486,60.2094]},{"code":"NO-2604","program":"pota","name":"Aurmoen Landscape Reserve","coordinates":[11.1047,60.2444]},{"code":"NO-2948","program":"pota","name":"Prestegarden Nature Reserve","coordinates":[11.0662,60.14]},{"code":"NO-3011","program":"pota","name":"Torshov Nature Reserve","coordinates":[11.1032,60.1008]},{"code":"NO-3079","program":"pota","name":"Høgsmåsan og Geitåsen Nature Reserve","coordinates":[11.0003,60.0317]},{"code":"NO-3080","program":"pota","name":"Sogna Nature Reserve","coordinates":[11.0506,60.1892]},{"code":"NO-3332","program":"pota","name":"Nordbytjernet National Recreation Area","coordinates":[11.1598,60.154]}]}