{"lat":60,"lon":9.75,"programs":["pota","sota"],"count":6,"references":[{"code":"NO-0610","program":"pota","name":"Grønknuten Nature Reserve","coordinates":[9.91205,60.1718]},{"code":"NO-0792","program":"pota","name":"Høgtidsåsen og Svartfjellet Nature Reserve","coordinates":[9.81534,60.0469]},{"code":"NO-1594","program":"pota","name":"Ramfoss Nature Reserve","coordinates":[9.8124,60.0829]},{"code":"NO-2052","program":"pota","name":"Størrmyran Nature Reserve","coordinates":[9.77994,60.1824]},{"code":"LA/BU-102","program":"sota","name":"Rudskollen","coordinates":[9.9025,60.1831]},{"code":"LA/BU-110","program":"sota","name":"Nattjennåsen","coordinates":[9.76278,60.0436]}]}