{"lat":60,"lon":9.25,"programs":["pota","sota"],"count":7,"references":[{"code":"NO-1257","program":"pota","name":"Lunnane Nature Reserve","coordinates":[9.42883,60.0069]},{"code":"NO-1992","program":"pota","name":"Solevatn Nature Reserve","coordinates":[9.40877,60.1866]},{"code":"LA/BU-080","program":"sota","name":"Søtelifjellet","coordinates":[9.26833,60.1969]},{"code":"LA/BU-091","program":"sota","name":"Slettefjell","coordinates":[9.34667,60.0961]},{"code":"LA/BU-093","program":"sota","name":"Raudsteinvarden","coordinates":[9.35861,60.0144]},{"code":"LA/BU-100","program":"sota","name":"Andersnatten","coordinates":[9.41778,60.1175]},{"code":"LA/BU-113","program":"sota","name":"Hiåsvarden","coordinates":[9.47722,60.015]}]}