{"lat":60,"lon":10.5,"programs":["pota","sota"],"count":13,"references":[{"code":"NO-0946","program":"pota","name":"Karusspytten Nature Reserve","coordinates":[10.6615,60.022]},{"code":"NO-1232","program":"pota","name":"Lørensetertjern Nature Reserve","coordinates":[10.6807,60.02]},{"code":"NO-2657","program":"pota","name":"Blankvann Landscape Reserve","coordinates":[10.6623,60.0273]},{"code":"NO-2659","program":"pota","name":"Blankvann National Ecological Reserve","coordinates":[10.6617,60.0235]},{"code":"NO-1518","program":"pota","name":"Oppkuven - Smeddalen Nature Reserve","coordinates":[10.528,60.0839]},{"code":"NO-2006","program":"pota","name":"Spålen-Katnosa Nature Reserve","coordinates":[10.5301,60.1647]},{"code":"NO-2585","program":"pota","name":"Tullebrennhaugen Nature Reserve","coordinates":[10.7438,60.2492]},{"code":"NO-3077","program":"pota","name":"Fjellsjøhøgda Nature Reserve","coordinates":[10.6264,60.2083]},{"code":"LA/BU-025","program":"sota","name":"Oppkuven","coordinates":[10.5203,60.0903]},{"code":"LA/OL-046","program":"sota","name":"Svarttjernshøgda","coordinates":[10.5025,60.2214]},{"code":"LA/OL-047","program":"sota","name":"Venehaugane","coordinates":[10.595,60.2211]},{"code":"LA/OS-001","program":"sota","name":"Porthøgda","coordinates":[10.6384,60.085]},{"code":"LA/OS-002","program":"sota","name":"Heikampen","coordinates":[10.6036,60.0642]}]}