{"lat":60.25,"lon":23.5,"programs":["pota"],"count":5,"references":[{"code":"FI-0252","program":"pota","name":"Omenojärvi Natura 2000","coordinates":[23.5395,60.4173]},{"code":"FI-0278","program":"pota","name":"Hyyppärän luonnonsuojelualue State Nature Preserve","coordinates":[23.6079,60.43]},{"code":"FI-0780","program":"pota","name":"Aneriojärvi Natura 2000","coordinates":[23.5711,60.3725]},{"code":"FI-0781","program":"pota","name":"Hyyppärän harjualue Natura 2000","coordinates":[23.679,60.4602]},{"code":"FI-1163","program":"pota","name":"Omenojärven luonnonsuojelualue State Nature Preserve","coordinates":[23.5412,60.412]}]}