{"lat":60.25,"lon":-1.75,"programs":["pota","sota"],"count":6,"references":[{"code":"GB-2766","program":"pota","name":"Papa Stour Special Protected Area","coordinates":[-1.71937,60.3387]},{"code":"GB-2784","program":"pota","name":"Sel Ayre Site of Significant Scientific Interest","coordinates":[-1.67926,60.2698]},{"code":"GB-2785","program":"pota","name":"Melby Site of Significant Scientific Interest","coordinates":[-1.68971,60.2987]},{"code":"GB-2786","program":"pota","name":"Sandness Coast Site of Significant Scientific Interest","coordinates":[-1.66406,60.3048]},{"code":"GB-2800","program":"pota","name":"Eshaness Coast Site of Significant Scientific Interest","coordinates":[-1.61666,60.4787]},{"code":"GM/SI-179","program":"sota","name":"Sandness Hill","coordinates":[-1.655205,60.285213]}]}