{"lat":60.25,"lon":23.75,"programs":["pota"],"count":7,"references":[{"code":"FI-0367","program":"pota","name":"Karkali, Suuriniemi ja Mailan alueet Natura 2000","coordinates":[23.8255,60.2593]},{"code":"FI-0782","program":"pota","name":"Keräkankare ja kylmälähde Natura 2000","coordinates":[23.8993,60.4953]},{"code":"FI-0784","program":"pota","name":"Lintukiimanvuori Natura 2000","coordinates":[23.8989,60.4335]},{"code":"FI-1170","program":"pota","name":"Kiimamäen luonnonsuojelualue State Nature Preserve","coordinates":[23.9919,60.4788]},{"code":"FI-1386","program":"pota","name":"Lakimäen metsä Natura 2000","coordinates":[23.9678,60.2885]},{"code":"FI-1387","program":"pota","name":"Karstunlahden metsä ja kalliot Natura 2000","coordinates":[23.8954,60.2795]},{"code":"FI-0783","program":"pota","name":"Viuvalannummi Natura 2000","coordinates":[23.8482,60.4972]}]}