{"lat":60.25,"lon":22,"programs":["pota"],"count":5,"references":[{"code":"FI-0242","program":"pota","name":"Ruissalon lehdot Natura 2000","coordinates":[22.1746,60.4326]},{"code":"FI-1408","program":"pota","name":"Mustfinnträsket Natura 2000","coordinates":[22.1532,60.3093]},{"code":"FI-1409","program":"pota","name":"Paraisten kalkkialueet Natura 2000","coordinates":[22.1678,60.2971]},{"code":"FI-1410","program":"pota","name":"Pettebyviken Natura 2000","coordinates":[22.2059,60.288]},{"code":"FI-1411","program":"pota","name":"Krampin luonnonsuojelualue State Nature Preserve","coordinates":[22.0035,60.2993]}]}