{"lat":60.25,"lon":-149.5,"programs":["pota","sota"],"count":17,"references":[{"code":"US-4447","program":"pota","name":"Chugach National Forest","coordinates":[-149.42,60.2581]},{"code":"KLA/KM-004","program":"sota","name":"Andy Simons Mountain","coordinates":[-149.2601,60.3714]},{"code":"KLA/KM-006","program":"sota","name":"Sheep Mountain","coordinates":[-149.2648,60.3352]},{"code":"KLA/KM-057","program":"sota","name":"Mount Ascension","coordinates":[-149.4992,60.2584]},{"code":"KLA/KM-067","program":"sota","name":"5583","coordinates":[-149.2523,60.4446]},{"code":"KLA/KM-122","program":"sota","name":"Solars Mountain","coordinates":[-149.2705,60.4532]},{"code":"KLA/KM-149","program":"sota","name":"Madson Mountain","coordinates":[-149.4334,60.455]},{"code":"KLA/KM-177","program":"sota","name":"Mount Adair","coordinates":[-149.4673,60.3558]},{"code":"KLA/KM-191","program":"sota","name":"5150","coordinates":[-149.4789,60.2578]},{"code":"KLA/KM-233","program":"sota","name":"5030","coordinates":[-149.4564,60.4391]},{"code":"KLA/KM-248","program":"sota","name":"4940","coordinates":[-149.4922,60.3568]},{"code":"KLA/KM-254","program":"sota","name":"L V Ray Peak","coordinates":[-149.4205,60.4819]},{"code":"KLA/KM-274","program":"sota","name":"4806","coordinates":[-149.2716,60.4644]},{"code":"KLA/KM-286","program":"sota","name":"4750","coordinates":[-149.4887,60.2866]},{"code":"KLA/KM-302","program":"sota","name":"4678","coordinates":[-149.2747,60.4186]},{"code":"KLA/KM-362","program":"sota","name":"Sleeping Sister Mountain","coordinates":[-149.4819,60.3783]},{"code":"KLA/KM-447","program":"sota","name":"Black Mountain","coordinates":[-149.4049,60.3865]}]}