{"lat":60.25,"lon":9.5,"programs":["pota","sota"],"count":12,"references":[{"code":"NO-0650","program":"pota","name":"Gulsvikelvi Nature Reserve","coordinates":[9.54297,60.3567]},{"code":"NO-0709","program":"pota","name":"Haverstingen Nature Reserve","coordinates":[9.69687,60.3062]},{"code":"NO-0764","program":"pota","name":"Hestgjuvnatten Nature Reserve","coordinates":[9.52345,60.3302]},{"code":"NO-1111","program":"pota","name":"Laksejuv Nature Reserve","coordinates":[9.53014,60.2931]},{"code":"NO-1838","program":"pota","name":"Sjølingelve Nature Reserve","coordinates":[9.52099,60.3796]},{"code":"NO-2058","program":"pota","name":"Storås Nature Reserve","coordinates":[9.71333,60.2532]},{"code":"NO-2428","program":"pota","name":"Veteren Nature Reserve","coordinates":[9.60635,60.3253]},{"code":"LA/BU-059","program":"sota","name":"Sørbøfjellet","coordinates":[9.60194,60.4733]},{"code":"LA/BU-079","program":"sota","name":"Kristnatten","coordinates":[9.54139,60.4672]},{"code":"LA/BU-081","program":"sota","name":"Hestgjuvnatten","coordinates":[9.56,60.3236]},{"code":"LA/BU-096","program":"sota","name":"Haverstingen","coordinates":[9.72083,60.2817]},{"code":"LA/BU-161","program":"sota","name":"Storås","coordinates":[9.63065,60.2792]}]}