{"lat":60.25,"lon":-1.5,"programs":["pota","sota","wwbota"],"count":13,"references":[{"code":"GB-2789","program":"pota","name":"Sandwater Site of Significant Scientific Interest","coordinates":[-1.25188,60.2783]},{"code":"GB-2790","program":"pota","name":"Burn of Lunklet Site of Significant Scientific Interest","coordinates":[-1.33715,60.2992]},{"code":"GB-2791","program":"pota","name":"The Vadills Site of Significant Scientific Interest","coordinates":[-1.47675,60.2843]},{"code":"GB-2792","program":"pota","name":"Ness of Clousta - The Brigs Site of Significant Scientific Interest","coordinates":[-1.45891,60.305]},{"code":"GB-2793","program":"pota","name":"Loch of Clousta Site of Significant Scientific Interest","coordinates":[-1.43299,60.3066]},{"code":"GB-2795","program":"pota","name":"Muckle Roe Meadows Site of Significant Scientific Interest","coordinates":[-1.38402,60.3757]},{"code":"GB-2796","program":"pota","name":"Voxter Voe and Valayre Quarry Site of Significant Scientific Interest","coordinates":[-1.33492,60.4083]},{"code":"GB-2797","program":"pota","name":"Dales Voe Site of Significant Scientific Interest","coordinates":[-1.25938,60.3993]},{"code":"GB-2799","program":"pota","name":"Clothister Hill Quarry Site of Significant Scientific Interest","coordinates":[-1.38233,60.4425]},{"code":"GM/SI-164","program":"sota","name":"Scalla Field","coordinates":[-1.2975,60.29763]},{"code":"GM/SI-177","program":"sota","name":"Dalescord Hill","coordinates":[-1.288351,60.39802]},{"code":"GM/SI-215","program":"sota","name":"Mid Ward","coordinates":[-1.421418,60.369728]},{"code":"B/GM-0402","program":"wwbota","name":"Airfield Battle HQ - Scatsta","coordinates":[-1.289967,60.429933]}]}