{"lat":60.25,"lon":5.75,"programs":["sota"],"count":13,"references":[{"code":"LA/HL-241","program":"sota","name":"Tveitakvitingen","coordinates":[5.9085,60.3254]},{"code":"LA/HL-247","program":"sota","name":"Iendefjell","coordinates":[5.99,60.4314]},{"code":"LA/HL-251","program":"sota","name":"Gavlen","coordinates":[5.8771,60.3084]},{"code":"LA/HL-297","program":"sota","name":"Gråfjellet","coordinates":[5.854,60.4639]},{"code":"LA/HL-298","program":"sota","name":"Ottanosa","coordinates":[5.8001,60.2837]},{"code":"LA/HL-302","program":"sota","name":"Trælen","coordinates":[5.806,60.3274]},{"code":"LA/HL-303","program":"sota","name":"Flæfjellet","coordinates":[5.9184,60.4213]},{"code":"LA/HL-305","program":"sota","name":"Røyrfjellet","coordinates":[5.94469,60.44283]},{"code":"LA/HL-317","program":"sota","name":"Våkefjellet","coordinates":[5.898,60.2734]},{"code":"LA/HL-347","program":"sota","name":"Haukåsen","coordinates":[5.9941,60.3004]},{"code":"LA/HL-364","program":"sota","name":"Totlandsfjellet","coordinates":[5.8226,60.3958]},{"code":"LA/HL-391","program":"sota","name":"Kampen","coordinates":[5.7751,60.3802]},{"code":"LA/HL-406","program":"sota","name":"Solåsen","coordinates":[5.7905,60.394]}]}