{"lat":60.25,"lon":24,"programs":["pota"],"count":8,"references":[{"code":"FI-0254","program":"pota","name":"Vaanilanlahti Natura 2000","coordinates":[24.1292,60.3182]},{"code":"FI-0326","program":"pota","name":"Vanjärvi- Laukkamäki Natura 2000","coordinates":[24.2303,60.4467]},{"code":"FI-0417","program":"pota","name":"Nummi-Pusulan lintuvedet Natura 2000","coordinates":[24.0388,60.3284]},{"code":"FI-1299","program":"pota","name":"Lohjanharju ja Ojamonkanga Natura 2000","coordinates":[24.1462,60.2829]},{"code":"FI-1300","program":"pota","name":"Nummi-Pusulan lintuvedet Natura 2000","coordinates":[24.1396,60.3287]},{"code":"FI-1382","program":"pota","name":"Vanjärvi, Märjäntienmäki ja Laukkamäki Natura 2000","coordinates":[24.2484,60.4401]},{"code":"FI-1384","program":"pota","name":"Myllymäki Natura 2000","coordinates":[24.0066,60.3425]},{"code":"FI-1385","program":"pota","name":"Lakimäen metsän luonnonsuojelualue State Nature Preserve","coordinates":[24.0123,60.3092]}]}