{"lat":60.5,"lon":7.75,"programs":["pota","sota"],"count":7,"references":[{"code":"NO-1402","program":"pota","name":"Nedre Flyvatn Nature Reserve","coordinates":[7.96449,60.7201]},{"code":"LA/BU-001","program":"sota","name":"Folarskardnuten","coordinates":[7.7825,60.6075]},{"code":"LA/BU-004","program":"sota","name":"Blåbergi. Store","coordinates":[7.8275,60.7383]},{"code":"LA/BU-147","program":"sota","name":"Hallingskarvet","coordinates":[7.84997,60.5946]},{"code":"LA/BU-154","program":"sota","name":"Gurustølfjellet","coordinates":[7.95326,60.6483]},{"code":"LA/BU-157","program":"sota","name":"Einsetnuten","coordinates":[7.93961,60.6775]},{"code":"LA/BU-158","program":"sota","name":"Nygardnøse","coordinates":[7.79681,60.5182]}]}