{"lat":60.5,"lon":11,"programs":["pota","sota"],"count":10,"references":[{"code":"NO-0113","program":"pota","name":"Bergevika Nature Reserve","coordinates":[11.0155,60.7494]},{"code":"NO-0375","program":"pota","name":"Falken Nature Reserve","coordinates":[11.1124,60.6155]},{"code":"NO-0407","program":"pota","name":"Fjæluelva Nature Reserve","coordinates":[11.0689,60.6154]},{"code":"NO-1721","program":"pota","name":"Rotlia Nature Reserve","coordinates":[11.1541,60.6429]},{"code":"NO-2147","program":"pota","name":"Sulustaddalen Nature Reserve","coordinates":[11.0045,60.6246]},{"code":"NO-2165","program":"pota","name":"Svartdalstjerna Nature Reserve","coordinates":[11.0152,60.5774]},{"code":"NO-2264","program":"pota","name":"Totenåsen Nature Reserve","coordinates":[11.0728,60.5686]},{"code":"NO-2353","program":"pota","name":"Våletjern Nature Reserve","coordinates":[11.2185,60.7078]},{"code":"NO-2136","program":"pota","name":"Stubberud Nature Reserve","coordinates":[11.1738,60.5418]},{"code":"LA/AH-005","program":"sota","name":"Skreikampen","coordinates":[11.1497,60.5678]}]}