{"lat":60.5,"lon":26,"programs":["pota"],"count":5,"references":[{"code":"FI-0292","program":"pota","name":"Ilveskallion vanha metsä Natura 2000","coordinates":[26.1175,60.6511]},{"code":"FI-0339","program":"pota","name":"Brännängbergetin luonnonsuojelualue State Natural Reserve","coordinates":[26.1251,60.6329]},{"code":"FI-0341","program":"pota","name":"Hopomträskin luonnonsuojelualue State Natural Reserve","coordinates":[26.0911,60.5483]},{"code":"FI-0630","program":"pota","name":"Struve Geodetic Arc - Tornikallio World Heritage Site","coordinates":[26.0034,60.7046]},{"code":"FI-1073","program":"pota","name":"Ilveskallion suojelualue State Nature Preserve","coordinates":[26.1182,60.6497]}]}