{"lat":60.5,"lon":17.75,"programs":["pota"],"count":6,"references":[{"code":"SE-1059","program":"pota","name":"Kapplasse Nature Reserve","coordinates":[17.8225,60.5758]},{"code":"SE-1060","program":"pota","name":"Kaplasse Natura 2000","coordinates":[17.8425,60.582]},{"code":"SE-1061","program":"pota","name":"Rönnfjärdsskogen Nature Reserve","coordinates":[17.9526,60.551]},{"code":"SE-1062","program":"pota","name":"Rönnfärdskogen Natura 2000","coordinates":[17.9555,60.5561]},{"code":"SE-1063","program":"pota","name":"Djupfjärd Natura 2000","coordinates":[17.9705,60.5423]},{"code":"SE-1064","program":"pota","name":"Djupfjärd Nature Reserve","coordinates":[17.9708,60.558]}]}