{"lat":60.5,"lon":6,"programs":["pota","sota"],"count":10,"references":[{"code":"NO-0370","program":"pota","name":"Fadnesskaret Nature Reserve","coordinates":[6.08968,60.6685]},{"code":"LA/HL-065","program":"sota","name":"Mykletveitveten","coordinates":[6.1011,60.6061]},{"code":"LA/HL-067","program":"sota","name":"Hamlagrøhornet","coordinates":[6.1011,60.5597]},{"code":"LA/HL-263","program":"sota","name":"Storliknausen","coordinates":[6.0014,60.5096]},{"code":"LA/HL-271","program":"sota","name":"Kjerringafjell","coordinates":[6.029,60.5103]},{"code":"LA/HL-273","program":"sota","name":"Blåvasshorgi","coordinates":[6.0596,60.7039]},{"code":"LA/HL-279","program":"sota","name":"Blåkoll","coordinates":[6.1787,60.5274]},{"code":"LA/HL-281","program":"sota","name":"Kjerringfjellet","coordinates":[6.0412,60.5713]},{"code":"LA/HL-287","program":"sota","name":"Flatafjellet","coordinates":[6.1849,60.5028]},{"code":"LA/HL-289","program":"sota","name":"Skorane","coordinates":[6.2336,60.551]}]}