{"lat":60.5,"lon":5.75,"programs":["sota"],"count":12,"references":[{"code":"LA/HL-069","program":"sota","name":"Hatlekinni","coordinates":[5.9814,60.6747]},{"code":"LA/HL-270","program":"sota","name":"Bergsbukken","coordinates":[5.9399,60.5263]},{"code":"LA/HL-274","program":"sota","name":"Storfjelli","coordinates":[5.8796,60.7065]},{"code":"LA/HL-275","program":"sota","name":"Saudalsnovi","coordinates":[5.9027,60.7489]},{"code":"LA/HL-276","program":"sota","name":"Flatafjellet","coordinates":[5.9841,60.74139]},{"code":"LA/HL-294","program":"sota","name":"Store Dustingen","coordinates":[5.8707,60.5921]},{"code":"LA/HL-307","program":"sota","name":"Høgenipa","coordinates":[5.7617,60.6168]},{"code":"LA/HL-313","program":"sota","name":"Hestafjellet","coordinates":[5.7707,60.5954]},{"code":"LA/HL-320","program":"sota","name":"Kvigedalsegga","coordinates":[5.7854,60.6124]},{"code":"LA/HL-326","program":"sota","name":"Flatafjellet","coordinates":[5.76669,60.53939]},{"code":"LA/HL-383","program":"sota","name":"Storenipa","coordinates":[5.79149,60.66374]},{"code":"LA/HL-384","program":"sota","name":"Beitelen","coordinates":[5.80655,60.58566]}]}