{"lat":60.5,"lon":7,"programs":["sota"],"count":7,"references":[{"code":"LA/HL-207","program":"sota","name":"Vassfjøro","coordinates":[7.016,60.6202]},{"code":"LA/HL-208","program":"sota","name":"Onen","coordinates":[7.0743,60.5246]},{"code":"LA/HL-211","program":"sota","name":"Øykjafonn","coordinates":[7.0445,60.6898]},{"code":"LA/HL-222","program":"sota","name":"Skipanuten","coordinates":[7.0506,60.658]},{"code":"LA/HL-225","program":"sota","name":"Nyrjuven","coordinates":[7.1322,60.6532]},{"code":"LA/SF-123","program":"sota","name":"Baksafjellet","coordinates":[7.1313,60.6927]},{"code":"LA/SF-130","program":"sota","name":"Broksfjellet Store","coordinates":[7.1626,60.7094]}]}