{"lat":60.5,"lon":15.5,"programs":["gma","pota","sota"],"count":7,"references":[{"code":"SA/DA-003","program":"gma","name":"Lugnet ski","coordinates":[15.66877,60.62162]},{"code":"SE-1919","program":"pota","name":"Gramsängs udde Nature Reserve","coordinates":[15.7191,60.514]},{"code":"SE-1926","program":"pota","name":"Kyrkbytjärn Natura 2000","coordinates":[15.7226,60.5178]},{"code":"SE-1929","program":"pota","name":"Lurån Natura 2000","coordinates":[15.6308,60.7499]},{"code":"SE-1939","program":"pota","name":"Slogmyrloken Natura 2000","coordinates":[15.5323,60.7133]},{"code":"SE-1953","program":"pota","name":"Slogmyrloken Nature Reserve","coordinates":[15.5192,60.7112]},{"code":"SM/DA-108","program":"sota","name":"Hornberget","coordinates":[15.675843,60.666096]}]}