{"lat":60.75,"lon":4.75,"programs":["pota","sota"],"count":14,"references":[{"code":"NO-0598","program":"pota","name":"Grima Nature Reserve","coordinates":[4.8532,60.9221]},{"code":"NO-0640","program":"pota","name":"Guleskjeret Nature Reserve","coordinates":[4.98901,60.9528]},{"code":"NO-0667","program":"pota","name":"Håvarden og Klubben Nature Reserve","coordinates":[4.99802,60.826]},{"code":"NO-1058","program":"pota","name":"Kuøyni, Skagøyni, Teistholmen og Teistholmskjeret Nature Reserve","coordinates":[4.77337,60.8149]},{"code":"NO-1080","program":"pota","name":"Kvernøyna Nature Reserve","coordinates":[4.81876,60.9524]},{"code":"NO-1101","program":"pota","name":"Låge Islendingen Nature Reserve","coordinates":[4.89833,60.8377]},{"code":"NO-1456","program":"pota","name":"Notholmen Nature Reserve","coordinates":[4.96546,60.7672]},{"code":"NO-1598","program":"pota","name":"Ramsbarden Nature Reserve","coordinates":[4.78917,60.9619]},{"code":"NO-1984","program":"pota","name":"Sogneoksen Nature Reserve","coordinates":[4.76285,60.9474]},{"code":"LA/SF-574","program":"sota","name":"Midtbøfjellet","coordinates":[4.9927,60.8935]},{"code":"LA/SF-587","program":"sota","name":"Piltevarden, (Mjømnefjellet)","coordinates":[4.9164,60.9289]},{"code":"LA/SF-589","program":"sota","name":"Veten","coordinates":[4.9009,60.8876]},{"code":"LA/SF-590","program":"sota","name":"Kistefjellet","coordinates":[4.965,60.985]},{"code":"LA/SF-596","program":"sota","name":"Ramnefjellet","coordinates":[4.9816,60.9979]}]}