{"lat":60.75,"lon":8.5,"programs":["pota","sota"],"count":14,"references":[{"code":"NO-1496","program":"pota","name":"Øynad'n Nature Reserve","coordinates":[8.66799,60.9563]},{"code":"NO-2665","program":"pota","name":"Hydalen Landscape Reserve","coordinates":[8.54504,60.9788]},{"code":"LA/BU-006","program":"sota","name":"Veslebotnskarvet","coordinates":[8.6161,60.9297]},{"code":"LA/BU-007","program":"sota","name":"Hydalsberget","coordinates":[8.5242,60.9867]},{"code":"LA/BU-018","program":"sota","name":"Storehorn","coordinates":[8.5956,60.815]},{"code":"LA/BU-028","program":"sota","name":"Såta","coordinates":[8.545,60.8042]},{"code":"LA/BU-030","program":"sota","name":"Totten","coordinates":[8.535,60.8389]},{"code":"LA/BU-034","program":"sota","name":"Skurvefjellet","coordinates":[8.6075,60.8889]},{"code":"LA/BU-035","program":"sota","name":"Nibbi","coordinates":[8.65,60.8867]},{"code":"LA/BU-036","program":"sota","name":"Isbretjerne syd","coordinates":[8.57167,60.9347]},{"code":"LA/BU-037","program":"sota","name":"Bjørnbakknøse","coordinates":[8.62389,60.9047]},{"code":"LA/BU-039","program":"sota","name":"Kyrkjebønøse","coordinates":[8.53861,60.9058]},{"code":"LA/BU-041","program":"sota","name":"Hydalsbergi","coordinates":[8.53944,60.9617]},{"code":"LA/OL-325","program":"sota","name":"Gråskarvet","coordinates":[8.6714,60.9956]}]}