{"lat":60.75,"lon":10.25,"programs":["pota","sota"],"count":6,"references":[{"code":"NO-0210","program":"pota","name":"Brattåshaugen Nature Reserve","coordinates":[10.3989,60.9271]},{"code":"NO-0368","program":"pota","name":"Evjemyra Nature Reserve","coordinates":[10.2904,60.8711]},{"code":"NO-1497","program":"pota","name":"Øytjernet Nature Reserve","coordinates":[10.3943,60.8428]},{"code":"LA/OL-090","program":"sota","name":"Åsgardshaugen","coordinates":[10.3994,60.9431]},{"code":"LA/OL-244","program":"sota","name":"Venholhøgda","coordinates":[10.365,60.8356]},{"code":"LA/OL-367","program":"sota","name":"Ligardskampen","coordinates":[10.3599,60.9068]}]}