{"lat":60.75,"lon":22.5,"programs":["pota"],"count":10,"references":[{"code":"FI-0593","program":"pota","name":"Säkylänharju Natura 2000","coordinates":[22.6381,60.9657]},{"code":"FI-1173","program":"pota","name":"Kakkeriasuon-Huhdansuon soidensuKotasuon luonnonsuojelualueojelualue State Nature Preserve","coordinates":[22.7282,60.9705]},{"code":"FI-0656","program":"pota","name":"Himmaistenrahka Natura 2000","coordinates":[22.7489,60.9342]},{"code":"FI-0657","program":"pota","name":"Myllylähde Natura 2000","coordinates":[22.7073,60.903]},{"code":"FI-0658","program":"pota","name":"Maisaarensuo Natura 2000","coordinates":[22.6286,60.9285]},{"code":"FI-1422","program":"pota","name":"Kotasuon luonnonsuojelualue State Nature Preserve","coordinates":[22.7284,60.9704]},{"code":"FI-1423","program":"pota","name":"Himmaistenrahkan luonnonsuojelualue State Nature Preserve","coordinates":[22.7359,60.9204]},{"code":"FI-1424","program":"pota","name":"Lumikallion luonnonsuojelualue State Nature Preserve","coordinates":[22.5641,60.8093]},{"code":"FI-1425","program":"pota","name":"Lumikallio Natura 2000","coordinates":[22.5652,60.8058]},{"code":"FI-1426","program":"pota","name":"Järvenojan luonnonsuojelualue State Nature Preserve","coordinates":[22.7119,60.7877]}]}