{"lat":60.75,"lon":10,"programs":["pota","sota"],"count":10,"references":[{"code":"NO-0133","program":"pota","name":"Bjønnhaugen Nature Reserve","coordinates":[10.2085,60.9788]},{"code":"NO-0244","program":"pota","name":"Budeiberget Nature Reserve","coordinates":[10.188,60.8984]},{"code":"NO-0285","program":"pota","name":"Dokka Nature Reserve","coordinates":[10.0947,60.8387]},{"code":"NO-0286","program":"pota","name":"Dokkadeltaet Nature Reserve","coordinates":[10.1398,60.8009]},{"code":"NO-0287","program":"pota","name":"Dokkajuvet Nature Reserve","coordinates":[10.0682,60.9157]},{"code":"NO-0425","program":"pota","name":"Flåmyra Nature Reserve","coordinates":[10.1659,60.9568]},{"code":"NO-1471","program":"pota","name":"Odnesberga Nature Reserve","coordinates":[10.175,60.8086]},{"code":"NO-2987","program":"pota","name":"Fluberg National Wildlife Area","coordinates":[10.2357,60.7583]},{"code":"NO-2992","program":"pota","name":"Ånes Nature Reserve","coordinates":[10.2176,60.7986]},{"code":"LA/OL-366","program":"sota","name":"Hovde","coordinates":[10.1505,60.9021]}]}