{"lat":60.75,"lon":10.75,"programs":["pota","sota"],"count":8,"references":[{"code":"NO-0255","program":"pota","name":"Buttekvern Nature Reserve","coordinates":[10.9533,60.8779]},{"code":"NO-1133","program":"pota","name":"Langodden Nature Reserve","coordinates":[10.9525,60.8475]},{"code":"NO-2256","program":"pota","name":"Torsæter Nature Reserve","coordinates":[10.9825,60.9512]},{"code":"NO-2567","program":"pota","name":"Liberget Nature Reserve","coordinates":[10.9002,60.8492]},{"code":"NO-2993","program":"pota","name":"Bjønndalen og Kompåsmyra Nature Reserve","coordinates":[10.9344,60.9884]},{"code":"NO-3088","program":"pota","name":"Leine og Mælumsberget Nature Reserve","coordinates":[10.7902,60.8861]},{"code":"LA/HM-128","program":"sota","name":"Kompåsen","coordinates":[10.9289,60.9903]},{"code":"LA/HM-256","program":"sota","name":"Liberget","coordinates":[10.896,60.8457]}]}