{"lat":60.75,"lon":8,"programs":["sota"],"count":7,"references":[{"code":"LA/BU-003","program":"sota","name":"Raudbergnuten","coordinates":[8.0406,60.8931]},{"code":"LA/BU-005","program":"sota","name":"Reineskarvet. Store","coordinates":[8.1789,60.7783]},{"code":"LA/BU-040","program":"sota","name":"Breinosi","coordinates":[8.23278,60.9944]},{"code":"LA/BU-042","program":"sota","name":"Slettind","coordinates":[8.18389,60.9689]},{"code":"LA/BU-043","program":"sota","name":"Kjølbergtind","coordinates":[8.13889,60.9725]},{"code":"LA/BU-132","program":"sota","name":"Storebottskarvet","coordinates":[8.23492,60.871]},{"code":"LA/SF-024","program":"sota","name":"Skålanosi","coordinates":[8.0469,60.9633]}]}