{"lat":61,"lon":27.75,"programs":["pota"],"count":6,"references":[{"code":"FI-0572","program":"pota","name":"Kuivaniemi Natura 2000","coordinates":[27.9793,61.116]},{"code":"FI-1008","program":"pota","name":"Ryngänsuon luonnonsuojelualue State Nature Preserve","coordinates":[27.9435,61.1781]},{"code":"FI-1009","program":"pota","name":"Lilmanmäen luonnonsuojelualue State Nature Preserve","coordinates":[27.8404,61.196]},{"code":"FI-1010","program":"pota","name":"Lilmanmäki Natura 2000","coordinates":[27.828,61.199]},{"code":"FI-1233","program":"pota","name":"Kuivaniemen luonnonsuojelualue State Nature Preserve","coordinates":[27.9815,61.1155]},{"code":"FI-1235","program":"pota","name":"Piispalansupan luonnonsuojelualue State Nature Preserve","coordinates":[27.9976,61.2406]}]}