{"lat":61,"lon":8.5,"programs":["pota","sota"],"count":10,"references":[{"code":"NO-1939","program":"pota","name":"Smådaladn Nature Reserve","coordinates":[8.56366,61.0307]},{"code":"NO-2340","program":"pota","name":"Uri Nature Reserve","coordinates":[8.51848,61.1597]},{"code":"NO-2844","program":"pota","name":"Helin plantepark Flora Reserve","coordinates":[8.67118,61.06]},{"code":"LA/BU-002","program":"sota","name":"Ranastongi. Store","coordinates":[8.5094,61.0183]},{"code":"LA/OL-270","program":"sota","name":"Grindane","coordinates":[8.5169,61.0922]},{"code":"LA/OL-272","program":"sota","name":"Skutshorn","coordinates":[8.5153,61.1772]},{"code":"LA/OL-276","program":"sota","name":"Gilafjellet","coordinates":[8.6797,61.0553]},{"code":"LA/OL-285","program":"sota","name":"Smådalsfjellet","coordinates":[8.5661,61.0636]},{"code":"LA/OL-286","program":"sota","name":"Hugakøllen","coordinates":[8.6856,61.1392]},{"code":"LA/OL-336","program":"sota","name":"Vennisfjellet","coordinates":[8.5692,61.1896]}]}