{"lat":61,"lon":8,"programs":["sota"],"count":8,"references":[{"code":"LA/OL-269","program":"sota","name":"Sulefjellet","coordinates":[8.1547,61.1094]},{"code":"LA/OL-279","program":"sota","name":"Slettningsegge","coordinates":[8.1094,61.2317]},{"code":"LA/OL-281","program":"sota","name":"Stølsnøse","coordinates":[8.2211,61.2178]},{"code":"LA/OL-282","program":"sota","name":"Skjeltrene","coordinates":[8.0611,61.1944]},{"code":"LA/OL-350","program":"sota","name":"Skørsnøse","coordinates":[8.2005,61.1935]},{"code":"LA/SF-016","program":"sota","name":"Høgeloft","coordinates":[8.2139,61.0539]},{"code":"LA/SF-056","program":"sota","name":"Bleia","coordinates":[8.083,61.0778]},{"code":"LA/SF-067","program":"sota","name":"Suletinden","coordinates":[8.1267,61.1227]}]}