{"lat":61,"lon":4.5,"programs":["pota","sota"],"count":7,"references":[{"code":"NO-0511","program":"pota","name":"Gåsvær Nature Reserve","coordinates":[4.66216,61.172]},{"code":"NO-0883","program":"pota","name":"Indrevær Nature Reserve","coordinates":[4.57146,61.0086]},{"code":"NO-1274","program":"pota","name":"Mågøyane Nature Reserve","coordinates":[4.6756,61.1058]},{"code":"NO-2345","program":"pota","name":"Utvær Nature Reserve","coordinates":[4.52107,61.0473]},{"code":"LA/SF-583","program":"sota","name":"Håfjellet","coordinates":[4.7311,61.03]},{"code":"LA/SF-598","program":"sota","name":"Hammarstakken","coordinates":[4.7353,61.0815]},{"code":"LA/SF-600","program":"sota","name":"Olderøyna Punkt på","coordinates":[4.716,61.1141]}]}