{"lat":61,"lon":5,"programs":["pota","sota"],"count":16,"references":[{"code":"NO-1479","program":"pota","name":"Ønaholmane Nature Reserve","coordinates":[5.17789,61.2053]},{"code":"NO-2258","program":"pota","name":"Torsholmane Nature Reserve","coordinates":[5.07386,61.107]},{"code":"NO-2865","program":"pota","name":"Skolten Nature Reserve","coordinates":[5.13734,61.0521]},{"code":"LA/SF-419","program":"sota","name":"Lifjell","coordinates":[5.1547,61.1628]},{"code":"LA/SF-440","program":"sota","name":"Brossviksåta","coordinates":[5.154,61.0343]},{"code":"LA/SF-450","program":"sota","name":"Skåldalsnova, (Blåfjellet)","coordinates":[5.2488,61.0189]},{"code":"LA/SF-461","program":"sota","name":"Kvitebergnova","coordinates":[5.1099,61.0151]},{"code":"LA/SF-492","program":"sota","name":"Krakhellenipa","coordinates":[5.0004,61.1219]},{"code":"LA/SF-508","program":"sota","name":"Sågneskollen","coordinates":[5.2339,61.1358]},{"code":"LA/SF-520","program":"sota","name":"Byrnesnova","coordinates":[5.052,61.1949]},{"code":"LA/SF-527","program":"sota","name":"Meinova, (Meifjellet)","coordinates":[5.0393,61.1627]},{"code":"LA/SF-533","program":"sota","name":"Bondefjellet","coordinates":[5.0634,61.1221]},{"code":"LA/SF-544","program":"sota","name":"Kvimsen","coordinates":[5.2087,61.235]},{"code":"LA/SF-549","program":"sota","name":"Sørbøheia","coordinates":[5.166,61.2331]},{"code":"LA/SF-570","program":"sota","name":"Trogfjellet","coordinates":[5.0712,61.0277]},{"code":"LA/SF-581","program":"sota","name":"Fjellstjørnryggen","coordinates":[5.0763,61.2255]}]}