{"lat":61,"lon":8.25,"programs":["pota","sota"],"count":7,"references":[{"code":"NO-2248","program":"pota","name":"Tøso Nature Reserve","coordinates":[8.46811,61.1685]},{"code":"LA/OL-271","program":"sota","name":"Ørnenøse","coordinates":[8.3853,61.0672]},{"code":"LA/OL-274","program":"sota","name":"Bergsfjellet, NØ","coordinates":[8.4422,61.1369]},{"code":"LA/OL-324","program":"sota","name":"Storebottegge","coordinates":[8.4247,61.0289]},{"code":"LA/OL-340","program":"sota","name":"Skøddetinden","coordinates":[8.3178,61.0957]},{"code":"LA/OL-349","program":"sota","name":"Horntind","coordinates":[8.3047,61.226]},{"code":"LA/SF-089","program":"sota","name":"Jukleeggi Vesle","coordinates":[8.2637,61.0167]}]}