{"lat":61,"lon":-149.5,"programs":["sota"],"count":20,"references":[{"code":"KLA/AN-024","program":"sota","name":"Eagle Peak","coordinates":[-149.2698,61.1663]},{"code":"KLA/AN-029","program":"sota","name":"Calliope Mountain","coordinates":[-149.3094,61.1424]},{"code":"KLA/AN-043","program":"sota","name":"Flute Peak","coordinates":[-149.2783,61.132]},{"code":"KLA/AN-053","program":"sota","name":"Cantata Peak","coordinates":[-149.3215,61.158]},{"code":"KLA/AN-066","program":"sota","name":"Hurdygurdy Mountain","coordinates":[-149.3154,61.1887]},{"code":"KLA/AN-091","program":"sota","name":"Bird Peak","coordinates":[-149.2888,61.0023]},{"code":"KLA/AN-092","program":"sota","name":"Concerto Peak","coordinates":[-149.3458,61.1241]},{"code":"KLA/AN-095","program":"sota","name":"Triangle Peak","coordinates":[-149.3548,61.1427]},{"code":"KLA/AN-121","program":"sota","name":"Nest Peak","coordinates":[-149.3239,61.0057]},{"code":"KLA/AN-125","program":"sota","name":"Harp Mountain","coordinates":[-149.3941,61.2232]},{"code":"KLA/AN-128","program":"sota","name":"Birds Eye Peak","coordinates":[-149.3923,61.0771]},{"code":"KLA/AN-129","program":"sota","name":"Tail Feather Peak","coordinates":[-149.4095,61.0914]},{"code":"KLA/AN-133","program":"sota","name":"The Wing","coordinates":[-149.4157,61.0852]},{"code":"KLA/AN-137","program":"sota","name":"The Beak","coordinates":[-149.4277,61.058]},{"code":"KLA/AN-143","program":"sota","name":"Bird Ridge Overlook","coordinates":[-149.4445,61.0505]},{"code":"KLA/AN-163","program":"sota","name":"The Sail","coordinates":[-149.4284,61.1067]},{"code":"KLA/AN-175","program":"sota","name":"Esbay Peak","coordinates":[-149.3234,61.0456]},{"code":"KLA/AN-178","program":"sota","name":"3979","coordinates":[-149.4708,61.2162]},{"code":"KLA/AN-180","program":"sota","name":"Bidarka Peak","coordinates":[-149.4718,61.06]},{"code":"KLA/AN-185","program":"sota","name":"Bird Ridge Point","coordinates":[-149.4563,61.0006]}]}