{"lat":61.25,"lon":-147.25,"programs":["sota"],"count":18,"references":[{"code":"KLA/ME-003","program":"sota","name":"Mount Thor","coordinates":[-147.1456,61.4851]},{"code":"KLA/ME-017","program":"sota","name":"10690","coordinates":[-147.1021,61.4939]},{"code":"KLA/VW-001","program":"sota","name":"Mount Gilbert Lewis","coordinates":[-147.1526,61.4503]},{"code":"KLA/VW-002","program":"sota","name":"Mount Valhalla","coordinates":[-147.0804,61.4594]},{"code":"KLA/VW-003","program":"sota","name":"Mount Witherspoon","coordinates":[-147.2009,61.3952]},{"code":"KLA/VW-004","program":"sota","name":"Mount Einstein","coordinates":[-147.0979,61.3564]},{"code":"KLA/VW-005","program":"sota","name":"Mount Elusive","coordinates":[-147.1271,61.4277]},{"code":"KLA/VW-008","program":"sota","name":"Mount Cardozo","coordinates":[-147.2122,61.3569]},{"code":"KLA/VW-010","program":"sota","name":"Mount Fafnir","coordinates":[-147.0391,61.4411]},{"code":"KLA/VW-013","program":"sota","name":"10514","coordinates":[-147.0641,61.3727]},{"code":"KLA/VW-015","program":"sota","name":"Blackcliff Mountain","coordinates":[-147.0649,61.3859]},{"code":"KLA/VW-031","program":"sota","name":"9250","coordinates":[-147.2463,61.3335]},{"code":"KLA/VW-039","program":"sota","name":"8875","coordinates":[-147.0398,61.3356]},{"code":"KLA/VW-048","program":"sota","name":"Mount Langmuir","coordinates":[-147.0123,61.3413]},{"code":"KLA/VW-050","program":"sota","name":"8550","coordinates":[-147.1503,61.2531]},{"code":"KLA/VW-059","program":"sota","name":"8350","coordinates":[-147.2429,61.2511]},{"code":"KLA/VW-070","program":"sota","name":"8150","coordinates":[-147.2295,61.2647]},{"code":"KLA/VW-124","program":"sota","name":"7098","coordinates":[-147.1072,61.2988]}]}