{"lat":61.25,"lon":26.25,"programs":["pota"],"count":7,"references":[{"code":"FI-0614","program":"pota","name":"Kuijärvi - Sonnanen Natura 2000","coordinates":[26.4176,61.2802]},{"code":"FI-0628","program":"pota","name":"Anetun luonnonsuojelualue Nature Reserve","coordinates":[26.3993,61.4182]},{"code":"FI-1323","program":"pota","name":"Hulikistokankaan luonnonsuojelualue State Nature Preserve","coordinates":[26.3648,61.365]},{"code":"FI-1324","program":"pota","name":"Anettu Natura 2000","coordinates":[26.4394,61.3947]},{"code":"FI-0878","program":"pota","name":"Mielas Natura 2000","coordinates":[26.3143,61.3486]},{"code":"FI-0879","program":"pota","name":"Mäyrävuoren-Seppälänjoen metsät Natura 2000","coordinates":[26.2957,61.3902]},{"code":"FI-1325","program":"pota","name":"Paason niityt Natura 2000","coordinates":[26.2523,61.3576]}]}