{"lat":61.25,"lon":6.75,"programs":["pota","sota"],"count":14,"references":[{"code":"NO-0190","program":"pota","name":"Bøyaøyra Nature Reserve","coordinates":[6.7552,61.4182]},{"code":"LA/SF-100","program":"sota","name":"Ryssenipa Fremsta","coordinates":[6.8754,61.4584]},{"code":"LA/SF-104","program":"sota","name":"Eldedalen nord for","coordinates":[6.9412,61.4553]},{"code":"LA/SF-116","program":"sota","name":"Tuftanovi","coordinates":[6.9692,61.4201]},{"code":"LA/SF-118","program":"sota","name":"Fessenipa","coordinates":[6.8949,61.4884]},{"code":"LA/SF-119","program":"sota","name":"Kvannholtenipa","coordinates":[6.7842,61.4991]},{"code":"LA/SF-136","program":"sota","name":"Ryssebotnrana","coordinates":[6.7934,61.3113]},{"code":"LA/SF-138","program":"sota","name":"Skjerdingane","coordinates":[6.8302,61.3701]},{"code":"LA/SF-141","program":"sota","name":"Steindalsnipa","coordinates":[6.874,61.4135]},{"code":"LA/SF-152","program":"sota","name":"Torstadnakken","coordinates":[6.9465,61.3717]},{"code":"LA/SF-187","program":"sota","name":"Kvitaberg Vesttoppen","coordinates":[6.9902,61.3906]},{"code":"LA/SF-201","program":"sota","name":"Skeisnipa Fremste","coordinates":[6.7679,61.4702]},{"code":"LA/SF-254","program":"sota","name":"Kjerringafjell","coordinates":[6.8038,61.2505]},{"code":"LA/SF-343","program":"sota","name":"Middagshaugen","coordinates":[6.7813,61.408]}]}