{"lat":61.25,"lon":8,"programs":["pota","sota"],"count":16,"references":[{"code":"NO-2866","program":"pota","name":"Utladalen Landscape Reserve","coordinates":[8.03057,61.395]},{"code":"LA/OL-267","program":"sota","name":"Langeskavltinden","coordinates":[8.1789,61.4278]},{"code":"LA/OL-275","program":"sota","name":"Koldedalsnosi, N","coordinates":[8.1903,61.3814]},{"code":"LA/SF-005","program":"sota","name":"Rauddalstind, Store","coordinates":[8.1869,61.4944]},{"code":"LA/SF-012","program":"sota","name":"Stølsnostinden","coordinates":[8.0711,61.3958]},{"code":"LA/SF-014","program":"sota","name":"Falketind","coordinates":[8.0967,61.3847]},{"code":"LA/SF-021","program":"sota","name":"Storegut","coordinates":[8.2414,61.4297]},{"code":"LA/SF-026","program":"sota","name":"Uranostinden","coordinates":[8.1504,61.4267]},{"code":"LA/SF-028","program":"sota","name":"Sagi Såre, (Mjølkedalspiggen)","coordinates":[8.161,61.4439]},{"code":"LA/SF-034","program":"sota","name":"Hjelledalstinden","coordinates":[8.0983,61.3691]},{"code":"LA/SF-045","program":"sota","name":"Skogadalsnosi","coordinates":[8.1096,61.4813]},{"code":"LA/SF-055","program":"sota","name":"Koldedalstinden Søre","coordinates":[8.126,61.3505]},{"code":"LA/SF-066","program":"sota","name":"Skarbottsnosi","coordinates":[8.1166,61.4106]},{"code":"LA/SF-110","program":"sota","name":"Raudenibba","coordinates":[8.0759,61.3376]},{"code":"LA/SF-134","program":"sota","name":"Fleskedalen nord for","coordinates":[8.073,61.4198]},{"code":"LA/SF-158","program":"sota","name":"Knipen Nordre","coordinates":[8.038,61.3098]}]}