{"lat":61.25,"lon":26.5,"programs":["pota"],"count":8,"references":[{"code":"FI-0371","program":"pota","name":"Pyhäniemi Natura 2000","coordinates":[26.6969,61.4446]},{"code":"FI-0880","program":"pota","name":"Mäntyharjun reitin kosket Natura 2000","coordinates":[26.6692,61.4226]},{"code":"FI-0881","program":"pota","name":"Lahnaniemen Solistonsuon ja Alatalon metsät Natura 2000","coordinates":[26.5683,61.4773]},{"code":"FI-0883","program":"pota","name":"Laukoniemi Natura 2000","coordinates":[26.7465,61.4533]},{"code":"FI-0885","program":"pota","name":"Haapasaari - Luhtanen - Majaluhta Natura 2000","coordinates":[26.7409,61.3649]},{"code":"FI-1165","program":"pota","name":"Pyhäniemen luonnonsuojelualue State Nature Preserve","coordinates":[26.6952,61.4399]},{"code":"FI-1262","program":"pota","name":"Kihtelysniemen luonnonsuojelualue State Nature Preserve","coordinates":[26.6287,61.3211]},{"code":"FI-1263","program":"pota","name":"Kihtelysniemi Natura 2000","coordinates":[26.626,61.3238]}]}