{"lat":61.25,"lon":9.5,"programs":["pota","sota"],"count":11,"references":[{"code":"NO-0659","program":"pota","name":"Håkåsæter Nature Reserve","coordinates":[9.73685,61.4216]},{"code":"NO-0666","program":"pota","name":"Helvete Nature Reserve","coordinates":[9.67845,61.3578]},{"code":"NO-1140","program":"pota","name":"Langsua National Park","coordinates":[9.55766,61.2615]},{"code":"NO-2853","program":"pota","name":"Espedalen Landscape Reserve","coordinates":[9.52538,61.3665]},{"code":"LA/OL-082","program":"sota","name":"Storhøa, Gråhøin","coordinates":[9.6033,61.4139]},{"code":"LA/OL-083","program":"sota","name":"Ongsjøfjellet","coordinates":[9.6378,61.3314]},{"code":"LA/OL-099","program":"sota","name":"Ruten","coordinates":[9.5553,61.4689]},{"code":"LA/OL-100","program":"sota","name":"Valsfjellet","coordinates":[9.7272,61.4894]},{"code":"LA/OL-260","program":"sota","name":"Megrundskampen","coordinates":[9.5094,61.3892]},{"code":"LA/OL-351","program":"sota","name":"Storslåkampen","coordinates":[9.5903,61.4783]},{"code":"LA/OL-354","program":"sota","name":"Gråhøa Søre","coordinates":[9.6358,61.3999]}]}