{"lat":61.25,"lon":-148.75,"programs":["sota"],"count":13,"references":[{"code":"KLA/AN-004","program":"sota","name":"Hunters Peak","coordinates":[-148.7289,61.3079]},{"code":"KLA/AN-008","program":"sota","name":"Troublesome Peak","coordinates":[-148.7131,61.2872]},{"code":"KLA/AN-012","program":"sota","name":"Mountaineers Peak","coordinates":[-148.6522,61.3363]},{"code":"KLA/AN-014","program":"sota","name":"Devils Club Peak","coordinates":[-148.6678,61.351]},{"code":"KLA/AN-023","program":"sota","name":"Mount Palmer","coordinates":[-148.6597,61.3188]},{"code":"KLA/AN-033","program":"sota","name":"6745","coordinates":[-148.6823,61.3675]},{"code":"KLA/AN-072","program":"sota","name":"Hale-Bopp Peak","coordinates":[-148.7174,61.3943]},{"code":"KLA/AN-079","program":"sota","name":"5755","coordinates":[-148.6244,61.3682]},{"code":"KLA/AN-110","program":"sota","name":"5250","coordinates":[-148.703,61.2531]},{"code":"KLA/AN-135","program":"sota","name":"Knik Mountain","coordinates":[-148.7475,61.4028]},{"code":"KLA/MC-144","program":"sota","name":"6505","coordinates":[-148.542,61.4863]},{"code":"KLA/MC-440","program":"sota","name":"5345","coordinates":[-148.6225,61.4932]},{"code":"KLA/MC-479","program":"sota","name":"Frid Benchmark","coordinates":[-148.6725,61.499]}]}