{"lat":61.25,"lon":29,"programs":["pota"],"count":6,"references":[{"code":"FI-0285","program":"pota","name":"Äpätinkangas Natura 2000","coordinates":[29.1794,61.4117]},{"code":"FI-0287","program":"pota","name":"Haukkavuori Natura 2000","coordinates":[29.2157,61.4864]},{"code":"FI-0948","program":"pota","name":"Rautjärven luonnonsuojelualue State Preserve","coordinates":[29.1404,61.2985]},{"code":"FI-1012","program":"pota","name":"Onnelan State Nature Preserve","coordinates":[29.0508,61.3285]},{"code":"FI-1013","program":"pota","name":"Äpätinkankaan luonnonsuojelualue State Nature Preserve","coordinates":[29.1787,61.3922]},{"code":"FI-1218","program":"pota","name":"Äpätinkankaan luonnonsuojelualue State Nature Preserve","coordinates":[29.1791,61.3918]}]}