{"lat":61.25,"lon":25.5,"programs":["pota"],"count":6,"references":[{"code":"FI-0623","program":"pota","name":"Kalkkistenkoski Natura 2000","coordinates":[25.6002,61.2857]},{"code":"FI-0762","program":"pota","name":"Pitkäkallion metsä Natura 2000","coordinates":[25.6684,61.2517]},{"code":"FI-0763","program":"pota","name":"Vähäpää Natura 2000","coordinates":[25.6763,61.2566]},{"code":"FI-0764","program":"pota","name":"Tupsuvuori Natura 2000","coordinates":[25.5909,61.3382]},{"code":"FI-0765","program":"pota","name":"Hirvijärvenkallio - Vastamäki Natura 2000","coordinates":[25.6934,61.3614]},{"code":"FI-0769","program":"pota","name":"Päijätsalo Natura 2000","coordinates":[25.5698,61.4801]}]}