{"lat":61.25,"lon":12.5,"programs":["pota","sota"],"count":9,"references":[{"code":"NO-0475","program":"pota","name":"Fregn Nature Reserve","coordinates":[12.5409,61.4965]},{"code":"NO-0495","program":"pota","name":"Fulufjellet National Park","coordinates":[12.6455,61.4705]},{"code":"NO-0582","program":"pota","name":"Granåsen Nature Reserve","coordinates":[12.615,61.3564]},{"code":"NO-0583","program":"pota","name":"Granbekken og Drevja Nature Reserve","coordinates":[12.5671,61.4055]},{"code":"NO-2507","program":"pota","name":"Storberget Nature Reserve","coordinates":[12.6739,61.3233]},{"code":"LA/HM-169","program":"sota","name":"Slottet","coordinates":[12.6417,61.4933]},{"code":"LA/HM-171","program":"sota","name":"Fregn","coordinates":[12.5547,61.4922]},{"code":"LA/HM-176","program":"sota","name":"Tektgnollen","coordinates":[12.5853,61.3686]},{"code":"LA/HM-180","program":"sota","name":"Elgshøgen","coordinates":[12.7422,61.2661]}]}