{"lat":61.5,"lon":-154.25,"programs":["sota"],"count":14,"references":[{"code":"KLA/BE-002","program":"sota","name":"South Buttress","coordinates":[-154.2251,61.713]},{"code":"KLA/BE-003","program":"sota","name":"The Apocalypse","coordinates":[-154.1008,61.7161]},{"code":"KLA/BE-005","program":"sota","name":"The Angel","coordinates":[-154.2001,61.686]},{"code":"KLA/BE-007","program":"sota","name":"Mount Patmos","coordinates":[-154.2015,61.7187]},{"code":"KLA/BE-008","program":"sota","name":"Golgotha","coordinates":[-154.1744,61.6595]},{"code":"KLA/BE-009","program":"sota","name":"The Four Horsemen","coordinates":[-154.1341,61.6788]},{"code":"KLA/BE-010","program":"sota","name":"8650","coordinates":[-154.1864,61.6937]},{"code":"KLA/BE-011","program":"sota","name":"8616","coordinates":[-154.0951,61.7028]},{"code":"KLA/BE-012","program":"sota","name":"Pyramid","coordinates":[-154.1178,61.6914]},{"code":"KLA/BE-013","program":"sota","name":"8450","coordinates":[-154.1292,61.6822]},{"code":"KLA/BE-016","program":"sota","name":"8150","coordinates":[-154.1674,61.6667]},{"code":"KLA/BE-017","program":"sota","name":"Hydra Peak","coordinates":[-154.1966,61.6726]},{"code":"KLA/BE-018","program":"sota","name":"The Cherub","coordinates":[-154.1536,61.7078]},{"code":"KLA/BE-019","program":"sota","name":"Sentry Peak","coordinates":[-154.1428,61.6649]}]}