{"lat":61.5,"lon":9.25,"programs":["pota","sota"],"count":7,"references":[{"code":"NO-0108","program":"pota","name":"Berdøla Nature Reserve","coordinates":[9.31918,61.6928]},{"code":"NO-1375","program":"pota","name":"Murulonin Nature Reserve","coordinates":[9.25367,61.5619]},{"code":"NO-1749","program":"pota","name":"Sagåa Nature Reserve","coordinates":[9.46138,61.6654]},{"code":"NO-1843","program":"pota","name":"Skåbudalen Nature Reserve","coordinates":[9.47207,61.5489]},{"code":"LA/OL-171","program":"sota","name":"Saukampen","coordinates":[9.4386,61.6278]},{"code":"LA/OL-204","program":"sota","name":"Heidalsmuen","coordinates":[9.3372,61.6347]},{"code":"LA/OL-207","program":"sota","name":"Svartkampen, S","coordinates":[9.4544,61.7308]}]}