{"lat":61.5,"lon":8.25,"programs":["sota"],"count":20,"references":[{"code":"LA/OL-001","program":"sota","name":"Galdhøpiggen","coordinates":[8.3122,61.6364]},{"code":"LA/OL-003","program":"sota","name":"Store Skardstinden","coordinates":[8.2656,61.6336]},{"code":"LA/OL-004","program":"sota","name":"Veslpiggen","coordinates":[8.3058,61.6406]},{"code":"LA/OL-006","program":"sota","name":"Store Memurstinden","coordinates":[8.4878,61.5675]},{"code":"LA/OL-007","program":"sota","name":"Store Heillstugutinden","coordinates":[8.4275,61.5444]},{"code":"LA/OL-008","program":"sota","name":"Storjuvtinden","coordinates":[8.2936,61.6303]},{"code":"LA/OL-011","program":"sota","name":"Leirhøe","coordinates":[8.4669,61.5911]},{"code":"LA/OL-012","program":"sota","name":"Bukkehøe","coordinates":[8.2661,61.6042]},{"code":"LA/OL-013","program":"sota","name":"Store Tverråtindan","coordinates":[8.3017,61.6153]},{"code":"LA/OL-018","program":"sota","name":"Storgrovtinden","coordinates":[8.2667,61.6414]},{"code":"LA/OL-022","program":"sota","name":"Semeltinden","coordinates":[8.4067,61.5133]},{"code":"LA/OL-023","program":"sota","name":"Visbretinden","coordinates":[8.3356,61.53]},{"code":"LA/OL-024","program":"sota","name":"Styggehøe","coordinates":[8.3367,61.5911]},{"code":"LA/OL-132","program":"sota","name":"Bukkeholstindan, Store","coordinates":[8.3072,61.5794]},{"code":"LA/OL-136","program":"sota","name":"Tverrbottinden, Store","coordinates":[8.255,61.5756]},{"code":"LA/OL-139","program":"sota","name":"Urdadalstinden, Store","coordinates":[8.3772,61.5514]},{"code":"LA/OL-140","program":"sota","name":"Hinnåtefjellet","coordinates":[8.4511,61.5189]},{"code":"LA/OL-141","program":"sota","name":"Tverrbytthornet","coordinates":[8.3069,61.5578]},{"code":"LA/OL-144","program":"sota","name":"Kyrkja","coordinates":[8.2919,61.5417]},{"code":"LA/SF-015","program":"sota","name":"Høgvagltindane, M","coordinates":[8.2608,61.5053]}]}