{"lat":61.5,"lon":8.75,"programs":["pota","sota"],"count":10,"references":[{"code":"NO-0090","program":"pota","name":"Baklie Nature Reserve","coordinates":[8.90375,61.561]},{"code":"NO-1940","program":"pota","name":"Smådalsvatni Nature Reserve","coordinates":[8.80037,61.7172]},{"code":"NO-2139","program":"pota","name":"Stuttgonglie Nature Reserve","coordinates":[8.96554,61.5686]},{"code":"NO-2400","program":"pota","name":"Veogjelet Nature Reserve","coordinates":[8.96765,61.6363]},{"code":"LA/OL-020","program":"sota","name":"Nautgardstinden","coordinates":[8.7594,61.6033]},{"code":"LA/OL-133","program":"sota","name":"Stornubben","coordinates":[8.795,61.6272]},{"code":"LA/OL-158","program":"sota","name":"Heranoshøe","coordinates":[8.8031,61.6897]},{"code":"LA/OL-170","program":"sota","name":"Sikkilsdalshøa","coordinates":[8.9633,61.5031]},{"code":"LA/OL-297","program":"sota","name":"Fuglhøe","coordinates":[8.945,61.6897]},{"code":"LA/OL-337","program":"sota","name":"Veslfjellet","coordinates":[8.7524,61.5055]}]}