{"lat":61.5,"lon":26.5,"programs":["pota"],"count":6,"references":[{"code":"FI-1249","program":"pota","name":"Mäntyharjun reitin kosket Natura 2000","coordinates":[26.7105,61.5699]},{"code":"FI-1250","program":"pota","name":"Sahinsuon luonnonsuojelualue State Nature Preserve","coordinates":[26.5561,61.6055]},{"code":"FI-1251","program":"pota","name":"Sahinsuo Natura 2000","coordinates":[26.5506,61.5999]},{"code":"FI-1252","program":"pota","name":"Vahvaselän - Vahvajärven metsät Natura 2000","coordinates":[26.5942,61.6186]},{"code":"FI-1253","program":"pota","name":"Vahvaselän-Vahvajärven metsän luonnonsuojelualue State Nature Preserve","coordinates":[26.6149,61.6514]},{"code":"FI-1254","program":"pota","name":"Suonteen eteläosa Natura 2000","coordinates":[26.5009,61.644]}]}