{"lat":61.75,"lon":11.25,"programs":["pota","sota"],"count":10,"references":[{"code":"NO-0485","program":"pota","name":"Fuggdalen Nature Reserve","coordinates":[11.3087,61.7709]},{"code":"NO-2544","program":"pota","name":"Sølen Landscape Reserve","coordinates":[11.4408,61.8882]},{"code":"LA/HM-008","program":"sota","name":"Søre Sølen","coordinates":[11.4808,61.8692]},{"code":"LA/HM-106","program":"sota","name":"Kverninghøgda","coordinates":[11.2967,61.9747]},{"code":"LA/HM-108","program":"sota","name":"Marsfjellet","coordinates":[11.3281,61.9619]},{"code":"LA/HM-109","program":"sota","name":"Tannvola","coordinates":[11.4094,61.9058]},{"code":"LA/HM-110","program":"sota","name":"Tissvola","coordinates":[11.3978,61.8703]},{"code":"LA/HM-113","program":"sota","name":"Akshaugen","coordinates":[11.4639,61.9678]},{"code":"LA/HM-116","program":"sota","name":"Steinfjellet","coordinates":[11.2992,61.8061]},{"code":"LA/HM-117","program":"sota","name":"Nupen","coordinates":[11.3322,61.8497]}]}