{"lat":61.75,"lon":9.25,"programs":["pota","sota"],"count":11,"references":[{"code":"NO-0796","program":"pota","name":"Høvringslia Nature Reserve","coordinates":[9.4199,61.8668]},{"code":"NO-1918","program":"pota","name":"Skottvatnet Nature Reserve","coordinates":[9.47947,61.8307]},{"code":"NO-3293","program":"pota","name":"Andershøe og Jukulbergje Nature Reserve","coordinates":[9.35733,61.7995]},{"code":"LA/OL-067","program":"sota","name":"Blåhøe","coordinates":[9.2847,61.8978]},{"code":"LA/OL-072","program":"sota","name":"Storkuva","coordinates":[9.3917,61.9392]},{"code":"LA/OL-210","program":"sota","name":"Karihaugen","coordinates":[9.4747,61.8667]},{"code":"LA/OL-211","program":"sota","name":"Rudihøe","coordinates":[9.2661,61.7844]},{"code":"LA/OL-214","program":"sota","name":"Andershøe","coordinates":[9.3853,61.7956]},{"code":"LA/OL-215","program":"sota","name":"Veggemskampen","coordinates":[9.4383,61.7775]},{"code":"LA/OL-307","program":"sota","name":"Tolstadkampen","coordinates":[9.3422,61.8356]},{"code":"LA/OL-359","program":"sota","name":"Veslfjellet Heimare","coordinates":[9.3415,61.9506]}]}