{"lat":61.75,"lon":10,"programs":["pota","sota"],"count":10,"references":[{"code":"NO-0069","program":"pota","name":"Atnsjømyrene Nature Reserve","coordinates":[10.0586,61.9131]},{"code":"NO-1380","program":"pota","name":"Myldingi Nature Reserve","coordinates":[10.0124,61.9152]},{"code":"NO-1821","program":"pota","name":"Setningen Nature Reserve","coordinates":[10.2373,61.7606]},{"code":"LA/HM-004","program":"sota","name":"Gravskardhøgda","coordinates":[10.1531,61.94]},{"code":"LA/HM-006","program":"sota","name":"Skjellåkinna","coordinates":[10.1594,61.9597]},{"code":"LA/HM-078","program":"sota","name":"Sleukampen","coordinates":[10.0633,61.9814]},{"code":"LA/HM-148","program":"sota","name":"Midtvola","coordinates":[10.1811,61.8492]},{"code":"LA/OL-254","program":"sota","name":"Blåkollen","coordinates":[10.0433,61.8464]},{"code":"LA/OL-259","program":"sota","name":"Bågåskardshøgdin","coordinates":[10.0336,61.7967]},{"code":"LA/OL-262","program":"sota","name":"Musvolkampen","coordinates":[10.0375,61.8889]}]}