{"lat":61.75,"lon":29.25,"programs":["pota"],"count":8,"references":[{"code":"FI-0369","program":"pota","name":"Punkaharjun luonnonsuojelualue Nature Reserve","coordinates":[29.318,61.7883]},{"code":"FI-0975","program":"pota","name":"Miklinsalmen luonnonsuojelualue State Nature Preserve","coordinates":[29.4925,61.9526]},{"code":"FI-0976","program":"pota","name":"Vilkonsuon luonnonsuojelualue State Nature Preserve","coordinates":[29.4201,61.9761]},{"code":"FI-0977","program":"pota","name":"Vilkonsuo Natura 2000","coordinates":[29.4434,61.9592]},{"code":"FI-0978","program":"pota","name":"Puruveden valkoselkätikkametsät Natura 2000","coordinates":[29.2921,61.9813]},{"code":"FI-0979","program":"pota","name":"Härkövuoren-Koivusaaren luonnonsuojelualue State Nature Preserve","coordinates":[29.2909,61.9836]},{"code":"FI-0980","program":"pota","name":"Kuonanluhdan luonnonsuojelualue State Nature Preserve","coordinates":[29.2868,61.9573]},{"code":"FI-1164","program":"pota","name":"Punkaharju Natura 2000","coordinates":[29.3636,61.7687]}]}