{"lat":61.75,"lon":5.75,"programs":["pota","sota"],"count":13,"references":[{"code":"NO-2870","program":"pota","name":"Kudalen Nature Reserve","coordinates":[5.94333,61.8821]},{"code":"LA/MR-434","program":"sota","name":"Storetoren","coordinates":[5.9741,61.9964]},{"code":"LA/MR-526","program":"sota","name":"Snøgjøltinden","coordinates":[5.783,61.9763]},{"code":"LA/SF-106","program":"sota","name":"Gjegnen, (Blånibba)","coordinates":[5.8222,61.8027]},{"code":"LA/SF-252","program":"sota","name":"Seltuftnibba","coordinates":[5.9077,61.7648]},{"code":"LA/SF-270","program":"sota","name":"Hyeneshesten","coordinates":[5.9297,61.8405]},{"code":"LA/SF-355","program":"sota","name":"Hjelmelandsvarden, (Hafsåsvarden)","coordinates":[5.8419,61.9678]},{"code":"LA/SF-374","program":"sota","name":"Blåsvednyken","coordinates":[5.9713,61.9371]},{"code":"LA/SF-377","program":"sota","name":"Slåttefjellet","coordinates":[5.9856,61.9469]},{"code":"LA/SF-443","program":"sota","name":"Hornet","coordinates":[5.7858,61.8867]},{"code":"LA/SF-458","program":"sota","name":"Åsefjellnyken, (Mannsetholten)","coordinates":[5.846,61.9489]},{"code":"LA/SF-509","program":"sota","name":"Kroknakken","coordinates":[5.8256,61.8663]},{"code":"LA/SF-516","program":"sota","name":"Naustdalskammen","coordinates":[5.8402,61.9244]}]}