{"lat":62,"lon":6.5,"programs":["pota","sota"],"count":26,"references":[{"code":"NO-1063","program":"pota","name":"Kvamsetelva Nature Reserve","coordinates":[6.55114,62.1293]},{"code":"NO-3108","program":"pota","name":"Maude Nature Reserve","coordinates":[6.61186,62.2127]},{"code":"NO-3288","program":"pota","name":"Linderemen Nature Reserve","coordinates":[6.52634,62.2401]},{"code":"LA/MR-222","program":"sota","name":"Kvitegga","coordinates":[6.7024,62.0948]},{"code":"LA/MR-242","program":"sota","name":"Store Smørskredtinden","coordinates":[6.7322,62.1999]},{"code":"LA/MR-249","program":"sota","name":"Nordre Smørskredtinden","coordinates":[6.7419,62.2047]},{"code":"LA/MR-252","program":"sota","name":"Storhornet","coordinates":[6.5662,62.0745]},{"code":"LA/MR-257","program":"sota","name":"Jakta","coordinates":[6.6169,62.1712]},{"code":"LA/MR-261","program":"sota","name":"Store Brekketinden","coordinates":[6.7042,62.2293]},{"code":"LA/MR-265","program":"sota","name":"Slogen","coordinates":[6.673,62.2081]},{"code":"LA/MR-267","program":"sota","name":"Risenosa","coordinates":[6.6563,62.1558]},{"code":"LA/MR-281","program":"sota","name":"Rokkekjerringa","coordinates":[6.6095,62.0702]},{"code":"LA/MR-293","program":"sota","name":"Hornindalsrokken","coordinates":[6.6579,62.0719]},{"code":"LA/MR-295","program":"sota","name":"Brunstadhornet","coordinates":[6.6971,62.2468]},{"code":"LA/MR-298","program":"sota","name":"Staven","coordinates":[6.7209,62.1552]},{"code":"LA/MR-301","program":"sota","name":"Vellesæterhornet","coordinates":[6.643,62.2436]},{"code":"LA/MR-310","program":"sota","name":"Kårdalstindane","coordinates":[6.6507,62.1165]},{"code":"LA/MR-313","program":"sota","name":"Kalveskrednipa","coordinates":[6.6885,62.1212]},{"code":"LA/MR-327","program":"sota","name":"Geithornet","coordinates":[6.6741,62.2259]},{"code":"LA/MR-350","program":"sota","name":"Kjerringøyra","coordinates":[6.535,62.1445]},{"code":"LA/MR-376","program":"sota","name":"Helghornet","coordinates":[6.6037,62.1792]},{"code":"LA/MR-381","program":"sota","name":"Saurdalsnibba","coordinates":[6.742,62.2457]},{"code":"LA/MR-399","program":"sota","name":"Høghornet","coordinates":[6.634,62.1016]},{"code":"LA/MR-473","program":"sota","name":"Breidfonnhornet","coordinates":[6.5605,62.2365]},{"code":"LA/MR-511","program":"sota","name":"Oddekolven","coordinates":[6.5083,62.0926]},{"code":"LA/SF-231","program":"sota","name":"Tussa","coordinates":[6.6208,62.0519]}]}