{"lat":62,"lon":10,"programs":["pota","sota"],"count":12,"references":[{"code":"NO-0145","program":"pota","name":"Bjørndalen Nature Reserve","coordinates":[10.1888,62.2382]},{"code":"NO-0600","program":"pota","name":"Grimsmoen Nature Reserve","coordinates":[10.0997,62.102]},{"code":"NO-2169","program":"pota","name":"Svarthaugan Nature Reserve","coordinates":[10.1089,62.1924]},{"code":"LA/HM-013","program":"sota","name":"Storhøe","coordinates":[10.0042,62.1925]},{"code":"LA/HM-018","program":"sota","name":"Kyrkjekletten","coordinates":[10.1419,62.0089]},{"code":"LA/HM-026","program":"sota","name":"Langfjellet","coordinates":[10.2339,62.0706]},{"code":"LA/HM-074","program":"sota","name":"Skardhøa","coordinates":[10.1011,62.2472]},{"code":"LA/HM-079","program":"sota","name":"Kvasskampen","coordinates":[10.1053,62.0242]},{"code":"LA/HM-081","program":"sota","name":"Bjørnhøa","coordinates":[10.1953,62.2239]},{"code":"LA/HM-082","program":"sota","name":"Håneskletten","coordinates":[10.0928,62.1672]},{"code":"LA/HM-085","program":"sota","name":"Kollutholen","coordinates":[10.0186,62.085]},{"code":"LA/HM-227","program":"sota","name":"Mjovassdalskletten","coordinates":[10.1764,62.0469]}]}