{"lat":62,"lon":29.75,"programs":["pota"],"count":7,"references":[{"code":"FI-1197","program":"pota","name":"Pyhäjärven alueen luontokokonaisuu Natura 2000","coordinates":[29.9287,62.0183]},{"code":"FI-0991","program":"pota","name":"Hovinlampi-Ylälammen luonnonsuojelualue State Nature Preserve","coordinates":[29.9291,62.196]},{"code":"FI-0992","program":"pota","name":"Hovinlampi-Ylälampi Natura 2000","coordinates":[29.9699,62.1711]},{"code":"FI-0993","program":"pota","name":"Partiissuon luonnonsuojelualue State Nature Preserve","coordinates":[29.9929,62.1875]},{"code":"FI-0995","program":"pota","name":"Koivukummun luonnonsuojelualue State Nature Preserve","coordinates":[29.9745,62.1581]},{"code":"FI-1196","program":"pota","name":"Papinniemen ukonhattulehto Natura 2000","coordinates":[29.9787,62.0222]},{"code":"FI-1201","program":"pota","name":"29.781394279029616 Natura 2000","coordinates":[29.7814,62.0058]}]}