{"lat":62,"lon":9.5,"programs":["pota","sota"],"count":13,"references":[{"code":"NO-0289","program":"pota","name":"Dovre National Park","coordinates":[9.56622,62.1068]},{"code":"NO-0599","program":"pota","name":"Grimsdalsmyrene Nature Reserve","coordinates":[9.50685,62.0488]},{"code":"NO-0782","program":"pota","name":"Hjerkinnholen Nature Reserve","coordinates":[9.62882,62.2042]},{"code":"NO-0949","program":"pota","name":"Kattuglehøi Nature Reserve","coordinates":[9.56306,62.0835]},{"code":"NO-2408","program":"pota","name":"Veslehjerkinntjønnin Nature Reserve","coordinates":[9.5895,62.15]},{"code":"NO-2847","program":"pota","name":"Grimsdalen Landscape Reserve","coordinates":[9.56919,62.0358]},{"code":"NO-2982","program":"pota","name":"Vesle Hjerkinn Landscape Reserve","coordinates":[9.53854,62.1846]},{"code":"LA/HM-073","program":"sota","name":"Pikhetta","coordinates":[9.6508,62.1392]},{"code":"LA/OL-035","program":"sota","name":"Storhøe","coordinates":[9.605,62.1675]},{"code":"LA/OL-064","program":"sota","name":"Gråhøe","coordinates":[9.5575,62.1233]},{"code":"LA/OL-070","program":"sota","name":"Gravhøe","coordinates":[9.6733,62.0531]},{"code":"LA/OL-075","program":"sota","name":"Hjerskavlen","coordinates":[9.5731,62.2489]},{"code":"LA/OL-352","program":"sota","name":"Mesæterhøe","coordinates":[9.733,62.1105]}]}