{"lat":62,"lon":10.75,"programs":["pota","sota"],"count":10,"references":[{"code":"NO-2501","program":"pota","name":"Langmyra Nature Reserve","coordinates":[10.8979,62.0323]},{"code":"NO-3346","program":"pota","name":"Jutulhogget vest Nature Reserve","coordinates":[10.9134,62.0014]},{"code":"LA/HM-032","program":"sota","name":"Bellingan","coordinates":[10.8247,62.0422]},{"code":"LA/HM-197","program":"sota","name":"Kommeren","coordinates":[10.9225,62.1117]},{"code":"LA/HM-199","program":"sota","name":"Eggjevorda","coordinates":[10.8567,62.1203]},{"code":"LA/HM-201","program":"sota","name":"Måna","coordinates":[10.8544,62.0433]},{"code":"LA/HM-202","program":"sota","name":"Holsetvorda","coordinates":[10.7992,62.0733]},{"code":"LA/HM-204","program":"sota","name":"Storsteinvorda","coordinates":[10.8733,62.1747]},{"code":"LA/HM-206","program":"sota","name":"Jønnbekkjevorda","coordinates":[10.7958,62.1922]},{"code":"LA/HM-207","program":"sota","name":"Finnstadhøa","coordinates":[10.9206,62.2025]}]}