{"lat":62,"lon":30,"programs":["pota"],"count":12,"references":[{"code":"FI-0356","program":"pota","name":"Päätyeenlahti Natura 2000","coordinates":[30.1223,62.1231]},{"code":"FI-0579","program":"pota","name":"Hirvisuo Natura 2000","coordinates":[30.2095,62.2449]},{"code":"FI-0994","program":"pota","name":"Partiissuo Natura 2000","coordinates":[30.0076,62.1841]},{"code":"FI-0996","program":"pota","name":"Päätyeenlahden luonnonsuojelualue State Nature Preserve","coordinates":[30.1111,62.1379]},{"code":"FI-0997","program":"pota","name":"Päätyeenlahti Natura 2000","coordinates":[30.1222,62.1237]},{"code":"FI-0998","program":"pota","name":"Sepänlammen luonnonsuojelualue State Nature Preserve","coordinates":[30.1654,62.1795]},{"code":"FI-1190","program":"pota","name":"Hiidensaari-Valkolansaari Natura 2000","coordinates":[30.2225,62.0888]},{"code":"FI-1191","program":"pota","name":"Kalmistolan haka Natura 2000","coordinates":[30.225,62.0718]},{"code":"FI-1192","program":"pota","name":"Koikkalanmäen rinnelaitumet Natura 2000","coordinates":[30.1716,62.0763]},{"code":"FI-1193","program":"pota","name":"Sopensuo Natura 2000","coordinates":[30.1042,62.101]},{"code":"FI-1194","program":"pota","name":"Makonniemi Natura 2000","coordinates":[30.0155,62.0341]},{"code":"FI-1195","program":"pota","name":"Makonniemen luonnonsuojelualue State Nature Preserve","coordinates":[30.0158,62.0325]}]}