{"lat":62,"lon":6.25,"programs":["sota"],"count":24,"references":[{"code":"LA/MR-282","program":"sota","name":"Skårasalen","coordinates":[6.4858,62.1656]},{"code":"LA/MR-316","program":"sota","name":"Eidskyrkja","coordinates":[6.2626,62.0171]},{"code":"LA/MR-352","program":"sota","name":"Dukhornet","coordinates":[6.4866,62.1294]},{"code":"LA/MR-354","program":"sota","name":"Jolhornet","coordinates":[6.4336,62.1168]},{"code":"LA/MR-355","program":"sota","name":"Storetinden","coordinates":[6.3845,62.1139]},{"code":"LA/MR-358","program":"sota","name":"Sunndalsnipa","coordinates":[6.3213,62.0165]},{"code":"LA/MR-362","program":"sota","name":"Sandegga","coordinates":[6.3954,62.0883]},{"code":"LA/MR-367","program":"sota","name":"Storhornet","coordinates":[6.4659,62.179]},{"code":"LA/MR-380","program":"sota","name":"Dalegubben","coordinates":[6.435,62.2304]},{"code":"LA/MR-389","program":"sota","name":"Søre Grøtdalstind","coordinates":[6.3854,62.2148]},{"code":"LA/MR-402","program":"sota","name":"Sylvkallen","coordinates":[6.4383,62.2472]},{"code":"LA/MR-403","program":"sota","name":"Snøhornet","coordinates":[6.2747,62.1127]},{"code":"LA/MR-405","program":"sota","name":"Nonshornet","coordinates":[6.3867,62.2359]},{"code":"LA/MR-410","program":"sota","name":"Kvanndalsegga","coordinates":[6.3357,62.1095]},{"code":"LA/MR-415","program":"sota","name":"Klovtinden","coordinates":[6.4397,62.1443]},{"code":"LA/MR-429","program":"sota","name":"Litledalshornet","coordinates":[6.3101,62.1048]},{"code":"LA/MR-433","program":"sota","name":"Telefjellet","coordinates":[6.3194,62.1809]},{"code":"LA/MR-438","program":"sota","name":"Veirahaldet","coordinates":[6.2984,62.1811]},{"code":"LA/MR-448","program":"sota","name":"Ottedalstinden","coordinates":[6.4015,62.0054]},{"code":"LA/MR-471","program":"sota","name":"Tuva","coordinates":[6.4852,62.1448]},{"code":"LA/MR-483","program":"sota","name":"Storkjelen","coordinates":[6.4752,62.0891]},{"code":"LA/MR-548","program":"sota","name":"Skaphornet","coordinates":[6.3597,62.0426]},{"code":"LA/SF-263","program":"sota","name":"Gjugra","coordinates":[6.4946,62.0378]},{"code":"LA/SF-344","program":"sota","name":"Kviven","coordinates":[6.4636,62.012]}]}