{"lat":62.25,"lon":9.25,"programs":["gma","pota","sota"],"count":7,"references":[{"code":"LB/ST-001","program":"gma","name":"Namnlauskollen","coordinates":[9.39579964,62.36859894]},{"code":"NO-2703","program":"pota","name":"Åmotsdalen Landscape Reserve","coordinates":[9.44728,62.4628]},{"code":"LA/OL-016","program":"sota","name":"Snøhetta, Stortoppen","coordinates":[9.2675,62.32]},{"code":"LA/OL-065","program":"sota","name":"Kolla","coordinates":[9.4867,62.2917]},{"code":"LA/ST-002","program":"sota","name":"Tythøa","coordinates":[9.4658,62.3856]},{"code":"LA/ST-019","program":"sota","name":"Storbrean","coordinates":[9.4071,62.3563]},{"code":"LA/ST-021","program":"sota","name":"Skardkollen","coordinates":[9.3265,62.3572]}]}