{"lat":62.25,"lon":8,"programs":["pota","sota"],"count":18,"references":[{"code":"NO-1301","program":"pota","name":"Mardalen Nature Reserve","coordinates":[8.10892,62.4799]},{"code":"NO-1936","program":"pota","name":"Slettsvaet Nature Reserve","coordinates":[8.03808,62.3812]},{"code":"NO-2403","program":"pota","name":"Vermedalen Nature Reserve","coordinates":[8.01745,62.3471]},{"code":"NO-2747","program":"pota","name":"Sandgrovbotn-Mardalsbotn Biosphere Reserve","coordinates":[8.03967,62.483]},{"code":"LA/MR-015","program":"sota","name":"Kaldbottinden","coordinates":[8.1989,62.3656]},{"code":"LA/MR-025","program":"sota","name":"Fossafjell S","coordinates":[8.0714,62.4139]},{"code":"LA/MR-027","program":"sota","name":"Sandgrovegga S","coordinates":[8.1261,62.4181]},{"code":"LA/MR-043","program":"sota","name":"Midthøin","coordinates":[8.0122,62.4875]},{"code":"LA/MR-048","program":"sota","name":"Raudmyrhøa","coordinates":[8.1703,62.3303]},{"code":"LA/MR-056","program":"sota","name":"Alterhøa","coordinates":[8.0039,62.3089]},{"code":"LA/MR-085","program":"sota","name":"Fugleleikhøa","coordinates":[8.0972,62.3539]},{"code":"LA/MR-141","program":"sota","name":"Kleneggen","coordinates":[8.2058,62.3967]},{"code":"LA/MR-193","program":"sota","name":"Bruåbottmillo","coordinates":[8.1693,62.404]},{"code":"LA/MR-238","program":"sota","name":"Grovåkampen","coordinates":[8.2289,62.3633]},{"code":"LA/MR-241","program":"sota","name":"Kaldhøa","coordinates":[8.1474,62.3575]},{"code":"LA/MR-360","program":"sota","name":"Middagshaugen","coordinates":[8.2063,62.4417]},{"code":"LA/MR-377","program":"sota","name":"Litlfjellet","coordinates":[8.0846,62.4778]},{"code":"LA/OL-124","program":"sota","name":"Toppen","coordinates":[8.1689,62.2972]}]}