{"lat":62.25,"lon":-6.5,"programs":["sota"],"count":7,"references":[{"code":"OY/OY-040","program":"sota","name":"Enni","coordinates":[-6.4889,62.2974]},{"code":"OY/OY-052","program":"sota","name":"Klubbin","coordinates":[-6.3221,62.3396]},{"code":"OY/OY-065","program":"sota","name":"Havnartindur","coordinates":[-6.397,62.2748]},{"code":"OY/OY-070","program":"sota","name":"Talvborð","coordinates":[-6.4396,62.3138]},{"code":"OY/OY-083","program":"sota","name":"Keldufjall","coordinates":[-6.3487,62.2953]},{"code":"OY/OY-085","program":"sota","name":"Eystfelli","coordinates":[-6.2614,62.3417]},{"code":"OY/OY-102","program":"sota","name":"Eysturhøvdi","coordinates":[-6.2884,62.2898]}]}