{"lat":62.25,"lon":7.25,"programs":["sota"],"count":26,"references":[{"code":"LA/MR-041","program":"sota","name":"Sjøboltinden","coordinates":[7.4478,62.3981]},{"code":"LA/MR-050","program":"sota","name":"Taskedalstinden","coordinates":[7.3669,62.3911]},{"code":"LA/MR-057","program":"sota","name":"Nonstinden","coordinates":[7.3944,62.4567]},{"code":"LA/MR-058","program":"sota","name":"Middagstindan","coordinates":[7.4403,62.4606]},{"code":"LA/MR-064","program":"sota","name":"Skjervan","coordinates":[7.4808,62.4786]},{"code":"LA/MR-065","program":"sota","name":"Gamlestølsfjellet","coordinates":[7.4375,62.42]},{"code":"LA/MR-066","program":"sota","name":"Brekkehornet","coordinates":[7.3903,62.3878]},{"code":"LA/MR-072","program":"sota","name":"Grønnfonnfjellet","coordinates":[7.4058,62.3956]},{"code":"LA/MR-073","program":"sota","name":"Storbua","coordinates":[7.2544,62.4708]},{"code":"LA/MR-074","program":"sota","name":"Litlevasstinden","coordinates":[7.3347,62.4525]},{"code":"LA/MR-079","program":"sota","name":"Kyrfonntinden","coordinates":[7.4394,62.3889]},{"code":"LA/MR-084","program":"sota","name":"Trollvasstinden","coordinates":[7.3006,62.4642]},{"code":"LA/MR-101","program":"sota","name":"Urhaugen","coordinates":[7.3928,62.4844]},{"code":"LA/MR-106","program":"sota","name":"Kjøsen","coordinates":[7.3219,62.4864]},{"code":"LA/MR-139","program":"sota","name":"Kammen","coordinates":[7.3217,62.4236]},{"code":"LA/MR-209","program":"sota","name":"Muldalsegga","coordinates":[7.4569,62.2784]},{"code":"LA/MR-211","program":"sota","name":"Høgstolen","coordinates":[7.4934,62.3808]},{"code":"LA/MR-264","program":"sota","name":"Remsfjellet","coordinates":[7.4525,62.3626]},{"code":"LA/MR-289","program":"sota","name":"Seljebottstinden","coordinates":[7.2832,62.3499]},{"code":"LA/MR-291","program":"sota","name":"Tolleknivsegga","coordinates":[7.3164,62.2523]},{"code":"LA/MR-329","program":"sota","name":"Alstadfjellet","coordinates":[7.498,62.3468]},{"code":"LA/MR-336","program":"sota","name":"Ådalstinden","coordinates":[7.2737,62.3952]},{"code":"LA/MR-346","program":"sota","name":"Litlehornet","coordinates":[7.2748,62.3383]},{"code":"LA/MR-351","program":"sota","name":"Berlifjellet","coordinates":[7.4149,62.3708]},{"code":"LA/MR-353","program":"sota","name":"Svartfjellet","coordinates":[7.3072,62.3755]},{"code":"LA/MR-467","program":"sota","name":"Mefjellet","coordinates":[7.3634,62.3121]}]}