{"lat":62.25,"lon":17.25,"programs":["pota","sota","wwbota"],"count":7,"references":[{"code":"SE-0838","program":"pota","name":"Stornäset Nature Reserve","coordinates":[17.4877,62.4522]},{"code":"SE-1147","program":"pota","name":"Smedsgården Nature Reserve","coordinates":[17.4432,62.4428]},{"code":"SE-1148","program":"pota","name":"Smedsgården Natura 2000","coordinates":[17.4444,62.4415]},{"code":"SE-1340","program":"pota","name":"Måckelmyran Natura 2000","coordinates":[17.4321,62.2545]},{"code":"SE-1707","program":"pota","name":"Stornäset Natura 2000","coordinates":[17.4936,62.449]},{"code":"SM/VN-123","program":"sota","name":"Vitberget","coordinates":[17.250278,62.288315]},{"code":"B/SM-0003","program":"wwbota","name":"Tjuvholmen","coordinates":[17.369534,62.386377]}]}