{"lat":62.25,"lon":12.25,"programs":["sota"],"count":7,"references":[{"code":"SM/JL-022","program":"sota","name":"Brattriet","coordinates":[12.3772,62.4261]},{"code":"SM/JL-036","program":"sota","name":"Storvålen (Våala)","coordinates":[12.4775,62.4385]},{"code":"SM/JL-046","program":"sota","name":"Bustvålen","coordinates":[12.2849,62.3605]},{"code":"SM/JL-049","program":"sota","name":"Handskinnvålen (Stoerhannsjkinne)","coordinates":[12.419,62.3781]},{"code":"SM/JL-051","program":"sota","name":"Bredåvalarna","coordinates":[12.2977,62.2991]},{"code":"SM/JL-117","program":"sota","name":"Våndsjögusten","coordinates":[12.2996,62.2675]},{"code":"SM/JL-149","program":"sota","name":"Rödfjället (Rååfjeelle)","coordinates":[12.304064,62.48303]}]}