{"lat":62.25,"lon":11.75,"programs":["pota","sota"],"count":6,"references":[{"code":"NO-2296","program":"pota","name":"Tufsingdalseskeren Nature Reserve","coordinates":[11.7526,62.2728]},{"code":"NO-2984","program":"pota","name":"Femundslia Landscape Reserve","coordinates":[11.9793,62.2531]},{"code":"NO-0438","program":"pota","name":"Flensmarka Nature Reserve","coordinates":[11.8637,62.3983]},{"code":"NO-2909","program":"pota","name":"Langtjønna Landscape Reserve","coordinates":[11.9242,62.4749]},{"code":"LA/HM-100","program":"sota","name":"Flenskampan","coordinates":[11.8306,62.3539]},{"code":"LA/HM-235","program":"sota","name":"Søndre Buhøgda","coordinates":[11.8115,62.2991]}]}