{"lat":62.25,"lon":13.25,"programs":["sota"],"count":5,"references":[{"code":"SM/JL-067","program":"sota","name":"Gråsidan","coordinates":[13.485,62.2806]},{"code":"SM/JL-231","program":"sota","name":"Brovallvålen","coordinates":[13.300967,62.315556]},{"code":"SM/JL-243","program":"sota","name":"Långåvålen","coordinates":[13.282638,62.470592]},{"code":"SM/JL-251","program":"sota","name":"Digerknätten","coordinates":[13.45778,62.470802]},{"code":"SM/JL-252","program":"sota","name":"Stor-Frägnen","coordinates":[13.365898,62.468163]}]}