{"lat":62.25,"lon":10,"programs":["pota","sota"],"count":7,"references":[{"code":"NO-0333","program":"pota","name":"Einunndalsranden Nature Reserve","coordinates":[10.1511,62.2775]},{"code":"NO-1319","program":"pota","name":"Meløyfloen Nature Reserve","coordinates":[10.0482,62.3034]},{"code":"NO-2920","program":"pota","name":"Knutshø Landscape Reserve","coordinates":[10.0096,62.3966]},{"code":"LA/HM-010","program":"sota","name":"Høg-Gia, M","coordinates":[10.115,62.3869]},{"code":"LA/HM-019","program":"sota","name":"Marsjøfjellet","coordinates":[10.2228,62.3231]},{"code":"LA/HM-072","program":"sota","name":"Finnshøa","coordinates":[10.0908,62.3344]},{"code":"LA/HM-200","program":"sota","name":"Orkelsjøtangen, Vesle","coordinates":[10.0769,62.4803]}]}