{"lat":62.25,"lon":13.5,"programs":["pota","sota"],"count":5,"references":[{"code":"SE-0011","program":"pota","name":"Sonfjället National Park","coordinates":[13.5833,62.2999]},{"code":"SE-0817","program":"pota","name":"Sonfjället Natura 2000","coordinates":[13.6336,62.284]},{"code":"SM/JL-066","program":"sota","name":"Högfjället (Sånfjället)","coordinates":[13.5396,62.2848]},{"code":"SM/JL-068","program":"sota","name":"Korpflyet","coordinates":[13.5349,62.251]},{"code":"SM/JL-272","program":"sota","name":"Juvan","coordinates":[13.70613,62.32686]}]}