{"lat":62.5,"lon":9,"programs":["pota","sota"],"count":13,"references":[{"code":"NO-0563","program":"pota","name":"Gjørahaugen Nature Reserve","coordinates":[9.09477,62.5624]},{"code":"NO-1540","program":"pota","name":"Ottem Nature Reserve","coordinates":[9.02757,62.592]},{"code":"NO-1945","program":"pota","name":"Småvollen Nature Reserve","coordinates":[9.14468,62.5768]},{"code":"LA/MR-315","program":"sota","name":"Fremre Grynningshøa","coordinates":[9.0216,62.6179]},{"code":"LA/MR-441","program":"sota","name":"Hælfjellet","coordinates":[9.0187,62.5126]},{"code":"LA/ST-004","program":"sota","name":"Sandåhøa(Kråkvasstind)","coordinates":[9.1297,62.6247]},{"code":"LA/ST-025","program":"sota","name":"Svorundfjellet","coordinates":[9.1832,62.6192]},{"code":"LA/ST-034","program":"sota","name":"Gjerdhøa","coordinates":[9.2289,62.621]},{"code":"LA/ST-039","program":"sota","name":"Nonshøa","coordinates":[9.0268,62.6623]},{"code":"LA/ST-042","program":"sota","name":"Storbekkhøa","coordinates":[9.0802,62.7303]},{"code":"LA/ST-058","program":"sota","name":"Lorthøa","coordinates":[9.1007,62.6519]},{"code":"LA/ST-062","program":"sota","name":"Hyttdalskamben","coordinates":[9.1459,62.7303]},{"code":"LA/ST-077","program":"sota","name":"Høa","coordinates":[9.0122,62.7036]}]}