{"lat":62.5,"lon":11.75,"programs":["pota","sota"],"count":7,"references":[{"code":"NO-0391","program":"pota","name":"Finnfloen Nature Reserve","coordinates":[11.9352,62.7365]},{"code":"NO-1951","program":"pota","name":"Sølendet Nature Reserve","coordinates":[11.834,62.6857]},{"code":"LA/ST-057","program":"sota","name":"Vigltjønnhøgda","coordinates":[11.9665,62.5718]},{"code":"LA/ST-091","program":"sota","name":"Dagvola","coordinates":[11.944,62.6648]},{"code":"LA/ST-094","program":"sota","name":"Storhøgda","coordinates":[11.7663,62.5586]},{"code":"LA/ST-100","program":"sota","name":"Kvitmannen (Njuanabaertie)","coordinates":[11.9966,62.6788]},{"code":"LA/ST-113","program":"sota","name":"Knippen","coordinates":[11.8827,62.5951]}]}