{"lat":62.5,"lon":9.25,"programs":["pota","sota"],"count":10,"references":[{"code":"NO-0581","program":"pota","name":"Gråura Nature Reserve","coordinates":[9.3446,62.5778]},{"code":"NO-1448","program":"pota","name":"Nordre Snøfjelltjørn Nature Reserve","coordinates":[9.32734,62.5066]},{"code":"LA/ST-015","program":"sota","name":"Svahøa","coordinates":[9.4672,62.7211]},{"code":"LA/ST-029","program":"sota","name":"Storhornet","coordinates":[9.3989,62.6478]},{"code":"LA/ST-030","program":"sota","name":"Okla (snydda)","coordinates":[9.2626,62.6897]},{"code":"LA/ST-031","program":"sota","name":"Brattskarven","coordinates":[9.3951,62.5045]},{"code":"LA/ST-044","program":"sota","name":"Gjevillvasskammen","coordinates":[9.2715,62.7468]},{"code":"LA/ST-046","program":"sota","name":"Gråhøa","coordinates":[9.28,62.5415]},{"code":"LA/ST-053","program":"sota","name":"Buslættkamben","coordinates":[9.3253,62.6585]},{"code":"LA/ST-325","program":"sota","name":"Gjevillvasskamben","coordinates":[9.2536,62.7339]}]}