{"lat":62.75,"lon":9.25,"programs":["pota","sota"],"count":10,"references":[{"code":"NO-2112","program":"pota","name":"Storslettkjølen Nature Reserve","coordinates":[9.45864,62.9843]},{"code":"LA/MR-156","program":"sota","name":"Geithøtta","coordinates":[9.3245,62.8192]},{"code":"LA/MR-160","program":"sota","name":"Rinnhatten","coordinates":[9.3574,62.8973]},{"code":"LA/MR-163","program":"sota","name":"Trollhøtta","coordinates":[9.3037,62.9427]},{"code":"LA/MR-164","program":"sota","name":"Trollhøtta Sørtoppen","coordinates":[9.3244,62.852]},{"code":"LA/ST-023","program":"sota","name":"Blåhøa","coordinates":[9.3312,62.7541]},{"code":"LA/ST-037","program":"sota","name":"Svarthøtta","coordinates":[9.4216,62.816]},{"code":"LA/ST-047","program":"sota","name":"Svarttjønnkollen","coordinates":[9.3578,62.7808]},{"code":"LA/ST-061","program":"sota","name":"Høghøa","coordinates":[9.4661,62.7584]},{"code":"LA/ST-109","program":"sota","name":"Raudfjellet","coordinates":[9.4296,62.9545]}]}