{"lat":62.75,"lon":18.25,"programs":["iota","pota","sota"],"count":18,"references":[{"code":"EU-087","program":"iota","name":"VASTERNORRLAND COUNTY group","coordinates":[18.390000345,62.800001145]},{"code":"SE-1786","program":"pota","name":"Nordingå Protected Landscape","coordinates":[18.2591,62.9502]},{"code":"SE-1787","program":"pota","name":"Höga Kusten World Heritage Site","coordinates":[18.3871,62.9788]},{"code":"SE-1791","program":"pota","name":"Halsviksravinen Nature Reserve","coordinates":[18.4358,62.9256]},{"code":"SE-1792","program":"pota","name":"Halsviksravinen Natura 2000","coordinates":[18.4329,62.9207]},{"code":"SE-1795","program":"pota","name":"Fjärdingsöarna Nature Reserve","coordinates":[18.3162,62.8235]},{"code":"SE-1796","program":"pota","name":"Rotsidan Nature Reserve","coordinates":[18.3743,62.846]},{"code":"SE-1797","program":"pota","name":"Högbonden Nature Reserve","coordinates":[18.4802,62.8746]},{"code":"SE-1798","program":"pota","name":"Högbonden Natura 2000","coordinates":[18.4804,62.8806]},{"code":"SE-1799","program":"pota","name":"Omneberget Nature Reserve","coordinates":[18.3354,62.9586]},{"code":"SE-1800","program":"pota","name":"Omneberget Natura 2000","coordinates":[18.3427,62.9566]},{"code":"SE-1803","program":"pota","name":"Villmyran Nature Reserve","coordinates":[18.3942,62.9834]},{"code":"SE-1804","program":"pota","name":"Villmyran Natura 2000","coordinates":[18.402,62.9866]},{"code":"SM/VN-017","program":"sota","name":"Ringkallen","coordinates":[18.3179,62.8831]},{"code":"SM/VN-025","program":"sota","name":"Dalsberget (Rävsön)","coordinates":[18.4705,62.9225]},{"code":"SM/VN-026","program":"sota","name":"Själandsklinten","coordinates":[18.3683,62.9138]},{"code":"SM/VN-033","program":"sota","name":"Högklinten","coordinates":[18.3924,62.9861]},{"code":"SM/VN-121","program":"sota","name":"Stormyrberget","coordinates":[18.340408,62.94192]}]}