{"lat":62.75,"lon":7.5,"programs":["pota","sota"],"count":16,"references":[{"code":"NO-0103","program":"pota","name":"Batnfjordsøra Nature Reserve","coordinates":[7.68065,62.8979]},{"code":"NO-1512","program":"pota","name":"Oltervågen Nature Reserve","coordinates":[7.67061,62.7923]},{"code":"NO-2122","program":"pota","name":"Strand Nature Reserve","coordinates":[7.69967,62.9927]},{"code":"LA/MR-178","program":"sota","name":"Stokknoken","coordinates":[7.7094646,62.950184]},{"code":"LA/MR-179","program":"sota","name":"Storfjellet","coordinates":[7.6591334,62.92723]},{"code":"LA/MR-487","program":"sota","name":"Snøtinden","coordinates":[7.5116,62.8648]},{"code":"LA/MR-499","program":"sota","name":"Harstadfjellet","coordinates":[7.6148,62.9013]},{"code":"LA/MR-547","program":"sota","name":"Snøfjellet","coordinates":[7.7086,62.75]},{"code":"LA/MR-560","program":"sota","name":"Skredfjellet","coordinates":[7.59,62.877]},{"code":"LA/MR-571","program":"sota","name":"Sørheia","coordinates":[7.7193,62.8843]},{"code":"LA/MR-586","program":"sota","name":"Mekknøken","coordinates":[7.5794,62.9775]},{"code":"LA/MR-603","program":"sota","name":"Blånebba","coordinates":[7.7424,62.9024]},{"code":"LA/MR-629","program":"sota","name":"Raudheia","coordinates":[7.5465,62.8318]},{"code":"LA/MR-654","program":"sota","name":"Fagerfjellet","coordinates":[7.5217,62.9789]},{"code":"LA/MR-666","program":"sota","name":"Seterfjellet","coordinates":[7.5197,62.892]},{"code":"LA/MR-683","program":"sota","name":"Steinlifjellet","coordinates":[7.6546,62.8617]}]}