{"lat":62.75,"lon":17.75,"programs":["sota"],"count":5,"references":[{"code":"SM/VN-014","program":"sota","name":"Butjärnsberget","coordinates":[17.9289,62.9759]},{"code":"SM/VN-015","program":"sota","name":"Folkjansberget","coordinates":[17.9848,62.8783]},{"code":"SM/VN-016","program":"sota","name":"Långtoberget","coordinates":[17.9497,62.9421]},{"code":"SM/VN-037","program":"sota","name":"Oxberget","coordinates":[17.8777,62.9499]},{"code":"SM/VN-114","program":"sota","name":"Tuäggenberget","coordinates":[17.810091,62.855206]}]}