{"lat":62.75,"lon":8.5,"programs":["pota","sota"],"count":17,"references":[{"code":"NO-1570","program":"pota","name":"Prestgardselva Nature Reserve","coordinates":[8.51647,62.9305]},{"code":"NO-1983","program":"pota","name":"Søysetøran Nature Reserve","coordinates":[8.53984,62.887]},{"code":"NO-2245","program":"pota","name":"Todalsøran Nature Reserve","coordinates":[8.69627,62.8181]},{"code":"NO-2746","program":"pota","name":"Almbekken Nature Reserve","coordinates":[8.74612,62.941]},{"code":"NO-2761","program":"pota","name":"Surna Nature Reserve","coordinates":[8.66705,62.9742]},{"code":"NO-3345","program":"pota","name":"Viromdalen Nature Reserve","coordinates":[8.66304,62.7524]},{"code":"LA/MR-369","program":"sota","name":"Viromkjerringa","coordinates":[8.6247,62.7764]},{"code":"LA/MR-400","program":"sota","name":"Ytre Sula","coordinates":[8.7282,62.8559]},{"code":"LA/MR-404","program":"sota","name":"Grånebba","coordinates":[8.6134,62.8019]},{"code":"LA/MR-494","program":"sota","name":"Børsetkjerringa","coordinates":[8.5875,62.7792]},{"code":"LA/MR-519","program":"sota","name":"Bollknubben","coordinates":[8.7125,62.7626]},{"code":"LA/MR-538","program":"sota","name":"Strengen","coordinates":[8.5517,62.9261]},{"code":"LA/MR-542","program":"sota","name":"Bollknubben","coordinates":[8.706,62.88]},{"code":"LA/MR-544","program":"sota","name":"Storfjellet","coordinates":[8.7467,62.8937]},{"code":"LA/MR-617","program":"sota","name":"Peknuken","coordinates":[8.5396,62.7917]},{"code":"LA/MR-665","program":"sota","name":"Åsbøsnytå","coordinates":[8.6174,62.8923]},{"code":"LA/MR-682","program":"sota","name":"Gjersvollhaugen","coordinates":[8.5081,62.7511]}]}