{"lat":62.75,"lon":11.5,"programs":["sota"],"count":5,"references":[{"code":"LA/ST-060","program":"sota","name":"Blåstøten","coordinates":[11.612,62.9098]},{"code":"LA/ST-064","program":"sota","name":"Kjøliskarven","coordinates":[11.5945,62.8803]},{"code":"LA/ST-065","program":"sota","name":"Storskarven","coordinates":[11.558,62.7715]},{"code":"LA/ST-086","program":"sota","name":"Gjårdvola","coordinates":[11.69,62.8092]},{"code":"LA/ST-090","program":"sota","name":"Grønvola","coordinates":[11.7171,62.915]}]}