{"lat":62.75,"lon":17.25,"programs":["pota","sota"],"count":5,"references":[{"code":"SE-0847","program":"pota","name":"Älgberget-Björnberget Nature Reserve","coordinates":[17.4543,62.9228]},{"code":"SE-0848","program":"pota","name":"Älgberget-Björnberget Natura 2000","coordinates":[17.4632,62.9192]},{"code":"SM/VN-004","program":"sota","name":"Hammarshöjden","coordinates":[17.3315,62.9739]},{"code":"SM/VN-059","program":"sota","name":"Hugstmyrhöjden","coordinates":[17.476994,62.86684]},{"code":"SM/VN-072","program":"sota","name":"Asketjärnsberget","coordinates":[17.306534,62.880306]}]}