{"lat":63,"lon":11.5,"programs":["pota","sota"],"count":7,"references":[{"code":"NO-0746","program":"pota","name":"Henfallet Nature Reserve","coordinates":[11.5913,63.0309]},{"code":"LA/ST-008","program":"sota","name":"Fongen","coordinates":[11.6306,63.1808]},{"code":"LA/ST-074","program":"sota","name":"Ramfjellet","coordinates":[11.6563,63.206]},{"code":"LA/ST-078","program":"sota","name":"Ruten","coordinates":[11.5593,63.1357]},{"code":"LA/ST-104","program":"sota","name":"Lauvåstøten","coordinates":[11.712,63.1562]},{"code":"LA/ST-110","program":"sota","name":"Sprøyten","coordinates":[11.5207,63.241]},{"code":"LA/ST-125","program":"sota","name":"Henvola","coordinates":[11.5553,63.0309]}]}