{"lat":63,"lon":18.5,"programs":["pota","sota"],"count":11,"references":[{"code":"SE-0849","program":"pota","name":"Balesudden Nature Reserve","coordinates":[18.6703,63.1752]},{"code":"SE-0850","program":"pota","name":"Balesudden Natura 2000","coordinates":[18.7132,63.1722]},{"code":"SE-1807","program":"pota","name":"Stormyran på Ulvön Nature Reserve","coordinates":[18.6805,63.0596]},{"code":"SE-1808","program":"pota","name":"Stormyran på Ulvön Natura 2000","coordinates":[18.6777,63.058]},{"code":"SE-1809","program":"pota","name":"Mjältön Nature Reserve","coordinates":[18.5178,63.0408]},{"code":"SE-1810","program":"pota","name":"Hummelvik Nature Reserve","coordinates":[18.5601,63.145]},{"code":"SE-1811","program":"pota","name":"Hummelvik Natura 2000","coordinates":[18.5829,63.1398]},{"code":"SM/VN-023","program":"sota","name":"Bastutoberget (Mjältön)","coordinates":[18.5144,63.0512]},{"code":"SM/VN-118","program":"sota","name":"Middagsberget","coordinates":[18.62779,63.211357]},{"code":"SM/VN-125","program":"sota","name":"Hummelviksberget","coordinates":[18.580177,63.144753]},{"code":"SM/VN-127","program":"sota","name":"Älgön","coordinates":[18.66899,63.141056]}]}