{"lat":63,"lon":10.5,"programs":["pota","sota"],"count":5,"references":[{"code":"NO-1764","program":"pota","name":"Samsjøen Nature Reserve","coordinates":[10.7292,63.0881]},{"code":"LA/ST-112","program":"sota","name":"Rensfjellet","coordinates":[10.7216,63.1421]},{"code":"LA/ST-122","program":"sota","name":"Samsjøvola","coordinates":[10.6512,63.0705]},{"code":"LA/ST-132","program":"sota","name":"Kråkfjellet","coordinates":[10.6322,63.1634]},{"code":"LA/ST-137","program":"sota","name":"Svartfjellknippen Ytre","coordinates":[10.5743,63.0577]}]}