{"lat":63.25,"lon":9.25,"programs":["sota"],"count":14,"references":[{"code":"LA/ST-126","program":"sota","name":"Omnfjellvarden","coordinates":[9.4656,63.2843]},{"code":"LA/ST-135","program":"sota","name":"Gråurda","coordinates":[9.377,63.3201]},{"code":"LA/ST-142","program":"sota","name":"Hoggsgåsa Store","coordinates":[9.2934,63.2931]},{"code":"LA/ST-148","program":"sota","name":"Gråfjellet","coordinates":[9.411,63.2546]},{"code":"LA/ST-152","program":"sota","name":"Langlidalsheian","coordinates":[9.4898,63.3205]},{"code":"LA/ST-178","program":"sota","name":"Svartholkjerka","coordinates":[9.3574,63.4069]},{"code":"LA/ST-187","program":"sota","name":"Krokstadfjellet","coordinates":[9.4703,63.4119]},{"code":"LA/ST-197","program":"sota","name":"Blåfjellet","coordinates":[9.3371,63.4987]},{"code":"LA/ST-213","program":"sota","name":"Kvernstadlifjellet","coordinates":[9.3142,63.4184]},{"code":"LA/ST-222","program":"sota","name":"Ratfjellet","coordinates":[9.3182,63.4913]},{"code":"LA/ST-238","program":"sota","name":"Imsterheia","coordinates":[9.435,63.4951]},{"code":"LA/ST-264","program":"sota","name":"Bustliknubben","coordinates":[9.3576,63.4764]},{"code":"LA/ST-267","program":"sota","name":"Stolpnesfjellet","coordinates":[9.309,63.4597]},{"code":"LA/ST-299","program":"sota","name":"Buskardkammen","coordinates":[9.252,63.4033]}]}