{"lat":63.5,"lon":8.5,"programs":["iota","pota","sota"],"count":6,"references":[{"code":"EU-036","program":"iota","name":"SOR-TRONDELAG / MORE OG ROMSDAL COUNTY NORTH group","coordinates":[8.66499996,63.67499924]},{"code":"NO-0634","program":"pota","name":"Grytelva Nature Reserve","coordinates":[8.51815,63.5349]},{"code":"NO-0710","program":"pota","name":"Havmyran Nature Reserve","coordinates":[8.64271,63.5091]},{"code":"NO-0726","program":"pota","name":"Helgebostadøya Nature Reserve","coordinates":[8.60485,63.5651]},{"code":"NO-1840","program":"pota","name":"Sjømyråsen Nature Reserve","coordinates":[8.73191,63.6261]},{"code":"LA/ST-303","program":"sota","name":"Håvikfjellet","coordinates":[8.6461,63.5557]}]}