{"lat":63.5,"lon":9.75,"programs":["pota","sota","wwbota"],"count":9,"references":[{"code":"NO-2095","program":"pota","name":"Storlidalen Nature Reserve","coordinates":[9.97332,63.6678]},{"code":"NO-2709","program":"pota","name":"Eidsvatnet National Wildlife Area","coordinates":[9.83833,63.7382]},{"code":"NO-2910","program":"pota","name":"Strømmen National Wildlife Area","coordinates":[9.93824,63.5787]},{"code":"NO-2922","program":"pota","name":"Nedre Hassel Landscape Reserve","coordinates":[9.87257,63.6514]},{"code":"LA/ST-263","program":"sota","name":"Vardheia","coordinates":[9.96,63.5386]},{"code":"LA/ST-281","program":"sota","name":"Slettheia","coordinates":[9.8684,63.6676]},{"code":"LA/ST-289","program":"sota","name":"Brettingen","coordinates":[9.8356,63.6629]},{"code":"LA/ST-293","program":"sota","name":"Osplikammen","coordinates":[9.7626,63.728]},{"code":"B/LA-0072","program":"wwbota","name":"Åremmen fort","coordinates":[9.78341,63.57538]}]}