{"lat":63.75,"lon":-19.75,"programs":["sota"],"count":6,"references":[{"code":"TF/SL-010","program":"sota","name":"Hekla","coordinates":[-19.6675,63.992]},{"code":"TF/SL-011","program":"sota","name":"Ýmir","coordinates":[-19.5676,63.7859]},{"code":"TF/SL-053","program":"sota","name":"Innri-Vatnafjöll","coordinates":[-19.6214,63.9283]},{"code":"TF/SL-077","program":"sota","name":"Hrauntindar","coordinates":[-19.5077,63.9193]},{"code":"TF/SL-126","program":"sota","name":"Göndull","coordinates":[-19.5665,63.8854]},{"code":"TF/SL-138","program":"sota","name":"Endafell","coordinates":[-19.6388,63.8816]}]}