{"lat":63.75,"lon":24,"programs":["pota"],"count":5,"references":[{"code":"FI-1517","program":"pota","name":"Lestijoki Natura 2000","coordinates":[24.21,63.7863]},{"code":"FI-1520","program":"pota","name":"Ritanevan–Vipusalonnevan–Märsynnevan luonnonsuojelualue State Nature Preserve","coordinates":[24.0158,63.8063]},{"code":"FI-1521","program":"pota","name":"Ritaneva - Vipusalonneva - Märsynneva Natura 2000","coordinates":[24.068,63.77]},{"code":"FI-1533","program":"pota","name":"Viitajärven luonnonsuojelualue State Nature Preserve","coordinates":[24.208,63.8764]},{"code":"FI-1534","program":"pota","name":"Viitajärvi Natura 2000","coordinates":[24.1898,63.8804]}]}