{"lat":63.75,"lon":-18.75,"programs":["pota","sota"],"count":6,"references":[{"code":"IS-0114","program":"pota","name":"Eldgjá National Park","coordinates":[-18.6384,63.9515]},{"code":"TF/SL-081","program":"sota","name":"Gjátindur","coordinates":[-18.5786,63.9934]},{"code":"TF/SL-125","program":"sota","name":"Skuggafjöll","coordinates":[-18.7222,63.9767]},{"code":"TF/SL-131","program":"sota","name":"Mórauðavatnshnúkar","coordinates":[-18.7331,63.9164]},{"code":"TF/SL-136","program":"sota","name":"Herðubreið Fjallabaki","coordinates":[-18.6747,63.9656]},{"code":"TF/SL-171","program":"sota","name":"Bláfjall","coordinates":[-18.6659,63.8885]}]}