{"lat":63.75,"lon":10.75,"programs":["pota","sota"],"count":6,"references":[{"code":"NO-1688","program":"pota","name":"Røsheia Nature Reserve","coordinates":[10.8411,63.8312]},{"code":"NO-1826","program":"pota","name":"Simadalen Nature Reserve","coordinates":[10.7946,63.957]},{"code":"LA/NT-192","program":"sota","name":"Bannsettheia","coordinates":[10.93996,63.96901]},{"code":"LA/NT-250","program":"sota","name":"Storknuken","coordinates":[10.84305,63.77395]},{"code":"LA/NT-258","program":"sota","name":"Hattheia","coordinates":[10.91262,63.92154]},{"code":"LA/NT-300","program":"sota","name":"Bjørnkammen","coordinates":[10.8473,63.83839]}]}