{"lat":63.75,"lon":-19.5,"programs":["sota"],"count":17,"references":[{"code":"TF/SL-031","program":"sota","name":"Rauðufossafjöll","coordinates":[-19.406,63.9936]},{"code":"TF/SL-032","program":"sota","name":"Rauðufossafjöll Austur","coordinates":[-19.3695,63.9975]},{"code":"TF/SL-035","program":"sota","name":"Rauðufossafjöll Suður","coordinates":[-19.406,63.9768]},{"code":"TF/SL-037","program":"sota","name":"Laufafell","coordinates":[-19.3432,63.9155]},{"code":"TF/SL-038","program":"sota","name":"Rauðufossafjöll Vestur","coordinates":[-19.4306,63.9883]},{"code":"TF/SL-051","program":"sota","name":"Hrafntinnuhraun 1095","coordinates":[-19.289,63.9404]},{"code":"TF/SL-065","program":"sota","name":"Hraukar","coordinates":[-19.4843,63.9754]},{"code":"TF/SL-070","program":"sota","name":"Vestriöxl","coordinates":[-19.4914,63.7935]},{"code":"TF/SL-074","program":"sota","name":"Botnafjöll Norður","coordinates":[-19.4218,63.9362]},{"code":"TF/SL-088","program":"sota","name":"Hagafell","coordinates":[-19.3454,63.8918]},{"code":"TF/SL-093","program":"sota","name":"Stórkonufell","coordinates":[-19.2769,63.7832]},{"code":"TF/SL-094","program":"sota","name":"Hattafell","coordinates":[-19.3538,63.7912]},{"code":"TF/SL-102","program":"sota","name":"Skyggnir","coordinates":[-19.486,63.8606]},{"code":"TF/SL-111","program":"sota","name":"Stjóra-Grænafjall","coordinates":[-19.3406,63.8369]},{"code":"TF/SL-128","program":"sota","name":"Mófellshnausar","coordinates":[-19.3172,63.7646]},{"code":"TF/SL-139","program":"sota","name":"Torfatindar","coordinates":[-19.2826,63.8548]},{"code":"TF/SL-174","program":"sota","name":"Illasúla","coordinates":[-19.3236,63.8295]}]}