{"lat":63.75,"lon":-22.25,"programs":["pota","sota"],"count":7,"references":[{"code":"IS-0075","program":"pota","name":"Reykjanesfólkvangur Seltún Country Park","coordinates":[-22.0521,63.8957]},{"code":"IS-0076","program":"pota","name":"Reykjanesfólkvangur Eldborg Country Park","coordinates":[-22.0878,63.9497]},{"code":"IS-0077","program":"pota","name":"Reykjanesfólkvangur Vigdísarvellir Country Park","coordinates":[-22.1294,63.8942]},{"code":"IS-0078","program":"pota","name":"Reykjanesfólkvangur Krísuvíkurbjarg Country Park","coordinates":[-22.0988,63.8361]},{"code":"TF/SV-034","program":"sota","name":"Grænadyngja","coordinates":[-22.0895,63.9378]},{"code":"TF/SV-035","program":"sota","name":"Sveifluháls","coordinates":[-22.0109,63.9312]},{"code":"TF/SV-038","program":"sota","name":"Keilir","coordinates":[-22.1725,63.9411]}]}