{"lat":64,"lon":10.25,"programs":["pota","sota"],"count":10,"references":[{"code":"NO-0078","program":"pota","name":"Austdalen Nature Reserve","coordinates":[10.2594,64.1675]},{"code":"NO-0586","program":"pota","name":"Granholvatnet Nature Reserve","coordinates":[10.3956,64.2282]},{"code":"NO-0797","program":"pota","name":"Høydalmoan Nature Reserve","coordinates":[10.4383,64.0349]},{"code":"NO-2263","program":"pota","name":"Tostenelva Nature Reserve","coordinates":[10.4613,64.1592]},{"code":"NO-3137","program":"pota","name":"Nordstifjellet Nature Reserve","coordinates":[10.3585,64.0102]},{"code":"LA/ST-189","program":"sota","name":"Kjerringheia","coordinates":[10.2916,64.0907]},{"code":"LA/ST-219","program":"sota","name":"Stortøssklumpen","coordinates":[10.306,64.1028]},{"code":"LA/ST-235","program":"sota","name":"Hanafjellet","coordinates":[10.2915,64.1366]},{"code":"LA/ST-292","program":"sota","name":"Storfjellklumpen","coordinates":[10.3994,64.0066]},{"code":"LA/ST-294","program":"sota","name":"Ramnen","coordinates":[10.2677,64.1987]}]}