{"lat":64,"lon":-22.25,"programs":["pota"],"count":6,"references":[{"code":"IS-0043","program":"pota","name":"Grótta National Nature Reserve","coordinates":[-22.0215,64.1645]},{"code":"IS-0044","program":"pota","name":"Bakkatjörn National Nature Reserve","coordinates":[-22.0217,64.1547]},{"code":"IS-0053","program":"pota","name":"Kasthúsatjörn National Nature Reserve","coordinates":[-22.0185,64.1119]},{"code":"IS-0054","program":"pota","name":"Kasthúsatjörn fjara Country Park","coordinates":[-22.0166,64.1126]},{"code":"IS-0055","program":"pota","name":"Hlíð Country Park","coordinates":[-22.0407,64.0957]},{"code":"IS-0056","program":"pota","name":"Skerjafjörður innan Garðabæjar Habitat Protection Area","coordinates":[-22.0151,64.0915]}]}