{"lat":64,"lon":13.75,"programs":["pota","sota"],"count":8,"references":[{"code":"NO-0057","program":"pota","name":"Arvasslia Nature Reserve","coordinates":[13.7762,64.0591]},{"code":"NO-1920","program":"pota","name":"Skraptjønnfloen Nature Reserve","coordinates":[13.7568,64.1595]},{"code":"NO-2056","program":"pota","name":"Storåa Nature Reserve","coordinates":[13.8556,64.2393]},{"code":"NO-2318","program":"pota","name":"Ulendeltaet Nature Reserve","coordinates":[13.8174,64.1598]},{"code":"NO-3149","program":"pota","name":"Julesstraumen Nature Reserve","coordinates":[13.8291,64.1804]},{"code":"LA/NT-092","program":"sota","name":"Arvassfjellet (Buvrietjahke)","coordinates":[13.83505,64.03848]},{"code":"LA/NT-098","program":"sota","name":"Haukpiggen (Haepkietjahke)","coordinates":[13.77259,64.07789]},{"code":"LA/NT-124","program":"sota","name":"Gunnarfjellet","coordinates":[13.97034,64.17796]}]}