{"lat":64,"lon":13,"programs":["sota"],"count":9,"references":[{"code":"LA/NT-071","program":"sota","name":"Finnhuva (Bielnie)","coordinates":[13.21213,64.23661]},{"code":"LA/NT-078","program":"sota","name":"Nordre Gjevsjøhatten (Voenjelåelkie)","coordinates":[13.19149,64.1213]},{"code":"LA/NT-089","program":"sota","name":"Nordre Gauptjønnaksla (Raavnejegaejsie)","coordinates":[13.11787,64.23543]},{"code":"LA/NT-125","program":"sota","name":"Søre Gauptjønnaksla (Åarjelgaejsie)","coordinates":[13.11057,64.20289]},{"code":"LA/NT-137","program":"sota","name":"Gaarkestjaerhvie","coordinates":[13.19966,64.17246]},{"code":"SM/JL-040","program":"sota","name":"Storknulen","coordinates":[13.0397,64.0104]},{"code":"SM/JL-170","program":"sota","name":"Sjuevlie","coordinates":[13.244884,64.06863]},{"code":"SM/JL-221","program":"sota","name":"Jävsjöhatten","coordinates":[13.213958,64.09497]},{"code":"SM/JL-238","program":"sota","name":"Grönfjället","coordinates":[13.21475,64.03403]}]}