{"lat":64,"lon":-19,"programs":["sota"],"count":8,"references":[{"code":"TF/SL-086","program":"sota","name":"Snjóalda","coordinates":[-18.8563,64.0663]},{"code":"TF/SL-100","program":"sota","name":"Snjóöldufjallgarður","coordinates":[-18.7647,64.0913]},{"code":"TF/SL-103","program":"sota","name":"Skyggnir","coordinates":[-18.9471,64.105]},{"code":"TF/SL-133","program":"sota","name":"Hnúkar","coordinates":[-18.8231,64.0122]},{"code":"TF/SL-134","program":"sota","name":"Þóristindur","coordinates":[-18.9192,64.1755]},{"code":"TF/SL-143","program":"sota","name":"Stakihnúkur","coordinates":[-18.8892,64.0066]},{"code":"TF/SL-146","program":"sota","name":"Hnaus","coordinates":[-18.9213,64.0149]},{"code":"TF/SL-155","program":"sota","name":"Skálafell Veiðivötnum","coordinates":[-18.789,64.1075]}]}