{"lat":64,"lon":13.25,"programs":["pota","sota"],"count":11,"references":[{"code":"NO-0115","program":"pota","name":"Berglimyra og Klumplifjellet Nature Reserve","coordinates":[13.4685,64.2128]},{"code":"NO-0162","program":"pota","name":"Blåfjella-Skjækerfjella National Park","coordinates":[13.2793,64.1578]},{"code":"LA/NT-005","program":"sota","name":"Midtiklumpen","coordinates":[13.3753,64.1089]},{"code":"LA/NT-006","program":"sota","name":"Blåfjellhatten","coordinates":[13.4142,64.1344]},{"code":"LA/NT-007","program":"sota","name":"Bjørkvasshatten","coordinates":[13.2994,64.1097]},{"code":"LA/NT-008","program":"sota","name":"Aallejegaejsie","coordinates":[13.3789,64.0908]},{"code":"LA/NT-010","program":"sota","name":"Blåfjellet","coordinates":[13.4547,64.1383]},{"code":"LA/NT-011","program":"sota","name":"Goegkemesspielte","coordinates":[13.4156,64.1078]},{"code":"LA/NT-054","program":"sota","name":"Plaassagaejsierøysa","coordinates":[13.45163,64.07481]},{"code":"LA/NT-096","program":"sota","name":"Lakavasshatten","coordinates":[13.31089,64.24462]},{"code":"SM/JL-041","program":"sota","name":"Stråti (Strååhte)","coordinates":[13.3859,64.0518]}]}