{"lat":64.25,"lon":11.75,"programs":["pota","sota"],"count":12,"references":[{"code":"NO-0817","program":"pota","name":"Homstad Nature Reserve","coordinates":[11.8261,64.4332]},{"code":"NO-0894","program":"pota","name":"Jamtheimen Nature Reserve","coordinates":[11.9174,64.3465]},{"code":"NO-0982","program":"pota","name":"Klårtjønnhaugen Nature Reserve","coordinates":[11.7807,64.3717]},{"code":"NO-1120","program":"pota","name":"Langdalen Nature Reserve","coordinates":[11.9844,64.4611]},{"code":"NO-1629","program":"pota","name":"Reinbjørmyra Nature Reserve","coordinates":[11.751,64.4851]},{"code":"NO-2110","program":"pota","name":"Storskogan Nature Reserve","coordinates":[11.9783,64.4902]},{"code":"LA/NT-205","program":"sota","name":"Skardaksla","coordinates":[11.94656,64.32685]},{"code":"LA/NT-224","program":"sota","name":"Spøtthatten","coordinates":[11.77275,64.27298]},{"code":"LA/NT-269","program":"sota","name":"Flisinghatten","coordinates":[11.7515,64.39165]},{"code":"LA/NT-292","program":"sota","name":"Neverfjellet","coordinates":[11.87827,64.35548]},{"code":"LA/NT-322","program":"sota","name":"Skogkjerringhaugen","coordinates":[11.76225,64.35967]},{"code":"LA/NT-360","program":"sota","name":"Merratjønnfjellet","coordinates":[11.99029,64.44021]}]}