{"lat":64.25,"lon":11.5,"programs":["pota","sota"],"count":14,"references":[{"code":"NO-0395","program":"pota","name":"Finntjønnin Nature Reserve","coordinates":[11.7131,64.3764]},{"code":"NO-2011","program":"pota","name":"Spillumsbekken Nature Reserve","coordinates":[11.6365,64.3577]},{"code":"LA/NT-233","program":"sota","name":"Finnkallen","coordinates":[11.68178,64.38192]},{"code":"LA/NT-246","program":"sota","name":"Solemshatten Ø for","coordinates":[11.71568,64.32101]},{"code":"LA/NT-257","program":"sota","name":"Løsvassklompen","coordinates":[11.60832,64.42621]},{"code":"LA/NT-286","program":"sota","name":"Skurfjellet","coordinates":[11.59236,64.30107]},{"code":"LA/NT-287","program":"sota","name":"Snautuva","coordinates":[11.53459,64.26871]},{"code":"LA/NT-315","program":"sota","name":"Åltjønnaksla","coordinates":[11.50418,64.28084]},{"code":"LA/NT-319","program":"sota","name":"Salfjellet","coordinates":[11.58086,64.38501]},{"code":"LA/NT-329","program":"sota","name":"Bølvassfjellet","coordinates":[11.58602,64.32676]},{"code":"LA/NT-330","program":"sota","name":"Andsjøfuglåsen","coordinates":[11.57739,64.36829]},{"code":"LA/NT-353","program":"sota","name":"Klubben","coordinates":[11.5905,64.34438]},{"code":"LA/NT-376","program":"sota","name":"Engasfjellet SØ for","coordinates":[11.59603,64.49207]},{"code":"LA/NT-402","program":"sota","name":"Kvatningfjellet","coordinates":[11.67551,64.47441]}]}