{"lat":64.5,"lon":-14.75,"programs":["sota"],"count":5,"references":[{"code":"TF/AL-037","program":"sota","name":"Hrossatindur","coordinates":[-14.5407,64.7175]},{"code":"TF/AL-044","program":"sota","name":"Jökulhæð","coordinates":[-14.6169,64.732]},{"code":"TF/AL-060","program":"sota","name":"Hlíðarfjall","coordinates":[-14.6632,64.6321]},{"code":"TF/AL-094","program":"sota","name":"Einidalstindur","coordinates":[-14.575,64.6164]},{"code":"TF/AL-135","program":"sota","name":"Mýrarfell Austur","coordinates":[-14.7177,64.58]}]}