{"lat":64.5,"lon":13.5,"programs":["pota","sota"],"count":7,"references":[{"code":"NO-1302","program":"pota","name":"Mariafjellet - Skardbekken / Tjaetsiegaske Nature Reserve","coordinates":[13.6343,64.726]},{"code":"LA/NT-130","program":"sota","name":"Lifjellet","coordinates":[13.63138,64.56884]},{"code":"LA/NT-134","program":"sota","name":"Leirbakkfjellet","coordinates":[13.57771,64.53583]},{"code":"LA/NT-145","program":"sota","name":"Storklompen (Jillie Saalveje)","coordinates":[13.63942,64.71883]},{"code":"LA/NT-147","program":"sota","name":"Karifjellet (Luvlie Saalveje)","coordinates":[13.68809,64.69099]},{"code":"LA/NT-157","program":"sota","name":"Auster-Steinfjellet","coordinates":[13.56385,64.66037]},{"code":"LA/NT-170","program":"sota","name":"Kveliklumpen","coordinates":[13.74193,64.54686]}]}