{"lat":64.5,"lon":21,"programs":["pota"],"count":5,"references":[{"code":"SE-0209","program":"pota","name":"Innerviksfjärdarna Natura 2000","coordinates":[21.113,64.687]},{"code":"SE-1485","program":"pota","name":"Kalkstenstjärn Nature Reserve","coordinates":[21.167,64.731]},{"code":"SE-1486","program":"pota","name":"Kalkstenstjärn Natura 2000","coordinates":[21.1694,64.7306]},{"code":"SE-1493","program":"pota","name":"Hedkammen Nature Reserve","coordinates":[21.1651,64.6051]},{"code":"SE-1521","program":"pota","name":"Daglösten Natura 2000","coordinates":[21.1953,64.5026]}]}