{"lat":64.5,"lon":12.25,"programs":["pota","sota"],"count":14,"references":[{"code":"NO-0402","program":"pota","name":"Fiskumfoss Nature Reserve","coordinates":[12.4623,64.5385]},{"code":"NO-0430","program":"pota","name":"Flakkan Nature Reserve","coordinates":[12.3302,64.687]},{"code":"NO-0527","program":"pota","name":"Gartlandselva Nature Reserve","coordinates":[12.3852,64.5419]},{"code":"NO-0699","program":"pota","name":"Hattmoenget Nature Reserve","coordinates":[12.2768,64.7025]},{"code":"NO-1578","program":"pota","name":"Råbesdalen Nature Reserve","coordinates":[12.4622,64.6605]},{"code":"NO-1789","program":"pota","name":"Sandtjønnhaugen Nature Reserve","coordinates":[12.3267,64.5866]},{"code":"NO-3183","program":"pota","name":"Aurstadklumpen Nature Reserve","coordinates":[12.3787,64.5768]},{"code":"LA/NT-154","program":"sota","name":"Skarlandsfjellet","coordinates":[12.44487,64.63899]},{"code":"LA/NT-171","program":"sota","name":"Råfjellet","coordinates":[12.47143,64.67653]},{"code":"LA/NT-226","program":"sota","name":"Elstadfjellet","coordinates":[12.4898,64.51864]},{"code":"LA/NT-280","program":"sota","name":"Rosåsen","coordinates":[12.29043,64.69912]},{"code":"LA/NT-283","program":"sota","name":"Hjartåsen","coordinates":[12.3211,64.55705]},{"code":"LA/NT-301","program":"sota","name":"Vattatuva","coordinates":[12.42856,64.54506]},{"code":"LA/NT-331","program":"sota","name":"Storåsen","coordinates":[12.3441,64.59994]}]}