{"lat":64.75,"lon":14.75,"programs":["sota"],"count":7,"references":[{"code":"SM/VB-007","program":"sota","name":"Kruanahke (Gruoneke)","coordinates":[14.9561,64.9361]},{"code":"SM/VB-090","program":"sota","name":"Autjoklimpen (Avtseje)","coordinates":[14.80898,64.99963]},{"code":"SM/JL-026","program":"sota","name":"Buarkantjahke","coordinates":[14.9655,64.797]},{"code":"SM/JL-032","program":"sota","name":"Bliereketjakke (Guoengere)","coordinates":[14.8961,64.8039]},{"code":"SM/JL-043","program":"sota","name":"Orrnäsfjället (Lievkiesoja)","coordinates":[14.7637,64.8325]},{"code":"SM/JL-167","program":"sota","name":"Borgahällan","coordinates":[14.999235,64.80481]},{"code":"SM/JL-183","program":"sota","name":"Åerjelevaellie","coordinates":[14.765636,64.79007]}]}