{"lat":64.75,"lon":12.5,"programs":["pota","sota"],"count":6,"references":[{"code":"NO-0072","program":"pota","name":"Aundalen Nature Reserve","coordinates":[12.619,64.9047]},{"code":"LA/HE-278","program":"sota","name":"Fuglstadfjellet (Kjerringtjahke)","coordinates":[12.5809,64.987]},{"code":"LA/NT-099","program":"sota","name":"Nonsfjellet SV for","coordinates":[12.65478,64.9461]},{"code":"LA/NT-129","program":"sota","name":"Kjølstadfjellet (Råantjatjahke)","coordinates":[12.53049,64.77831]},{"code":"LA/NT-142","program":"sota","name":"Håajjentjahke","coordinates":[12.58558,64.82585]},{"code":"LA/NT-174","program":"sota","name":"Snøådalsfjellet (Jorpetjahke)","coordinates":[12.57078,64.77902]}]}