{"lat":64.75,"lon":13.25,"programs":["sota"],"count":5,"references":[{"code":"LA/NT-069","program":"sota","name":"Stöörje","coordinates":[13.35231,64.92627]},{"code":"LA/NT-080","program":"sota","name":"Løysmundsklumpen","coordinates":[13.32104,64.77999]},{"code":"LA/NT-094","program":"sota","name":"Bjørkvassklumpen (Lievkiesåajja)","coordinates":[13.2818,64.82309]},{"code":"LA/NT-112","program":"sota","name":"Gyjhtele","coordinates":[13.36128,64.96565]},{"code":"LA/NT-164","program":"sota","name":"Litlfjellet (Såålevuernie)","coordinates":[13.44815,64.8727]}]}