{"lat":65,"lon":12.75,"programs":["pota","sota"],"count":6,"references":[{"code":"NO-3061","program":"pota","name":"Åbjørdalen/Diedtjienvuemien Nature Reserve","coordinates":[12.79,65.0355]},{"code":"LA/HE-169","program":"sota","name":"Granbostadtinden","coordinates":[12.7513,65.0837]},{"code":"LA/HE-197","program":"sota","name":"Kalklavtinden","coordinates":[12.9321,65.2065]},{"code":"LA/HE-201","program":"sota","name":"Oksen","coordinates":[12.8422,65.1441]},{"code":"LA/HE-202","program":"sota","name":"Kvitdalstinden","coordinates":[12.8958,65.2361]},{"code":"LA/HE-243","program":"sota","name":"Jarpetjanke","coordinates":[12.9085,65.1501]}]}