{"lat":65,"lon":11.75,"programs":["pota","sota"],"count":11,"references":[{"code":"NO-1828","program":"pota","name":"Simle Nature Reserve","coordinates":[11.9736,65.0094]},{"code":"NO-2153","program":"pota","name":"Sunndalslia Nature Reserve","coordinates":[11.9237,65.1129]},{"code":"NO-3172","program":"pota","name":"Skeisneset National Wildlife Area","coordinates":[11.7605,65.1165]},{"code":"LA/HE-400","program":"sota","name":"Romsskåla","coordinates":[11.936,65.1266]},{"code":"LA/HE-471","program":"sota","name":"Kvaløyfjellet","coordinates":[11.9927,65.22]},{"code":"LA/HE-478","program":"sota","name":"Fuglen","coordinates":[11.9722,65.0942]},{"code":"LA/NT-230","program":"sota","name":"Tyskenghatten","coordinates":[11.87995,65.06865]},{"code":"LA/NT-239","program":"sota","name":"Blåfjellet","coordinates":[11.92693,65.0269]},{"code":"LA/NT-253","program":"sota","name":"Blåfjelltuva","coordinates":[11.84344,65.00069]},{"code":"LA/NT-264","program":"sota","name":"Kårfjellet","coordinates":[11.98355,65.02103]},{"code":"LA/NT-370","program":"sota","name":"Hornfjellet","coordinates":[11.87815,65.10638]}]}