{"lat":65,"lon":-14.5,"programs":["sota"],"count":9,"references":[{"code":"TF/AL-025","program":"sota","name":"Stafur","coordinates":[-14.4284,65.0858]},{"code":"TF/AL-027","program":"sota","name":"Kistufell","coordinates":[-14.416,65.0612]},{"code":"TF/AL-028","program":"sota","name":"Skúmhöttur","coordinates":[-14.4815,65.0423]},{"code":"TF/AL-036","program":"sota","name":"Sandfell","coordinates":[-14.4978,65.0736]},{"code":"TF/AL-040","program":"sota","name":"Botnatindur","coordinates":[-14.4437,65.0456]},{"code":"TF/AL-061","program":"sota","name":"Höttur","coordinates":[-14.4461,65.1241]},{"code":"TF/AL-100","program":"sota","name":"Skagafell","coordinates":[-14.2723,65.1017]},{"code":"TF/AL-146","program":"sota","name":"Búðardalsfjall","coordinates":[-14.479,65.0081]},{"code":"TF/AL-255","program":"sota","name":"Suðurfell","coordinates":[-14.331,65.041]}]}