{"lat":65,"lon":-16.25,"programs":["pota","sota"],"count":5,"references":[{"code":"IS-0001","program":"pota","name":"Herðubreiðalindir - Vatnajökulsþjóðgarður National Park","coordinates":[-16.2218,65.1927]},{"code":"TF/AL-165","program":"sota","name":"Lónshnúkur","coordinates":[-16.1684,65.0057]},{"code":"TF/AL-170","program":"sota","name":"Álftadalsdyngja","coordinates":[-16.1216,65.0477]},{"code":"TF/AL-234","program":"sota","name":"Arnardalsalda","coordinates":[-16.0908,65.1852]},{"code":"TF/NL-065","program":"sota","name":"Upptyppingar","coordinates":[-16.2485,65.0431]}]}