{"lat":65,"lon":-14,"programs":["sota"],"count":10,"references":[{"code":"TF/AL-038","program":"sota","name":"Söðull","coordinates":[-13.9847,65.1628]},{"code":"TF/AL-049","program":"sota","name":"Hádegistindur","coordinates":[-13.9678,65.2259]},{"code":"TF/AL-075","program":"sota","name":"Svartafjall","coordinates":[-13.9118,65.0777]},{"code":"TF/AL-089","program":"sota","name":"Snjófjall","coordinates":[-13.8212,65.1477]},{"code":"TF/AL-095","program":"sota","name":"Snjófjöll","coordinates":[-13.835,65.246]},{"code":"TF/AL-101","program":"sota","name":"Teitatindur","coordinates":[-13.7682,65.2283]},{"code":"TF/AL-102","program":"sota","name":"Miðfell","coordinates":[-13.8398,65.2325]},{"code":"TF/AL-140","program":"sota","name":"Magnúsartindur","coordinates":[-13.8723,65.0638]},{"code":"TF/AL-150","program":"sota","name":"Reykjasúla","coordinates":[-13.8507,65.1716]},{"code":"TF/AL-164","program":"sota","name":"Miðflóafjall","coordinates":[-13.7699,65.0515]}]}