{"lat":65,"lon":-16,"programs":["sota"],"count":5,"references":[{"code":"TF/AL-141","program":"sota","name":"Álftadalsfjall","coordinates":[-15.9303,65.033]},{"code":"TF/AL-142","program":"sota","name":"Þríhyringsfjallgarður","coordinates":[-15.7843,65.0972]},{"code":"TF/AL-159","program":"sota","name":"Brattifjallgarður","coordinates":[-15.7676,65.2465]},{"code":"TF/AL-171","program":"sota","name":"Mynnisfjallgarður","coordinates":[-15.8352,65.2075]},{"code":"TF/AL-221","program":"sota","name":"Öskjufjallgarður","coordinates":[-15.9032,65.1429]}]}