{"lat":65,"lon":14,"programs":["sota"],"count":9,"references":[{"code":"LA/HE-043","program":"sota","name":"Flåfjellet","coordinates":[14.0897,65.1618]},{"code":"LA/NT-001","program":"sota","name":"Jetnamsklumpen","coordinates":[14.1911,65.1314]},{"code":"LA/NT-002","program":"sota","name":"Sipmekentinden","coordinates":[14.2439,65.065]},{"code":"LA/NT-004","program":"sota","name":"Vuepertjahke","coordinates":[14.1836,65.0942]},{"code":"LA/NT-013","program":"sota","name":"Nobrinfjellet","coordinates":[14.0286,65.0816]},{"code":"LA/NT-034","program":"sota","name":"Store Børgefjellet","coordinates":[14.10957,65.12895]},{"code":"LA/NT-035","program":"sota","name":"Store Børgefjellet Sørtoppen","coordinates":[14.08721,65.10638]},{"code":"LA/NT-036","program":"sota","name":"Skaanjehtahke","coordinates":[14.11262,65.05147]},{"code":"LA/NT-059","program":"sota","name":"Gaske-Seavrije","coordinates":[14.07745,65.00661]}]}