{"lat":65,"lon":13.5,"programs":["sota"],"count":9,"references":[{"code":"LA/HE-035","program":"sota","name":"Rørskardtinden","coordinates":[13.6793,65.234]},{"code":"LA/HE-060","program":"sota","name":"Biseggen","coordinates":[13.7183,65.2393]},{"code":"LA/HE-061","program":"sota","name":"Seterfjellet","coordinates":[13.5271,65.2287]},{"code":"LA/HE-067","program":"sota","name":"Sklettfjellet","coordinates":[13.5888,65.1596]},{"code":"LA/HE-080","program":"sota","name":"Kråhtjoehtjahke","coordinates":[13.6926,65.205]},{"code":"LA/HE-085","program":"sota","name":"Gaksfjellet N toppen","coordinates":[13.6785,65.1865]},{"code":"LA/HE-096","program":"sota","name":"Rørskardaksla","coordinates":[13.625,65.2066]},{"code":"LA/NT-046","program":"sota","name":"Bleikarfjellet (Tjoelmentjahke)","coordinates":[13.52999,65.11668]},{"code":"LA/NT-057","program":"sota","name":"Jengelfjellet (Raejsie)","coordinates":[13.61166,65.09007]}]}