{"lat":65,"lon":13,"programs":["pota","sota"],"count":6,"references":[{"code":"NO-1317","program":"pota","name":"Mellingsdalen Nature Reserve","coordinates":[13.2105,65.1251]},{"code":"LA/HE-185","program":"sota","name":"Majaklumpen","coordinates":[13.1576,65.1484]},{"code":"LA/HE-255","program":"sota","name":"Sloeptje (Kløftfjellet)","coordinates":[13.0881,65.1124]},{"code":"LA/HE-260","program":"sota","name":"Øvrevassnuten SØ for","coordinates":[13.0994,65.2063]},{"code":"LA/NT-047","program":"sota","name":"Båtfjellet","coordinates":[13.05595,65.02454]},{"code":"LA/NT-107","program":"sota","name":"Gåaltoengaejsie","coordinates":[13.07689,65.05392]}]}