{"lat":65.25,"lon":12.25,"programs":["pota","sota"],"count":11,"references":[{"code":"NO-2214","program":"pota","name":"Teisdalen Nature Reserve","coordinates":[12.3898,65.3614]},{"code":"LA/HE-378","program":"sota","name":"Lysingen","coordinates":[12.3231,65.3422]},{"code":"LA/HE-387","program":"sota","name":"Grøndalsfjellet","coordinates":[12.3904,65.389]},{"code":"LA/HE-395","program":"sota","name":"Sæterfjellet","coordinates":[12.3714,65.429]},{"code":"LA/HE-401","program":"sota","name":"Grønlihalsen","coordinates":[12.292,65.4247]},{"code":"LA/HE-416","program":"sota","name":"Olderbakkfjellet","coordinates":[12.3762,65.2907]},{"code":"LA/HE-444","program":"sota","name":"Gravtinden","coordinates":[12.4785,65.3276]},{"code":"LA/HE-448","program":"sota","name":"Krumfjellet","coordinates":[12.4715,65.3571]},{"code":"LA/HE-453","program":"sota","name":"Seljemarkfjellet","coordinates":[12.4416,65.3338]},{"code":"LA/HE-457","program":"sota","name":"Kjølsfjellet","coordinates":[12.3916,65.4863]},{"code":"LA/HE-490","program":"sota","name":"Brekkfjellet","coordinates":[12.2638,65.3284]}]}