{"lat":65.25,"lon":13,"programs":["sota"],"count":12,"references":[{"code":"LA/HE-086","program":"sota","name":"Kvitfjellet","coordinates":[13.176,65.4868]},{"code":"LA/HE-087","program":"sota","name":"Langskardnasen","coordinates":[13.1623,65.4427]},{"code":"LA/HE-146","program":"sota","name":"Kvennlitinden","coordinates":[13.0824,65.252]},{"code":"LA/HE-154","program":"sota","name":"Grunnvasstinden","coordinates":[13.0388,65.3997]},{"code":"LA/HE-158","program":"sota","name":"Måsskardtinden","coordinates":[13.0659,65.4656]},{"code":"LA/HE-166","program":"sota","name":"Jordbrufjellet","coordinates":[13.1148,65.3808]},{"code":"LA/HE-170","program":"sota","name":"Tverrfjellet NV for","coordinates":[13.0287,65.3754]},{"code":"LA/HE-176","program":"sota","name":"Måsvasstinden","coordinates":[13.1568,65.2839]},{"code":"LA/HE-178","program":"sota","name":"Rismålstinden","coordinates":[13.0515,65.3421]},{"code":"LA/HE-196","program":"sota","name":"Måsskardfjellet V for","coordinates":[13.0356,65.4853]},{"code":"LA/HE-209","program":"sota","name":"Måsskardtinden V for","coordinates":[13.0218,65.4641]},{"code":"LA/HE-217","program":"sota","name":"Durmålstinden","coordinates":[13.089,65.3049]}]}