{"lat":65.25,"lon":12,"programs":["pota","sota"],"count":10,"references":[{"code":"NO-0048","program":"pota","name":"Amundsgjerdlia Nature Reserve","coordinates":[12.2103,65.3071]},{"code":"NO-0182","program":"pota","name":"Bøpøla Nature Reserve","coordinates":[12.2219,65.3484]},{"code":"NO-0553","program":"pota","name":"Gjerdevatnet Nature Reserve","coordinates":[12.2158,65.3032]},{"code":"LA/HE-408","program":"sota","name":"Trælneshatten","coordinates":[12.2099,65.3973]},{"code":"LA/HE-426","program":"sota","name":"Kjørsvikfjellet (Olsvikfjellet)","coordinates":[12.218,65.2766]},{"code":"LA/HE-440","program":"sota","name":"Mardalsfjellet","coordinates":[12.1611,65.3419]},{"code":"LA/HE-469","program":"sota","name":"Malmsfjellet","coordinates":[12.2108,65.3175]},{"code":"LA/HE-470","program":"sota","name":"Sømnesfjellet","coordinates":[12.1588,65.3504]},{"code":"LA/HE-486","program":"sota","name":"Torghatten","coordinates":[12.091,65.3983]},{"code":"LA/HE-504","program":"sota","name":"Skålvikfjellet","coordinates":[12.109,65.3118]}]}