{"lat":65.5,"lon":-23.5,"programs":["pota","sota"],"count":6,"references":[{"code":"IS-0022","program":"pota","name":"Surtarbrandsgil Natural Monument","coordinates":[-23.2665,65.526]},{"code":"TF/VF-027","program":"sota","name":"Breiðafell","coordinates":[-23.2915,65.6155]},{"code":"TF/VF-035","program":"sota","name":"Ármannsfell Barðaströnd","coordinates":[-23.3255,65.5951]},{"code":"TF/VF-037","program":"sota","name":"Isufell","coordinates":[-23.2594,65.6265]},{"code":"TF/VF-039","program":"sota","name":"Hádegisfjall","coordinates":[-23.4402,65.5876]},{"code":"TF/VF-054","program":"sota","name":"Kikafell","coordinates":[-23.2892,65.522]}]}