{"lat":65.5,"lon":-19.75,"programs":["pota","sota"],"count":12,"references":[{"code":"IS-0107","program":"pota","name":"Miklavatn National Nature Reserve","coordinates":[-19.593,65.7218]},{"code":"TF/NL-091","program":"sota","name":"Kaldbakur Skagafirði","coordinates":[-19.6491,65.5814]},{"code":"TF/NL-140","program":"sota","name":"Gilsbunga","coordinates":[-19.6717,65.6809]},{"code":"TF/NL-147","program":"sota","name":"Staðaröxl","coordinates":[-19.6477,65.6697]},{"code":"TF/NL-150","program":"sota","name":"Sauðahnjúkur 810","coordinates":[-19.7466,65.6127]},{"code":"TF/NL-151","program":"sota","name":"Sandfell Skagafirði","coordinates":[-19.6997,65.6903]},{"code":"TF/NL-153","program":"sota","name":"Sauðafell","coordinates":[-19.6907,65.6295]},{"code":"TF/NL-156","program":"sota","name":"Grísafell","coordinates":[-19.5811,65.5447]},{"code":"TF/NL-177","program":"sota","name":"Vatnshlíðarhnjúkur","coordinates":[-19.628,65.5338]},{"code":"TF/NL-178","program":"sota","name":"Molduxi","coordinates":[-19.7175,65.7161]},{"code":"TF/NL-184","program":"sota","name":"Þverfell Skagafirði","coordinates":[-19.6917,65.5542]},{"code":"TF/NL-190","program":"sota","name":"Kálfárfell","coordinates":[-19.7163,65.5399]}]}