{"lat":65.5,"lon":12.75,"programs":["pota","sota"],"count":11,"references":[{"code":"NO-1239","program":"pota","name":"Lomsdal-Visten National Park","coordinates":[12.8471,65.5509]},{"code":"NO-2942","program":"pota","name":"Strauman Landscape Reserve","coordinates":[12.8246,65.6032]},{"code":"LA/HE-228","program":"sota","name":"Austerdalsfjellet","coordinates":[12.8599,65.5222]},{"code":"LA/HE-249","program":"sota","name":"Storvassfjellet","coordinates":[12.9959,65.6035]},{"code":"LA/HE-250","program":"sota","name":"Vistfjellet","coordinates":[12.9938,65.6764]},{"code":"LA/HE-267","program":"sota","name":"Austerdalsvatnet NØ for","coordinates":[12.9164,65.5569]},{"code":"LA/HE-285","program":"sota","name":"Tverlandsfjellet","coordinates":[12.7521,65.6915]},{"code":"LA/HE-331","program":"sota","name":"Burrienvaerie","coordinates":[12.9149,65.7094]},{"code":"LA/HE-392","program":"sota","name":"Finnknevatnet Ø for","coordinates":[12.908,65.7427]},{"code":"LA/HE-397","program":"sota","name":"Krongelvassfjellet","coordinates":[12.8107,65.6584]},{"code":"LA/HE-462","program":"sota","name":"Remfjellet","coordinates":[12.8177,65.6139]}]}