{"lat":65.5,"lon":-19,"programs":["sota"],"count":7,"references":[{"code":"TF/NL-010","program":"sota","name":"Péturshnjúkur","coordinates":[-18.8287,65.6782]},{"code":"TF/NL-012","program":"sota","name":"Jökulfjall","coordinates":[-18.8329,65.6389]},{"code":"TF/NL-017","program":"sota","name":"Staðargangnafjall","coordinates":[-18.8038,65.7255]},{"code":"TF/NL-021","program":"sota","name":"T1311","coordinates":[-18.7606,65.6002]},{"code":"TF/NL-026","program":"sota","name":"Prestsfjall","coordinates":[-18.8866,65.5999]},{"code":"TF/NL-028","program":"sota","name":"Illviðrishnjúkur","coordinates":[-18.8942,65.5886]},{"code":"TF/NL-030","program":"sota","name":"Hagafjall","coordinates":[-18.9489,65.6674]}]}