{"lat":65.5,"lon":15.25,"programs":["sota"],"count":5,"references":[{"code":"SM/VB-050","program":"sota","name":"Laxfjället","coordinates":[15.276,65.7284]},{"code":"SM/VB-127","program":"sota","name":"Praahkoe","coordinates":[15.455146,65.603455]},{"code":"SM/VB-154","program":"sota","name":"Luvlie Jalkedsvaartoe","coordinates":[15.345733,65.613884]},{"code":"SM/VB-158","program":"sota","name":"Geavhtavaartoe","coordinates":[15.415557,65.72327]},{"code":"SM/VB-210","program":"sota","name":"Rönnbäcknäset (Dahksnjuana)","coordinates":[15.396185,65.51159]}]}