{"lat":65.5,"lon":25.25,"programs":["pota"],"count":6,"references":[{"code":"FI-0117","program":"pota","name":"Ison Saarisuon-Hoikkasuon-Musta-aavan soidensuojelualue Protected Area","coordinates":[25.3077,65.6927]},{"code":"FI-1586","program":"pota","name":"Iso-Saarisuo - Hoikkasuo - Musta-aapa Natura 2000","coordinates":[25.3396,65.6878]},{"code":"FI-1589","program":"pota","name":"Veittiaavan soidensuojelualue Protected Area","coordinates":[25.3911,65.744]},{"code":"FI-1592","program":"pota","name":"Rimpijärvi - Uusijärvi Natura 2000","coordinates":[25.4893,65.7189]},{"code":"FI-1587","program":"pota","name":"Tuuliaavan-Ison Heposuon soidensuojelualue Protected Area","coordinates":[25.3878,65.557]},{"code":"FI-1588","program":"pota","name":"Tuuliaapa - Iso Heposuo Natura 2000","coordinates":[25.4445,65.602]}]}