{"lat":65.75,"lon":13,"programs":["pota","sota"],"count":10,"references":[{"code":"NO-0296","program":"pota","name":"Drevjaleira Nature Reserve","coordinates":[13.1266,65.9405]},{"code":"NO-0366","program":"pota","name":"Etterseterbekken Nature Reserve","coordinates":[13.1754,65.8104]},{"code":"LA/HE-304","program":"sota","name":"Stortuva","coordinates":[13.1574,65.8323]},{"code":"LA/HE-309","program":"sota","name":"Elvdalsfjellet","coordinates":[13.0444,65.8041]},{"code":"LA/HE-335","program":"sota","name":"Heifjellet","coordinates":[13.0139,65.8616]},{"code":"LA/HE-424","program":"sota","name":"Eriklihatten","coordinates":[13.1407,65.8043]},{"code":"LA/HE-439","program":"sota","name":"Storveten","coordinates":[13.1773,65.9318]},{"code":"LA/HE-458","program":"sota","name":"Skalandsåsen","coordinates":[13.2182,65.9054]},{"code":"LA/HE-463","program":"sota","name":"Dolstadåsen","coordinates":[13.2271,65.8476]},{"code":"LA/HE-481","program":"sota","name":"Skavlihaugan","coordinates":[13.1767,65.8869]}]}