{"lat":65.75,"lon":14,"programs":["sota"],"count":9,"references":[{"code":"LA/HE-004","program":"sota","name":"Tvillingtindan","coordinates":[14.2465,65.9876]},{"code":"LA/HE-006","program":"sota","name":"Vesttinden","coordinates":[14.2158,65.98]},{"code":"LA/HE-019","program":"sota","name":"Oksjelltuva","coordinates":[14.1136,65.9739]},{"code":"LA/HE-020","program":"sota","name":"Litlokstinden","coordinates":[14.1755,65.9341]},{"code":"LA/HE-022","program":"sota","name":"Sørtuva","coordinates":[14.1244,65.9491]},{"code":"LA/HE-076","program":"sota","name":"Tverrfjellet","coordinates":[14.2234,65.9457]},{"code":"LA/HE-091","program":"sota","name":"Oksfjellvatnet NE for","coordinates":[14.1912,65.9543]},{"code":"LA/HE-130","program":"sota","name":"Kongsflåget","coordinates":[14.0814,65.911]},{"code":"LA/HE-173","program":"sota","name":"Jørntinden","coordinates":[14.0631,65.8658]}]}