{"lat":65.75,"lon":12.75,"programs":["sota"],"count":9,"references":[{"code":"LA/HE-117","program":"sota","name":"Finnkneet","coordinates":[12.8012,65.7576]},{"code":"LA/HE-159","program":"sota","name":"Litlfinnkneet","coordinates":[12.8531,65.7529]},{"code":"LA/HE-325","program":"sota","name":"Seterdalsfjellet","coordinates":[12.9876,65.8333]},{"code":"LA/HE-338","program":"sota","name":"Valtinden","coordinates":[12.8542,65.8866]},{"code":"LA/HE-339","program":"sota","name":"Blåfjellet","coordinates":[12.8034,65.8561]},{"code":"LA/HE-353","program":"sota","name":"Stortuva","coordinates":[12.8337,65.8408]},{"code":"LA/HE-391","program":"sota","name":"Grønlifjellet","coordinates":[12.9589,65.7509]},{"code":"LA/HE-405","program":"sota","name":"Kovfjellet","coordinates":[12.8087,65.9214]},{"code":"LA/HE-436","program":"sota","name":"Ørfjellet","coordinates":[12.9063,65.9354]}]}