{"lat":65.75,"lon":13.5,"programs":["pota","sota"],"count":13,"references":[{"code":"NO-0757","program":"pota","name":"Herringbotn Nature Reserve","coordinates":[13.5287,65.8107]},{"code":"LA/HE-031","program":"sota","name":"Brurskanken","coordinates":[13.6471,65.786]},{"code":"LA/HE-047","program":"sota","name":"Lukttinden","coordinates":[13.5444,65.9903]},{"code":"LA/HE-049","program":"sota","name":"Dårtindan","coordinates":[13.5538,65.9632]},{"code":"LA/HE-137","program":"sota","name":"Tverrfjellet","coordinates":[13.5868,65.9426]},{"code":"LA/HE-163","program":"sota","name":"Stigfjellet","coordinates":[13.5536,65.8922]},{"code":"LA/HE-225","program":"sota","name":"Brekkfjellet","coordinates":[13.5705,65.9135]},{"code":"LA/HE-227","program":"sota","name":"Rundtinden","coordinates":[13.6663,65.966]},{"code":"LA/HE-248","program":"sota","name":"Klubbtinden","coordinates":[13.5854,65.7678]},{"code":"LA/HE-252","program":"sota","name":"Rismålsfjellet","coordinates":[13.6401,65.8318]},{"code":"LA/HE-257","program":"sota","name":"Almdalsfjellet","coordinates":[13.6707,65.8782]},{"code":"LA/HE-276","program":"sota","name":"Hjartfjellet","coordinates":[13.533,65.7857]},{"code":"LA/HE-342","program":"sota","name":"Tørresfjellet","coordinates":[13.5629,65.8292]}]}