{"lat":66,"lon":13.25,"programs":["sota"],"count":9,"references":[{"code":"LA/HE-203","program":"sota","name":"Hallvardtinden SV for","coordinates":[13.3338,66.1113]},{"code":"LA/HE-323","program":"sota","name":"Stafjellet","coordinates":[13.2543,66.1306]},{"code":"LA/HE-327","program":"sota","name":"Middagsfjellet","coordinates":[13.344,66.1535]},{"code":"LA/HE-333","program":"sota","name":"Kveldstuva","coordinates":[13.401,66.0271]},{"code":"LA/HE-355","program":"sota","name":"Hatten","coordinates":[13.48,66.0085]},{"code":"LA/HE-366","program":"sota","name":"Vassdalsfjellet","coordinates":[13.3171,66.1666]},{"code":"LA/HE-376","program":"sota","name":"Neppelen","coordinates":[13.2834,66.2043]},{"code":"LA/HE-398","program":"sota","name":"Hestnesfjellet","coordinates":[13.4896,66.2196]},{"code":"LA/HE-421","program":"sota","name":"Heiehaugen","coordinates":[13.4876,66.0488]}]}