{"lat":66.25,"lon":13.75,"programs":["pota","sota"],"count":11,"references":[{"code":"NO-0041","program":"pota","name":"Alterhaug Nature Reserve","coordinates":[13.9997,66.3167]},{"code":"NO-0401","program":"pota","name":"Fisktjønna Nature Reserve","coordinates":[13.8835,66.4876]},{"code":"NO-1226","program":"pota","name":"Løftlia Nature Reserve","coordinates":[13.814,66.3081]},{"code":"NO-2925","program":"pota","name":"Glomådeltaet Landscape Reserve","coordinates":[13.9313,66.4211]},{"code":"LA/HE-106","program":"sota","name":"Snøtuva","coordinates":[13.7828,66.3689]},{"code":"LA/HE-149","program":"sota","name":"Rundtuva","coordinates":[13.7574,66.4007]},{"code":"LA/HE-152","program":"sota","name":"Burfjellet S toppen","coordinates":[13.9541,66.478]},{"code":"LA/HE-183","program":"sota","name":"Femfjellet","coordinates":[13.8679,66.366]},{"code":"LA/HE-236","program":"sota","name":"Storvasstinden","coordinates":[13.8187,66.4992]},{"code":"LA/HE-377","program":"sota","name":"Steinmurfjellet","coordinates":[13.8748,66.3035]},{"code":"LA/HE-472","program":"sota","name":"Risen","coordinates":[13.7868,66.2807]}]}