{"lat":66.5,"lon":15,"programs":["sota"],"count":8,"references":[{"code":"LA/HE-026","program":"sota","name":"Bolna","coordinates":[15.1693,66.5907]},{"code":"LA/HE-041","program":"sota","name":"Fetterbakk","coordinates":[15.1589,66.6424]},{"code":"LA/HE-070","program":"sota","name":"Ruovddevárre","coordinates":[15.1501,66.7079]},{"code":"LA/HE-103","program":"sota","name":"Raudfjellet","coordinates":[15.0881,66.5397]},{"code":"LA/HE-112","program":"sota","name":"Saratuva","coordinates":[15.0807,66.513]},{"code":"LA/SA-019","program":"sota","name":"Bajep Niesskemtjåhkkå","coordinates":[15.2234,66.673]},{"code":"LA/SA-022","program":"sota","name":"Lønstinden","coordinates":[15.2245,66.7302]},{"code":"LA/SA-026","program":"sota","name":"Bolna Ø toppen","coordinates":[15.2134,66.5861]}]}