{"lat":66.5,"lon":13.75,"programs":["sota"],"count":7,"references":[{"code":"LA/HE-010","program":"sota","name":"Snøtinden","coordinates":[13.9485,66.6301]},{"code":"LA/HE-017","program":"sota","name":"Steintinden","coordinates":[13.7588,66.5715]},{"code":"LA/HE-029","program":"sota","name":"Helgelandsbukken","coordinates":[13.8185,66.7051]},{"code":"LA/HE-075","program":"sota","name":"Trettten-null-to-høgda","coordinates":[13.9868,66.7156]},{"code":"LA/HE-111","program":"sota","name":"Blåtinden","coordinates":[13.9204,66.5793]},{"code":"LA/HE-239","program":"sota","name":"Glomdalstinden","coordinates":[13.9273,66.539]},{"code":"LA/HE-299","program":"sota","name":"Bjørnskartind","coordinates":[13.8675,66.7444]}]}