{"lat":66.75,"lon":14.5,"programs":["pota","sota"],"count":13,"references":[{"code":"NO-0400","program":"pota","name":"Fiskosura Nature Reserve","coordinates":[14.7167,66.8928]},{"code":"NO-2355","program":"pota","name":"Váhcanjohka Nature Reserve","coordinates":[14.62,66.8687]},{"code":"LA/SA-017","program":"sota","name":"Stormyrtinden","coordinates":[14.5225,66.7786]},{"code":"LA/SA-031","program":"sota","name":"Høgtinden","coordinates":[14.5284,66.9811]},{"code":"LA/SA-036","program":"sota","name":"Sunnit N of Hengfjellet","coordinates":[14.6801,66.7571]},{"code":"LA/SA-038","program":"sota","name":"Gråtåtinden","coordinates":[14.585,66.9177]},{"code":"LA/SA-039","program":"sota","name":"Muoidetinden","coordinates":[14.6635,66.7824]},{"code":"LA/SA-043","program":"sota","name":"Simletinden (Vátjamtjåhkkå)","coordinates":[14.5008,66.8497]},{"code":"LA/SA-044","program":"sota","name":"Fjøsdalstindan","coordinates":[14.514,66.9568]},{"code":"LA/SA-048","program":"sota","name":"Gåvdestinden","coordinates":[14.5454,66.9046]},{"code":"LA/SA-050","program":"sota","name":"Kamtinden","coordinates":[14.5553,66.7995]},{"code":"LA/SA-062","program":"sota","name":"Bortertinden","coordinates":[14.7218,66.7768]},{"code":"LA/SA-200","program":"sota","name":"Osfjellet","coordinates":[14.6969,66.9665]}]}