{"lat":66.75,"lon":14,"programs":["pota","sota"],"count":9,"references":[{"code":"NO-1109","program":"pota","name":"Láhko National Park","coordinates":[14.229,66.8371]},{"code":"NO-1144","program":"pota","name":"Langvassdalen-Ruffedalen Nature Reserve","coordinates":[14.0708,66.8763]},{"code":"LA/HE-090","program":"sota","name":"Middagstuva","coordinates":[14.0024,66.7597]},{"code":"LA/HE-199","program":"sota","name":"Reben","coordinates":[14.0377,66.819]},{"code":"LA/HE-314","program":"sota","name":"Synkhøgda","coordinates":[14.1063,66.7787]},{"code":"LA/HE-328","program":"sota","name":"Navaren","coordinates":[14.1149,66.8045]},{"code":"LA/SA-079","program":"sota","name":"Ruffen","coordinates":[14.0693,66.8388]},{"code":"LA/SA-196","program":"sota","name":"Sokumfjellet","coordinates":[14.249,66.951]},{"code":"LA/SA-275","program":"sota","name":"Hestdalsfjellet","coordinates":[14.0951,66.9755]}]}