{"lat":66.75,"lon":15.25,"programs":["pota","sota"],"count":6,"references":[{"code":"NO-0917","program":"pota","name":"Junkerdalsura Nature Reserve","coordinates":[15.443,66.8248]},{"code":"NO-0959","program":"pota","name":"Kjeggen Nature Reserve","coordinates":[15.3058,66.8659]},{"code":"NO-1466","program":"pota","name":"Nystadneslia Nature Reserve","coordinates":[15.3351,66.8472]},{"code":"LA/SA-005","program":"sota","name":"Ørfjellet","coordinates":[15.2519,66.7892]},{"code":"LA/SA-015","program":"sota","name":"Solvågtinden","coordinates":[15.4613,66.8427]},{"code":"LA/SA-028","program":"sota","name":"Addjektind","coordinates":[15.3009,66.757]}]}