{"lat":67,"lon":14,"programs":["pota","sota"],"count":7,"references":[{"code":"NO-2487","program":"pota","name":"Åsen - Kjeldalen Nature Reserve","coordinates":[14.0593,67.0544]},{"code":"NO-2946","program":"pota","name":"Øya/Langholmen National Ecological Reserve","coordinates":[14.0277,67.049]},{"code":"LA/SA-137","program":"sota","name":"Sandhornet","coordinates":[14.0679,67.1112]},{"code":"LA/SA-235","program":"sota","name":"Grytviktinden","coordinates":[14.1622,67.0642]},{"code":"LA/SA-260","program":"sota","name":"Telnestinden","coordinates":[14.2404,67.1559]},{"code":"LA/SA-270","program":"sota","name":"Kvarsnestinden","coordinates":[14.1864,67.024]},{"code":"LA/SA-293","program":"sota","name":"Inndyrfjellet","coordinates":[14.0871,67.0188]}]}