{"lat":67,"lon":15.75,"programs":["sota"],"count":5,"references":[{"code":"LA/SA-087","program":"sota","name":"Sveåtinden","coordinates":[15.7913,67.2219]},{"code":"LA/SA-090","program":"sota","name":"Bálldoajvve","coordinates":[15.7648,67.0586]},{"code":"LA/SA-101","program":"sota","name":"Laksåtuva","coordinates":[15.7929,67.2438]},{"code":"LA/SA-115","program":"sota","name":"Skuorttatjåhkkå","coordinates":[15.8393,67.099]},{"code":"LA/SA-259","program":"sota","name":"Tjåres","coordinates":[15.8221,67.1643]}]}