{"lat":67.25,"lon":14.75,"programs":["sota"],"count":12,"references":[{"code":"LA/SA-086","program":"sota","name":"Breidviktinden","coordinates":[14.9769,67.4089]},{"code":"LA/SA-134","program":"sota","name":"Ånsvikfjellet","coordinates":[14.9026,67.4126]},{"code":"LA/SA-150","program":"sota","name":"Såtindan","coordinates":[14.9333,67.4065]},{"code":"LA/SA-165","program":"sota","name":"Trolltinden","coordinates":[14.9781,67.4769]},{"code":"LA/SA-203","program":"sota","name":"Tenørtinden","coordinates":[14.9855,67.4368]},{"code":"LA/SA-211","program":"sota","name":"Koknestinden","coordinates":[14.8975,67.4632]},{"code":"LA/SA-217","program":"sota","name":"Heggmotinden","coordinates":[14.8793,67.3754]},{"code":"LA/SA-223","program":"sota","name":"Kvanntoaksla","coordinates":[14.9647,67.4626]},{"code":"LA/SA-248","program":"sota","name":"Mjønesfjellet","coordinates":[14.9092,67.326]},{"code":"LA/SA-256","program":"sota","name":"Dalfjellet","coordinates":[14.9386,67.3856]},{"code":"LA/SA-289","program":"sota","name":"Finnkonnakken","coordinates":[14.8186,67.4369]},{"code":"LA/SA-309","program":"sota","name":"Durmålsvassknubben Ø for","coordinates":[14.826,67.4652]}]}