{"lat":67.25,"lon":14.5,"programs":["gma","pota","sota"],"count":11,"references":[{"code":"XLA/NL-100","program":"gma","name":"Kollen","coordinates":[14.6619997,67.4280014]},{"code":"NO-0409","program":"pota","name":"Fjære Nature Reserve","coordinates":[14.6997,67.4995]},{"code":"NO-1382","program":"pota","name":"Myrnesset Nature Reserve","coordinates":[14.596,67.3057]},{"code":"NO-1889","program":"pota","name":"Skjelstad Nature Reserve","coordinates":[14.5832,67.3718]},{"code":"NO-2308","program":"pota","name":"Tverlandet Nature Reserve","coordinates":[14.711,67.2718]},{"code":"LA/SA-220","program":"sota","name":"Store Steigtinden","coordinates":[14.7402,67.3879]},{"code":"LA/SA-225","program":"sota","name":"Valviktinden","coordinates":[14.6779,67.4177]},{"code":"LA/SA-238","program":"sota","name":"Breidfjellet","coordinates":[14.7108,67.4706]},{"code":"LA/SA-268","program":"sota","name":"Skautuva","coordinates":[14.6462,67.3715]},{"code":"LA/SA-274","program":"sota","name":"Fjærkjerringa","coordinates":[14.6778,67.4782]},{"code":"LA/SA-299","program":"sota","name":"Hopsfjellet","coordinates":[14.735,67.3506]}]}