{"lat":67.25,"lon":17.25,"programs":["sota"],"count":6,"references":[{"code":"SM/NB-004","program":"sota","name":"Ridátjåhkkå","coordinates":[17.4837,67.291]},{"code":"SM/NB-006","program":"sota","name":"Niják","coordinates":[17.4861,67.4947]},{"code":"SM/NB-009","program":"sota","name":"Luohttottjåhkko","coordinates":[17.4417,67.2556]},{"code":"SM/NB-013","program":"sota","name":"Lanjektjåhkkå","coordinates":[17.3514,67.3633]},{"code":"SM/NB-025","program":"sota","name":"Guohper","coordinates":[17.3944,67.3867]},{"code":"SM/NB-030","program":"sota","name":"Alkavare","coordinates":[17.3011,67.3381]}]}