{"lat":67.5,"lon":15.75,"programs":["sota"],"count":8,"references":[{"code":"LA/SA-073","program":"sota","name":"Stauren","coordinates":[15.8221,67.6318]},{"code":"LA/SA-078","program":"sota","name":"Ørneskorken","coordinates":[15.8207,67.6168]},{"code":"LA/SA-110","program":"sota","name":"Røntinden","coordinates":[15.8331,67.7397]},{"code":"LA/SA-130","program":"sota","name":"Nuorjovárre","coordinates":[15.9987,67.6868]},{"code":"LA/SA-131","program":"sota","name":"Sildhopfjellet","coordinates":[15.9462,67.6793]},{"code":"LA/SA-161","program":"sota","name":"Kati","coordinates":[15.7929,67.5357]},{"code":"LA/SA-266","program":"sota","name":"Mørsvikvasstinden","coordinates":[15.9369,67.7322]},{"code":"LA/SA-303","program":"sota","name":"Nonstuva","coordinates":[15.899,67.714]}]}