{"lat":67.5,"lon":14.75,"programs":["pota","sota"],"count":12,"references":[{"code":"NO-0230","program":"pota","name":"Brennvika Nature Reserve","coordinates":[14.885,67.7201]},{"code":"NO-2124","program":"pota","name":"Strandåvassbotn Nature Reserve","coordinates":[14.9188,67.5297]},{"code":"NO-2932","program":"pota","name":"Strandå/Os Landscape Reserve","coordinates":[14.9528,67.5251]},{"code":"LA/SA-120","program":"sota","name":"Kråktindan","coordinates":[14.9541,67.7145]},{"code":"LA/SA-129","program":"sota","name":"Eidetinden","coordinates":[14.9494,67.5589]},{"code":"LA/SA-141","program":"sota","name":"Laukviktinden","coordinates":[14.9098,67.6878]},{"code":"LA/SA-178","program":"sota","name":"Kaffetinden","coordinates":[14.949,67.5471]},{"code":"LA/SA-180","program":"sota","name":"Rismålstinden","coordinates":[14.8854,67.6831]},{"code":"LA/SA-189","program":"sota","name":"Store Strandåtinden","coordinates":[14.9117,67.5461]},{"code":"LA/SA-255","program":"sota","name":"Blåfjellet","coordinates":[14.8896,67.5087]},{"code":"LA/SA-257","program":"sota","name":"Storlitinden","coordinates":[14.9451,67.505]},{"code":"LA/SA-318","program":"sota","name":"Middagshaugen","coordinates":[14.763,67.5066]}]}