{"lat":67.75,"lon":13,"programs":["pota","sota"],"count":10,"references":[{"code":"NO-1468","program":"pota","name":"Oddan Nature Reserve","coordinates":[13.0364,67.8935]},{"code":"LA/NL-361","program":"sota","name":"Klokktinden","coordinates":[13.0754,67.9804]},{"code":"LA/NL-384","program":"sota","name":"Munken","coordinates":[13.021,67.9304]},{"code":"LA/NL-404","program":"sota","name":"Bukkskinntinden","coordinates":[13.1284,67.9801]},{"code":"LA/NL-417","program":"sota","name":"Solbjørn","coordinates":[13.1625,67.9821]},{"code":"LA/NL-424","program":"sota","name":"Segltinden","coordinates":[13.0449,67.9862]},{"code":"LA/NL-426","program":"sota","name":"Kista","coordinates":[13.0391,67.9371]},{"code":"LA/NL-440","program":"sota","name":"Tennestinden","coordinates":[13.0118,67.9416]},{"code":"LA/NL-543","program":"sota","name":"Gylttinden","coordinates":[13.0389,67.9124]},{"code":"LA/NL-546","program":"sota","name":"Merraflestinden","coordinates":[13.0227,67.916]}]}