{"lat":67.75,"lon":15.25,"programs":["sota"],"count":10,"references":[{"code":"LA/SA-126","program":"sota","name":"Hatten","coordinates":[15.3266,67.8665]},{"code":"LA/SA-163","program":"sota","name":"Sløelvtinden","coordinates":[15.3417,67.8321]},{"code":"LA/SA-174","program":"sota","name":"Stokkvasstinden","coordinates":[15.2851,67.8454]},{"code":"LA/SA-183","program":"sota","name":"Store Skjolden","coordinates":[15.3963,67.8999]},{"code":"LA/SA-195","program":"sota","name":"Motinden","coordinates":[15.3058,67.882]},{"code":"LA/SA-245","program":"sota","name":"Litl Skjolden","coordinates":[15.3929,67.8877]},{"code":"LA/SA-250","program":"sota","name":"Vatntinden","coordinates":[15.4973,67.9098]},{"code":"LA/SA-264","program":"sota","name":"Store Grøntinden","coordinates":[15.2527,67.7907]},{"code":"LA/SA-278","program":"sota","name":"Gongskardtinden","coordinates":[15.4783,67.8731]},{"code":"LA/SA-312","program":"sota","name":"Raudberget","coordinates":[15.4695,67.8396]}]}