{"lat":68,"lon":17.25,"programs":["sota"],"count":7,"references":[{"code":"LA/NL-195","program":"sota","name":"Storriten (Stuorrarijdda)","coordinates":[17.2815,68.1188]},{"code":"LA/NL-200","program":"sota","name":"Rundtinden","coordinates":[17.4194,68.1494]},{"code":"LA/NL-210","program":"sota","name":"Durmålsfjellet","coordinates":[17.3941,68.1845]},{"code":"LA/NL-227","program":"sota","name":"Gangnesaksla","coordinates":[17.2648,68.201]},{"code":"LA/NL-252","program":"sota","name":"Orjjesskievvavárri","coordinates":[17.326,68.1456]},{"code":"LA/NL-264","program":"sota","name":"Tjårdafjellet","coordinates":[17.4034,68.112]},{"code":"LA/NL-379","program":"sota","name":"Reinnesfjellet","coordinates":[17.3916,68.2233]}]}