{"lat":68,"lon":17.5,"programs":["pota","sota"],"count":12,"references":[{"code":"NO-1427","program":"pota","name":"Norddalen Nature Reserve","coordinates":[17.633,68.1668]},{"code":"LA/NL-008","program":"sota","name":"Nihkevárri","coordinates":[17.7239,68.245]},{"code":"LA/NL-013","program":"sota","name":"Ippocohkka","coordinates":[17.7239,68.1511]},{"code":"LA/NL-187","program":"sota","name":"Durmålstinden","coordinates":[17.6819,68.1465]},{"code":"LA/NL-191","program":"sota","name":"Suorječohkka","coordinates":[17.5631,68.2252]},{"code":"LA/NL-192","program":"sota","name":"Nihkevárri NV for","coordinates":[17.6777,68.2437]},{"code":"LA/NL-202","program":"sota","name":"Elvegårdstinden","coordinates":[17.5086,68.2384]},{"code":"LA/NL-238","program":"sota","name":"Suorječohkka Ø for","coordinates":[17.6324,68.2258]},{"code":"LA/NL-241","program":"sota","name":"Gautelisfjellet","coordinates":[17.737,68.0482]},{"code":"LA/NL-243","program":"sota","name":"Loasevárri","coordinates":[17.7152,68.1904]},{"code":"LA/NL-277","program":"sota","name":"Lossitinden","coordinates":[17.6515,68.1765]},{"code":"LA/NL-282","program":"sota","name":"Gulliktinden","coordinates":[17.5041,68.1865]}]}