{"lat":68,"lon":13,"programs":["sota"],"count":9,"references":[{"code":"LA/NL-360","program":"sota","name":"Ytre Brasråstindan","coordinates":[13.0062,68.0388]},{"code":"LA/NL-409","program":"sota","name":"Kitinden","coordinates":[13.0793,68.0498]},{"code":"LA/NL-422","program":"sota","name":"Kråkhammartinden","coordinates":[13.0218,68.0038]},{"code":"LA/NL-446","program":"sota","name":"Narvtinden","coordinates":[13.1235,68.0207]},{"code":"LA/NL-465","program":"sota","name":"Moltinden","coordinates":[13.097,68.0677]},{"code":"LA/NL-540","program":"sota","name":"Ryten","coordinates":[13.0929,68.0891]},{"code":"LA/NL-569","program":"sota","name":"Nonsdalstinden","coordinates":[13.2172,68.0408]},{"code":"LA/NL-575","program":"sota","name":"Volandstinden","coordinates":[13.2131,68.0694]},{"code":"LA/NL-588","program":"sota","name":"Sundmannen","coordinates":[13.2153,68.0198]}]}