{"lat":68.25,"lon":14.25,"programs":["pota","sota"],"count":6,"references":[{"code":"NO-1148","program":"pota","name":"Laukvikøyene Nature Reserve","coordinates":[14.4113,68.362]},{"code":"LA/NL-416","program":"sota","name":"Torskmannen","coordinates":[14.4836,68.2865]},{"code":"LA/NL-420","program":"sota","name":"Svarttinden","coordinates":[14.3619,68.3021]},{"code":"LA/NL-433","program":"sota","name":"Botntinden","coordinates":[14.4877,68.2784]},{"code":"LA/NL-488","program":"sota","name":"Festvågtinden","coordinates":[14.3574,68.3341]},{"code":"LA/NL-522","program":"sota","name":"Kvasstinden","coordinates":[14.3318,68.2636]}]}