{"lat":68.25,"lon":14,"programs":["pota","sota"],"count":6,"references":[{"code":"NO-0546","program":"pota","name":"Gimsøymyrene Nature Reserve","coordinates":[14.1396,68.3175]},{"code":"NO-0842","program":"pota","name":"Hovsflesa Nature Reserve","coordinates":[14.0095,68.3715]},{"code":"LA/NL-154","program":"sota","name":"Anderstinden (Varden)","coordinates":[14.1292,68.2589]},{"code":"LA/NL-400","program":"sota","name":"Svarttinden","coordinates":[14.226,68.2715]},{"code":"LA/NL-506","program":"sota","name":"Storknubben (Nordheia)","coordinates":[14.2145,68.3018]},{"code":"LA/NL-603","program":"sota","name":"Hoven","coordinates":[14.1057,68.3306]}]}