{"lat":68.25,"lon":17.5,"programs":["sota"],"count":11,"references":[{"code":"LA/NL-181","program":"sota","name":"Huinnarčohkka NØ for","coordinates":[17.7391,68.2522]},{"code":"LA/NL-183","program":"sota","name":"Storfjellet SV for","coordinates":[17.7163,68.3062]},{"code":"LA/NL-199","program":"sota","name":"Máttačorru","coordinates":[17.5845,68.2594]},{"code":"LA/NL-201","program":"sota","name":"Beisfjordtøtta","coordinates":[17.5727,68.406]},{"code":"LA/NL-206","program":"sota","name":"Sáimmačohkka","coordinates":[17.5187,68.2681]},{"code":"LA/NL-211","program":"sota","name":"Sandviktinden Ø for","coordinates":[17.5202,68.2915]},{"code":"LA/NL-234","program":"sota","name":"Fagernesfjellet Øst","coordinates":[17.5175,68.4171]},{"code":"LA/NL-348","program":"sota","name":"Raudtinden","coordinates":[17.6843,68.3694]},{"code":"LA/NL-388","program":"sota","name":"Kvalryggen","coordinates":[17.7449,68.4005]},{"code":"LA/NL-405","program":"sota","name":"Vardefjellet","coordinates":[17.5293,68.3554]},{"code":"LA/NL-479","program":"sota","name":"Daltinden","coordinates":[17.6332,68.488]}]}