{"lat":68.5,"lon":19,"programs":["sota"],"count":7,"references":[{"code":"LA/TR-093","program":"sota","name":"Stállovárri NØ for","coordinates":[19.1836,68.7382]},{"code":"LA/TR-100","program":"sota","name":"Gaskkasgáisi","coordinates":[19.243,68.7276]},{"code":"LA/TR-111","program":"sota","name":"Stállovárri","coordinates":[19.1417,68.726]},{"code":"LA/TR-124","program":"sota","name":"Čoalbmoaivi","coordinates":[19.2115,68.6655]},{"code":"LA/TR-127","program":"sota","name":"Kufjellet","coordinates":[19.1019,68.5721]},{"code":"LA/TR-140","program":"sota","name":"Sánjavárri","coordinates":[19.1788,68.5114]},{"code":"LA/TR-181","program":"sota","name":"Lifjellet","coordinates":[19.0314,68.6834]}]}