{"lat":68.5,"lon":17.25,"programs":["sota"],"count":10,"references":[{"code":"LA/TR-113","program":"sota","name":"Dudalstinden","coordinates":[17.4438,68.6376]},{"code":"LA/TR-133","program":"sota","name":"Nonstinden","coordinates":[17.4866,68.6278]},{"code":"LA/TR-134","program":"sota","name":"Revtind","coordinates":[17.3294,68.6254]},{"code":"LA/TR-141","program":"sota","name":"Oldertinden","coordinates":[17.3106,68.6545]},{"code":"LA/TR-161","program":"sota","name":"Tinden","coordinates":[17.2572,68.6752]},{"code":"LA/TR-163","program":"sota","name":"Nonsfjellet","coordinates":[17.343,68.6689]},{"code":"LA/TR-171","program":"sota","name":"Sandfjellet","coordinates":[17.3806,68.634]},{"code":"LA/TR-206","program":"sota","name":"Sula","coordinates":[17.2954,68.6941]},{"code":"LA/TR-284","program":"sota","name":"Maridalshøgda","coordinates":[17.4529,68.5949]},{"code":"LA/TR-381","program":"sota","name":"Hornet","coordinates":[17.3042,68.5677]}]}