{"lat":68.5,"lon":18.25,"programs":["pota","sota"],"count":12,"references":[{"code":"SE-0002","program":"pota","name":"Vadvetjåkka National Park","coordinates":[18.4344,68.539]},{"code":"LA/TR-044","program":"sota","name":"Snøhetta","coordinates":[18.3297,68.6893]},{"code":"LA/TR-055","program":"sota","name":"Livelttinden","coordinates":[18.371,68.7269]},{"code":"LA/TR-057","program":"sota","name":"Sørgardstinden","coordinates":[18.4541,68.6772]},{"code":"LA/TR-062","program":"sota","name":"Vesleskardtinden","coordinates":[18.4069,68.7249]},{"code":"LA/TR-066","program":"sota","name":"Erikfjellet Ø for","coordinates":[18.3253,68.7282]},{"code":"LA/TR-071","program":"sota","name":"Vesleklettan","coordinates":[18.3751,68.6341]},{"code":"LA/TR-072","program":"sota","name":"Svartskredtinden","coordinates":[18.4129,68.6826]},{"code":"LA/TR-074","program":"sota","name":"Storfjellet","coordinates":[18.4494,68.7374]},{"code":"LA/TR-088","program":"sota","name":"Vesleklettan S toppen","coordinates":[18.3716,68.6129]},{"code":"LA/TR-091","program":"sota","name":"Storklettan","coordinates":[18.2654,68.5931]},{"code":"LA/TR-155","program":"sota","name":"Blåfjellet","coordinates":[18.2882,68.6677]}]}