{"lat":68.5,"lon":16.25,"programs":["sota"],"count":10,"references":[{"code":"LA/NL-300","program":"sota","name":"Jotind","coordinates":[16.3268,68.5004]},{"code":"LA/NL-302","program":"sota","name":"Kongsviktinden","coordinates":[16.2638,68.5828]},{"code":"LA/NL-325","program":"sota","name":"Skitneskartinden","coordinates":[16.3078,68.6019]},{"code":"LA/NL-570","program":"sota","name":"Rambøheia","coordinates":[16.4924,68.5136]},{"code":"LA/NL-578","program":"sota","name":"Stokkåsen","coordinates":[16.4128,68.5274]},{"code":"LA/TR-010","program":"sota","name":"Sætertinden","coordinates":[16.3625,68.5869]},{"code":"LA/TR-013","program":"sota","name":"Sørvikfjellet","coordinates":[16.4786,68.6944]},{"code":"LA/TR-020","program":"sota","name":"Hårberget","coordinates":[16.4678,68.5664]},{"code":"LA/TR-251","program":"sota","name":"Rundfjellet","coordinates":[16.2735,68.6326]},{"code":"LA/TR-375","program":"sota","name":"Toskevassfjellet","coordinates":[16.3453,68.7425]}]}