{"lat":68.5,"lon":19.75,"programs":["sota"],"count":5,"references":[{"code":"LA/TR-029","program":"sota","name":"Jerta","coordinates":[19.9671,68.7021]},{"code":"LA/TR-030","program":"sota","name":"Litle Jerta","coordinates":[19.8741,68.6954]},{"code":"LA/TR-031","program":"sota","name":"Stuora Nanná","coordinates":[19.9743,68.7297]},{"code":"LA/TR-035","program":"sota","name":"Julosvárri","coordinates":[19.9527,68.644]},{"code":"LA/TR-315","program":"sota","name":"Átnjatvárri","coordinates":[19.8747,68.5104]}]}