{"lat":68.5,"lon":14.25,"programs":["pota","sota"],"count":7,"references":[{"code":"NO-2128","program":"pota","name":"Straume Nature Reserve","coordinates":[14.4475,68.6765]},{"code":"LA/NL-439","program":"sota","name":"Burnestinden","coordinates":[14.484,68.7176]},{"code":"LA/NL-504","program":"sota","name":"Vikanfjellet","coordinates":[14.4531,68.7081]},{"code":"LA/NL-594","program":"sota","name":"Skårvågfjellet","coordinates":[14.4113,68.6921]},{"code":"LA/NL-600","program":"sota","name":"Straumberget","coordinates":[14.4507,68.6924]},{"code":"LA/NL-615","program":"sota","name":"Gullstabben","coordinates":[14.4018,68.6682]},{"code":"LA/NL-617","program":"sota","name":"Skjerdingstadtinden","coordinates":[14.3291,68.6108]}]}