{"lat":68.75,"lon":17.25,"programs":["sota"],"count":11,"references":[{"code":"LA/TR-023","program":"sota","name":"Langlitinden","coordinates":[17.3875,68.8678]},{"code":"LA/TR-025","program":"sota","name":"Klåptinden","coordinates":[17.2783,68.9083]},{"code":"LA/TR-027","program":"sota","name":"Stakken","coordinates":[17.2667,68.82]},{"code":"LA/TR-138","program":"sota","name":"Snøtinden","coordinates":[17.3057,68.8368]},{"code":"LA/TR-151","program":"sota","name":"Årbostadtinden","coordinates":[17.3479,68.9086]},{"code":"LA/TR-165","program":"sota","name":"Vasskartinden","coordinates":[17.3062,68.8811]},{"code":"LA/TR-178","program":"sota","name":"Ystelifjellet","coordinates":[17.4818,68.7734]},{"code":"LA/TR-184","program":"sota","name":"Ristinden","coordinates":[17.2525,68.8424]},{"code":"LA/TR-250","program":"sota","name":"Borturskartinden","coordinates":[17.3774,68.779]},{"code":"LA/TR-291","program":"sota","name":"Blåfjellet","coordinates":[17.3298,68.7633]},{"code":"LA/TR-378","program":"sota","name":"Dyrøygommen","coordinates":[17.3625,68.9954]}]}