{"lat":68.75,"lon":16.25,"programs":["sota"],"count":16,"references":[{"code":"LA/TR-011","program":"sota","name":"Nona","coordinates":[16.4506,68.9214]},{"code":"LA/TR-012","program":"sota","name":"Trolltinden","coordinates":[16.4894,68.9306]},{"code":"LA/TR-014","program":"sota","name":"Vardheia","coordinates":[16.4706,68.7508]},{"code":"LA/TR-015","program":"sota","name":"Elgen","coordinates":[16.2669,68.8933]},{"code":"LA/TR-016","program":"sota","name":"Storhornet","coordinates":[16.4317,68.8436]},{"code":"LA/TR-017","program":"sota","name":"Litlehornet","coordinates":[16.3803,68.8617]},{"code":"LA/TR-018","program":"sota","name":"Keipen","coordinates":[16.3361,68.8569]},{"code":"LA/TR-022","program":"sota","name":"Kjelhusåsen","coordinates":[16.4647,68.8064]},{"code":"LA/TR-224","program":"sota","name":"Stortussen","coordinates":[16.3667,68.9744]},{"code":"LA/TR-230","program":"sota","name":"Trolltinden","coordinates":[16.489,68.9139]},{"code":"LA/TR-258","program":"sota","name":"Hattfjellet","coordinates":[16.3265,68.9747]},{"code":"LA/TR-269","program":"sota","name":"Flyndretinden","coordinates":[16.3188,68.9625]},{"code":"LA/TR-280","program":"sota","name":"Litjetussen","coordinates":[16.4037,68.9637]},{"code":"LA/TR-285","program":"sota","name":"Toppaksla","coordinates":[16.3957,68.9162]},{"code":"LA/TR-391","program":"sota","name":"Vikelandsfjellet","coordinates":[16.276,68.7538]},{"code":"LA/TR-412","program":"sota","name":"Falkeberget","coordinates":[16.4837,68.9979]}]}