{"lat":68.75,"lon":18.75,"programs":["pota","sota"],"count":12,"references":[{"code":"NO-1886","program":"pota","name":"Skjelbekken Nature Reserve","coordinates":[18.8728,68.9818]},{"code":"LA/TR-040","program":"sota","name":"Stuoragáisi","coordinates":[18.8605,68.835]},{"code":"LA/TR-054","program":"sota","name":"Tverrfjellet","coordinates":[18.9054,68.8096]},{"code":"LA/TR-064","program":"sota","name":"Frøkentinden (Nieidačohkka)","coordinates":[18.7742,68.8547]},{"code":"LA/TR-068","program":"sota","name":"Brøran (Sarvvesoalgi)","coordinates":[18.9553,68.8931]},{"code":"LA/TR-096","program":"sota","name":"Tuvslettfjellet","coordinates":[18.9507,68.8369]},{"code":"LA/TR-106","program":"sota","name":"Rubben","coordinates":[18.9496,68.8733]},{"code":"LA/TR-122","program":"sota","name":"Skinskardtinden","coordinates":[18.7902,68.7727]},{"code":"LA/TR-129","program":"sota","name":"Røyevassberget","coordinates":[18.948,68.756]},{"code":"LA/TR-150","program":"sota","name":"Frøkentinden SØ for","coordinates":[18.8022,68.8427]},{"code":"LA/TR-188","program":"sota","name":"Kopparskardtinden NØ for","coordinates":[18.8672,68.7523]},{"code":"LA/TR-282","program":"sota","name":"Sørkletten","coordinates":[18.8659,68.9542]}]}