{"lat":68.75,"lon":15.25,"programs":["iota","pota","sota"],"count":9,"references":[{"code":"EU-033","program":"iota","name":"VESTERALEN ISLANDS","coordinates":[15.46000004,68.834999085]},{"code":"NO-2440","program":"pota","name":"Vikosen Nature Reserve","coordinates":[15.2932,68.7581]},{"code":"LA/NL-028","program":"sota","name":"Kvasstinden","coordinates":[15.4828,68.9303]},{"code":"LA/NL-029","program":"sota","name":"Brynlitinden","coordinates":[15.4975,68.9069]},{"code":"LA/NL-031","program":"sota","name":"Gavltinden","coordinates":[15.4614,68.8997]},{"code":"LA/NL-462","program":"sota","name":"Kvålkvanntotinden","coordinates":[15.3048,68.8286]},{"code":"LA/NL-583","program":"sota","name":"Svellingen","coordinates":[15.4878,68.7611]},{"code":"LA/NL-622","program":"sota","name":"Bremneskollen","coordinates":[15.3708,68.8506]},{"code":"LA/NL-625","program":"sota","name":"Langåsheia","coordinates":[15.4995,68.8021]}]}