{"lat":69,"lon":18.75,"programs":["sota"],"count":7,"references":[{"code":"LA/TN-079","program":"sota","name":"Mårfjellet","coordinates":[18.7649,69.2264]},{"code":"LA/TN-092","program":"sota","name":"Breidtinden","coordinates":[18.8789,69.2013]},{"code":"LA/TN-218","program":"sota","name":"Fiskelaustind","coordinates":[18.934,69.2128]},{"code":"LA/TR-084","program":"sota","name":"Blåtindan","coordinates":[18.8275,69.187]},{"code":"LA/TR-125","program":"sota","name":"Stormauken","coordinates":[18.9668,69.0621]},{"code":"LA/TR-160","program":"sota","name":"Blåtindan S toppen","coordinates":[18.814,69.1678]},{"code":"LA/TR-376","program":"sota","name":"Gåsfjellet","coordinates":[18.8658,69.1317]}]}