{"lat":69,"lon":20.75,"programs":["pota","sota"],"count":5,"references":[{"code":"FI-0030","program":"pota","name":"Saanan luonnonsuojelualaue State Nature Preserve","coordinates":[20.8321,69.0425]},{"code":"LA/TN-195","program":"sota","name":"Allaleattan","coordinates":[20.918,69.1392]},{"code":"OH/KI-005","program":"sota","name":"Saana","coordinates":[20.8561,69.0439]},{"code":"OH/KI-007","program":"sota","name":"Korkea Jehkas","coordinates":[20.8347,69.0861]},{"code":"OH/KI-055","program":"sota","name":"Iso-Jehkas","coordinates":[20.9063,69.0578]}]}