{"lat":69,"lon":15.5,"programs":["sota"],"count":6,"references":[{"code":"LA/NL-033","program":"sota","name":"Bjørnskinntinden","coordinates":[15.6389,69.0147]},{"code":"LA/NL-035","program":"sota","name":"Gårdsfjellet","coordinates":[15.5825,69.0928]},{"code":"LA/NL-036","program":"sota","name":"Blåtind","coordinates":[15.67,69.0775]},{"code":"LA/NL-109","program":"sota","name":"Ressmålstinden","coordinates":[15.6432,69.035]},{"code":"LA/NL-114","program":"sota","name":"Storklemptinden","coordinates":[15.6011,69.0573]},{"code":"LA/NL-117","program":"sota","name":"Breitinden","coordinates":[15.7003,69.0471]}]}