{"lat":69,"lon":18,"programs":["sota"],"count":5,"references":[{"code":"LA/TR-167","program":"sota","name":"Gievdnečohkka","coordinates":[18.1401,69.0062]},{"code":"LA/TR-190","program":"sota","name":"Tverrfjellet","coordinates":[18.0965,69.0457]},{"code":"LA/TR-194","program":"sota","name":"Høggumpen","coordinates":[18.0002,69.0609]},{"code":"LA/TR-366","program":"sota","name":"Lysheia","coordinates":[18.1833,69.1781]},{"code":"LA/TR-397","program":"sota","name":"Svartåsen","coordinates":[18.2224,69.0954]}]}