{"lat":69,"lon":20,"programs":["sota"],"count":13,"references":[{"code":"LA/TN-012","program":"sota","name":"Mannfjellet SV toppen","coordinates":[20.0328,69.2003]},{"code":"LA/TN-013","program":"sota","name":"Markusfjellet","coordinates":[20.1533,69.1594]},{"code":"LA/TN-037","program":"sota","name":"Vassdalstinden","coordinates":[20.0109,69.1158]},{"code":"LA/TN-045","program":"sota","name":"Gievdneváhgáisi","coordinates":[20.0368,69.0699]},{"code":"LA/TN-046","program":"sota","name":"Bárrás","coordinates":[20.1564,69.1014]},{"code":"LA/TN-066","program":"sota","name":"Ráigegáisi","coordinates":[20.1866,69.2483]},{"code":"LA/TN-124","program":"sota","name":"Gaskasuorggigáisi","coordinates":[20.2256,69.2217]},{"code":"LA/TN-162","program":"sota","name":"Moskkogáisi","coordinates":[20.1431,69.2163]},{"code":"LA/TN-179","program":"sota","name":"Bogen","coordinates":[20.1373,69.1965]},{"code":"LA/TR-041","program":"sota","name":"Moskkugáisi (Juoksaváhnjunni)","coordinates":[20.1274,69.0102]},{"code":"LA/TR-056","program":"sota","name":"Isdalsfjella (Njearrečazagáisi) N toppen","coordinates":[20.0358,69.0187]},{"code":"LA/TR-109","program":"sota","name":"Sikkarøysa (Tiorro Kaitzarøysa)","coordinates":[20.0599,69.0459]},{"code":"SM/NB-043","program":"sota","name":"Pältsan","coordinates":[20.2227,69.0085]}]}