{"lat":69,"lon":17,"programs":["pota","sota"],"count":19,"references":[{"code":"NO-1164","program":"pota","name":"Leirpollen-Halsvatnet Nature Reserve","coordinates":[17.1299,69.0667]},{"code":"NO-1166","program":"pota","name":"Lekangsøya Nature Reserve","coordinates":[17.2483,69.0247]},{"code":"NO-2055","program":"pota","name":"Stongodden Nature Reserve","coordinates":[17.0628,69.013]},{"code":"LA/TR-218","program":"sota","name":"Kvænan","coordinates":[17.1466,69.2064]},{"code":"LA/TR-242","program":"sota","name":"Eidefjellet","coordinates":[17.1608,69.1068]},{"code":"LA/TR-247","program":"sota","name":"Grinda","coordinates":[17.1493,69.1705]},{"code":"LA/TR-257","program":"sota","name":"Bunkeskjolet","coordinates":[17.1469,69.1499]},{"code":"LA/TR-259","program":"sota","name":"Henrikshovudet","coordinates":[17.2023,69.216]},{"code":"LA/TR-297","program":"sota","name":"Kolkjerka","coordinates":[17.2055,69.2372]},{"code":"LA/TR-306","program":"sota","name":"Luten","coordinates":[17.1841,69.1792]},{"code":"LA/TR-307","program":"sota","name":"Lendepolltinden","coordinates":[17.0243,69.2229]},{"code":"LA/TR-314","program":"sota","name":"Eidefjellet SV for","coordinates":[17.1223,69.0932]},{"code":"LA/TR-318","program":"sota","name":"Litje Salberget","coordinates":[17.1162,69.1929]},{"code":"LA/TR-353","program":"sota","name":"Fiskenestinden","coordinates":[17.0025,69.1349]},{"code":"LA/TR-370","program":"sota","name":"Rundtinden","coordinates":[17.068,69.2173]},{"code":"LA/TR-399","program":"sota","name":"Fagervikkollen","coordinates":[17.0563,69.132]},{"code":"LA/TR-402","program":"sota","name":"Stangnesfjellet (Veten)","coordinates":[17.1204,69.0355]},{"code":"LA/TR-407","program":"sota","name":"Hillesåsen","coordinates":[17.0465,69.0973]},{"code":"LA/TR-411","program":"sota","name":"Leirfjellet","coordinates":[17.1488,69.0601]}]}