{"lat":69.25,"lon":17.5,"programs":["sota"],"count":20,"references":[{"code":"LA/TR-205","program":"sota","name":"Breitinden SØ for","coordinates":[17.6562,69.4517]},{"code":"LA/TR-214","program":"sota","name":"Stormoa","coordinates":[17.5239,69.4043]},{"code":"LA/TR-221","program":"sota","name":"Istindan østre (Jiekŋagáisá)","coordinates":[17.6249,69.3896]},{"code":"LA/TR-226","program":"sota","name":"Keipen","coordinates":[17.7228,69.4952]},{"code":"LA/TR-231","program":"sota","name":"Istindan SV toppen (Jiekŋagáisá)","coordinates":[17.5585,69.384]},{"code":"LA/TR-232","program":"sota","name":"Innhesten","coordinates":[17.578,69.4186]},{"code":"LA/TR-240","program":"sota","name":"Grytetippen","coordinates":[17.6967,69.4944]},{"code":"LA/TR-254","program":"sota","name":"Hesten","coordinates":[17.5317,69.4215]},{"code":"LA/TR-283","program":"sota","name":"Botntinden","coordinates":[17.5485,69.4065]},{"code":"LA/TR-287","program":"sota","name":"Mikkelfjellet","coordinates":[17.7088,69.3887]},{"code":"LA/TR-288","program":"sota","name":"Lasset (Lássevárri)","coordinates":[17.6897,69.4421]},{"code":"LA/TR-290","program":"sota","name":"Kjørakeisen N for","coordinates":[17.6375,69.4434]},{"code":"LA/TR-299","program":"sota","name":"Burstinden","coordinates":[17.5195,69.475]},{"code":"LA/TR-309","program":"sota","name":"Bratthaugen","coordinates":[17.5688,69.35]},{"code":"LA/TR-325","program":"sota","name":"Litlehesten","coordinates":[17.5477,69.4612]},{"code":"LA/TR-327","program":"sota","name":"Snøfjellet (Muohtavárri)","coordinates":[17.6415,69.353]},{"code":"LA/TR-332","program":"sota","name":"Barden","coordinates":[17.6359,69.4852]},{"code":"LA/TR-339","program":"sota","name":"Bringtinden","coordinates":[17.5298,69.4848]},{"code":"LA/TR-350","program":"sota","name":"Reinen","coordinates":[17.7185,69.459]},{"code":"LA/TR-363","program":"sota","name":"Daudmannsfjellet (Čearru)","coordinates":[17.6169,69.3126]}]}