{"lat":69.25,"lon":16.75,"programs":["pota","sota"],"count":8,"references":[{"code":"NO-1787","program":"pota","name":"Sandsvika Nature Reserve","coordinates":[16.9486,69.3779]},{"code":"NO-3130","program":"pota","name":"Holmenvær Landscape Reserve","coordinates":[16.7733,69.2932]},{"code":"LA/TR-337","program":"sota","name":"Dalfjellet","coordinates":[16.9248,69.3094]},{"code":"LA/TR-349","program":"sota","name":"Klemmingan","coordinates":[16.9962,69.3148]},{"code":"LA/TR-357","program":"sota","name":"Inkjetinden","coordinates":[16.98,69.3805]},{"code":"LA/TR-371","program":"sota","name":"Månestind","coordinates":[16.8899,69.3715]},{"code":"LA/TR-377","program":"sota","name":"Indre Teisten","coordinates":[16.9586,69.3977]},{"code":"LA/TR-379","program":"sota","name":"Sula","coordinates":[16.9632,69.3665]}]}