{"lat":69.25,"lon":17.25,"programs":["pota","sota"],"count":15,"references":[{"code":"NO-2157","program":"pota","name":"Svandalen Nature Reserve","coordinates":[17.4903,69.3206]},{"code":"NO-3113","program":"pota","name":"Lavollskjosen Flora Reserve","coordinates":[17.3445,69.4009]},{"code":"LA/TR-239","program":"sota","name":"Tredjefjellet","coordinates":[17.4036,69.2996]},{"code":"LA/TR-245","program":"sota","name":"Andrefjellet","coordinates":[17.4412,69.2795]},{"code":"LA/TR-255","program":"sota","name":"Roalden","coordinates":[17.4836,69.4726]},{"code":"LA/TR-260","program":"sota","name":"Istind","coordinates":[17.2986,69.2839]},{"code":"LA/TR-267","program":"sota","name":"Litjemoa","coordinates":[17.4901,69.4069]},{"code":"LA/TR-281","program":"sota","name":"Tebbeltuva V toppen","coordinates":[17.4282,69.4847]},{"code":"LA/TR-293","program":"sota","name":"Luttinden","coordinates":[17.375,69.4655]},{"code":"LA/TR-296","program":"sota","name":"Snaufjellet","coordinates":[17.4102,69.4655]},{"code":"LA/TR-316","program":"sota","name":"Fuglan","coordinates":[17.3748,69.4551]},{"code":"LA/TR-335","program":"sota","name":"Luttinden","coordinates":[17.3885,69.4487]},{"code":"LA/TR-340","program":"sota","name":"Husfjellet","coordinates":[17.2718,69.4696]},{"code":"LA/TR-342","program":"sota","name":"Tromtind","coordinates":[17.3373,69.3307]},{"code":"LA/TR-348","program":"sota","name":"Flobjørn","coordinates":[17.3965,69.4088]}]}