{"lat":69.25,"lon":17.75,"programs":["pota","sota"],"count":9,"references":[{"code":"NO-0591","program":"pota","name":"Grasmyrskogvatn Nature Reserve","coordinates":[17.8242,69.2855]},{"code":"NO-0714","program":"pota","name":"Heggedalen Nature Reserve","coordinates":[17.7626,69.3651]},{"code":"NO-0906","program":"pota","name":"Jøtulhaugvatn Nature Reserve","coordinates":[17.8771,69.3084]},{"code":"NO-1900","program":"pota","name":"Skognesvågen Nature Reserve","coordinates":[17.8945,69.3125]},{"code":"LA/TR-331","program":"sota","name":"Tuva (Vardfjellet)","coordinates":[17.7645,69.4368]},{"code":"LA/TR-373","program":"sota","name":"Bukken (Bukhkká)","coordinates":[17.8581,69.4307]},{"code":"LA/TR-396","program":"sota","name":"Tørrishaugen","coordinates":[17.8837,69.4074]},{"code":"LA/TR-398","program":"sota","name":"Blåheia","coordinates":[17.9327,69.4754]},{"code":"LA/TR-406","program":"sota","name":"Nattmålshøgda","coordinates":[17.8016,69.253]}]}