{"lat":69.25,"lon":18.25,"programs":["pota","sota","wwbota"],"count":10,"references":[{"code":"NO-2010","program":"pota","name":"Spilderøya Nature Reserve","coordinates":[18.4792,69.4241]},{"code":"NO-3043","program":"pota","name":"Rossfjordstraumen Marine Protected Area","coordinates":[18.2781,69.3308]},{"code":"LA/TR-143","program":"sota","name":"Vassbruntinden","coordinates":[18.4567,69.2999]},{"code":"LA/TR-192","program":"sota","name":"Blåfjell (Vassbruna)","coordinates":[18.4076,69.3207]},{"code":"LA/TR-241","program":"sota","name":"Fagerfjellet SØ toppen","coordinates":[18.3031,69.2593]},{"code":"LA/TR-249","program":"sota","name":"Fagerfjellet (Vávrrosvárri)","coordinates":[18.2887,69.2768]},{"code":"LA/TR-369","program":"sota","name":"Kraknestinden","coordinates":[18.2998,69.385]},{"code":"LA/TR-380","program":"sota","name":"Blåheia","coordinates":[18.3102,69.4234]},{"code":"LA/TR-400","program":"sota","name":"Bjørnhågen","coordinates":[18.3289,69.3268]},{"code":"B/LA-0075","program":"wwbota","name":"Ansnes, HKB 20./972 (4x10.5)","coordinates":[18.44278,69.49946]}]}