{"lat":69.5,"lon":21.25,"programs":["pota","sota"],"count":5,"references":[{"code":"NO-0535","program":"pota","name":"Gearpmesorda Nature Reserve","coordinates":[21.4595,69.5121]},{"code":"NO-1205","program":"pota","name":"Lindovara Nature Reserve","coordinates":[21.2904,69.588]},{"code":"NO-1552","program":"pota","name":"Pihkahistamaelva Nature Reserve","coordinates":[21.279,69.546]},{"code":"LA/TN-172","program":"sota","name":"Čáhppesčohkka","coordinates":[21.431,69.6014]},{"code":"LA/TN-201","program":"sota","name":"Doaresgáisá","coordinates":[21.4057,69.6284]}]}