{"lat":69.5,"lon":19.75,"programs":["pota","sota"],"count":14,"references":[{"code":"NO-0379","program":"pota","name":"Faueldalen Nature Reserve","coordinates":[19.7572,69.5122]},{"code":"NO-2098","program":"pota","name":"Stormyra (Jægervatn) Nature Reserve","coordinates":[19.9368,69.748]},{"code":"NO-3164","program":"pota","name":"Lyngsalpan Landscape Reserve","coordinates":[19.9819,69.5573]},{"code":"LA/TN-003","program":"sota","name":"Loddecohkka","coordinates":[19.8364,69.5176]},{"code":"LA/TN-020","program":"sota","name":"Stortinden","coordinates":[19.991,69.6871]},{"code":"LA/TN-029","program":"sota","name":"Tigertinden","coordinates":[19.9299,69.5294]},{"code":"LA/TN-033","program":"sota","name":"Store Fornestinden","coordinates":[19.9288,69.5652]},{"code":"LA/TN-034","program":"sota","name":"Stortinden","coordinates":[19.9183,69.538]},{"code":"LA/TN-035","program":"sota","name":"Forholttinden","coordinates":[19.9946,69.5651]},{"code":"LA/TN-038","program":"sota","name":"Forholtfjellet","coordinates":[19.9721,69.557]},{"code":"LA/TN-042","program":"sota","name":"Trollvasstinden (Isskardtindane)","coordinates":[19.9695,69.6478]},{"code":"LA/TN-128","program":"sota","name":"Sofiatinden øst for","coordinates":[19.9791,69.6276]},{"code":"LA/TN-187","program":"sota","name":"Litle Durmålstinden","coordinates":[19.8442,69.5598]},{"code":"LA/TN-439","program":"sota","name":"Jægervassåsen","coordinates":[19.8524,69.7104]}]}