{"lat":69.5,"lon":20.5,"programs":["sota"],"count":12,"references":[{"code":"LA/TN-072","program":"sota","name":"Nordmannviktinden","coordinates":[20.5784,69.634]},{"code":"LA/TN-085","program":"sota","name":"Kippeldalsfjellet","coordinates":[20.6444,69.6925]},{"code":"LA/TN-089","program":"sota","name":"Mohcuhatgáisá","coordinates":[20.723,69.6735]},{"code":"LA/TN-102","program":"sota","name":"Sorbmegáisá","coordinates":[20.6195,69.727]},{"code":"LA/TN-115","program":"sota","name":"Rismåltinden","coordinates":[20.7458,69.6182]},{"code":"LA/TN-116","program":"sota","name":"Stáluvárri","coordinates":[20.5905,69.6967]},{"code":"LA/TN-119","program":"sota","name":"Litledalsfjellet","coordinates":[20.6573,69.6692]},{"code":"LA/TN-150","program":"sota","name":"Mohcuhatgáisá S for","coordinates":[20.7079,69.6574]},{"code":"LA/TN-156","program":"sota","name":"Svartfjellet (Bohtanvárri)","coordinates":[20.6571,69.7377]},{"code":"LA/TN-170","program":"sota","name":"Giilavárri","coordinates":[20.5816,69.6229]},{"code":"LA/TN-217","program":"sota","name":"Stortinden","coordinates":[20.6911,69.712]},{"code":"LA/TN-242","program":"sota","name":"Skávlevárri N for","coordinates":[20.6168,69.6301]}]}