{"lat":69.75,"lon":20.25,"programs":["sota"],"count":7,"references":[{"code":"LA/TN-056","program":"sota","name":"Store Vaggastinden","coordinates":[20.2518,69.7745]},{"code":"LA/TN-117","program":"sota","name":"Peppartinden","coordinates":[20.3284,69.8787]},{"code":"LA/TN-140","program":"sota","name":"Storurdtinden","coordinates":[20.2605,69.8684]},{"code":"LA/TN-142","program":"sota","name":"Storgalten","coordinates":[20.2526,69.8855]},{"code":"LA/TN-173","program":"sota","name":"Nordausttinden","coordinates":[20.2883,69.8109]},{"code":"LA/TN-324","program":"sota","name":"Russelvfjellet","coordinates":[20.2581,69.948]},{"code":"LA/TN-376","program":"sota","name":"Lille Peppartinden","coordinates":[20.3417,69.9204]}]}