{"lat":69.75,"lon":25.75,"programs":["sota"],"count":5,"references":[{"code":"LA/FM-031","program":"sota","name":"Jorbasuoidneoaivi","coordinates":[25.7675,69.9033]},{"code":"LA/FM-041","program":"sota","name":"Cadoaivi","coordinates":[25.9532,69.8418]},{"code":"LA/FM-079","program":"sota","name":"Suonjirgáisá","coordinates":[25.841,69.9508]},{"code":"LA/FM-087","program":"sota","name":"Uhcacáisá","coordinates":[25.9559,69.9191]},{"code":"LA/FM-088","program":"sota","name":"Guivverássa","coordinates":[25.9148,69.9719]}]}