{"lat":70,"lon":20.75,"programs":["sota"],"count":8,"references":[{"code":"LA/TN-134","program":"sota","name":"Store Kågtinden","coordinates":[20.7982,70.0002]},{"code":"LA/TN-250","program":"sota","name":"Kågtindan1003 toppen","coordinates":[20.7646,70.0118]},{"code":"LA/TN-315","program":"sota","name":"Flutinden","coordinates":[20.7923,70.1941]},{"code":"LA/TN-323","program":"sota","name":"Langnestinden","coordinates":[20.8274,70.093]},{"code":"LA/TN-329","program":"sota","name":"Novetinden","coordinates":[20.8602,70.103]},{"code":"LA/TN-358","program":"sota","name":"Ramnbergtinden","coordinates":[20.884,70.0904]},{"code":"LA/TN-443","program":"sota","name":"Skattørfjellet","coordinates":[20.9373,70.021]},{"code":"LA/TN-451","program":"sota","name":"Brusen","coordinates":[20.9744,70.0537]}]}