{"lat":70,"lon":18.5,"programs":["pota","sota"],"count":7,"references":[{"code":"NO-0224","program":"pota","name":"Breivika Nature Reserve","coordinates":[18.7266,70.073]},{"code":"NO-1090","program":"pota","name":"Kvitvær Nature Reserve","coordinates":[18.6925,70.2129]},{"code":"NO-1971","program":"pota","name":"Sørfugløya Nature Reserve","coordinates":[18.522,70.099]},{"code":"NO-3131","program":"pota","name":"Ytre Karlsøy Marine Protected Area","coordinates":[18.7391,70.1701]},{"code":"LA/TN-372","program":"sota","name":"Helvetestinden","coordinates":[18.7098,70.058]},{"code":"LA/TN-391","program":"sota","name":"Trehørningen","coordinates":[18.7284,70.1098]},{"code":"LA/TN-458","program":"sota","name":"Sørfjellet","coordinates":[18.7036,70.0232]}]}