{"lat":70,"lon":19,"programs":["sota"],"count":11,"references":[{"code":"LA/TN-357","program":"sota","name":"Storalangen","coordinates":[19.1429,70.1443]},{"code":"LA/TN-370","program":"sota","name":"Keipen","coordinates":[19.2079,70.0331]},{"code":"LA/TN-373","program":"sota","name":"Skjærviktinden","coordinates":[19.1729,70.1586]},{"code":"LA/TN-388","program":"sota","name":"Stortinden","coordinates":[19.0846,70.141]},{"code":"LA/TN-403","program":"sota","name":"Rossmålen","coordinates":[19.2111,70.2266]},{"code":"LA/TN-411","program":"sota","name":"Hundhauet","coordinates":[19.2295,70.0199]},{"code":"LA/TN-421","program":"sota","name":"Litletinden","coordinates":[19.2064,70.1984]},{"code":"LA/TN-427","program":"sota","name":"Mannen","coordinates":[19.1504,70.2249]},{"code":"LA/TN-437","program":"sota","name":"Tisnesfjellet","coordinates":[19.0048,70.0209]},{"code":"LA/TN-446","program":"sota","name":"Storburan","coordinates":[19.1001,70.2381]},{"code":"LA/TN-459","program":"sota","name":"Sørskarkollen","coordinates":[19.1147,70.2125]}]}