{"lat":70,"lon":19.75,"programs":["pota","sota"],"count":11,"references":[{"code":"NO-0943","program":"pota","name":"Karlsøy Prestegård Nature Reserve","coordinates":[19.9518,70.0015]},{"code":"NO-1103","program":"pota","name":"Lågmyra Nature Reserve","coordinates":[19.9119,70.0101]},{"code":"NO-3042","program":"pota","name":"Skipsfjord Landscape Reserve","coordinates":[19.8162,70.1436]},{"code":"NO-3123","program":"pota","name":"Karlsøy prestegård Nature Reserve","coordinates":[19.9125,70.0097]},{"code":"LA/TN-240","program":"sota","name":"Vanntinden","coordinates":[19.783,70.0984]},{"code":"LA/TN-265","program":"sota","name":"Vannkista","coordinates":[19.9116,70.0966]},{"code":"LA/TN-284","program":"sota","name":"Flytinden","coordinates":[19.8855,70.1139]},{"code":"LA/TN-293","program":"sota","name":"Vanntindan","coordinates":[19.9398,70.1021]},{"code":"LA/TN-296","program":"sota","name":"Mortenstinden","coordinates":[19.8005,70.1083]},{"code":"LA/TN-375","program":"sota","name":"Mortenstinden","coordinates":[19.837,70.0864]},{"code":"LA/TN-468","program":"sota","name":"Veten på Karlsøya","coordinates":[19.888,70.0121]}]}