{"lat":70.25,"lon":26.75,"programs":["sota"],"count":6,"references":[{"code":"LA/FM-255","program":"sota","name":"Vádasbákti","coordinates":[26.9772,70.3534]},{"code":"LA/FM-321","program":"sota","name":"Rátkkanjárga","coordinates":[26.8359,70.3969]},{"code":"LA/FM-327","program":"sota","name":"Storfjellet (Njallavárri)","coordinates":[26.9822,70.4411]},{"code":"LA/FM-347","program":"sota","name":"Rássacohkka","coordinates":[26.9059,70.4227]},{"code":"LA/FM-353","program":"sota","name":"Måstangen","coordinates":[26.8771,70.3534]},{"code":"LA/FM-367","program":"sota","name":"Tverrfjellet","coordinates":[26.8645,70.4633]}]}