{"lat":70.25,"lon":28.25,"programs":["pota","sota"],"count":5,"references":[{"code":"NO-0687","program":"pota","name":"Hanadalen Nature Reserve","coordinates":[28.457,70.3848]},{"code":"NO-0696","program":"pota","name":"Harrelv Nature Reserve","coordinates":[28.2626,70.3931]},{"code":"NO-2199","program":"pota","name":"Tanamunningen Nature Reserve","coordinates":[28.3685,70.4891]},{"code":"LA/FM-307","program":"sota","name":"Roavvevárri","coordinates":[28.3518,70.3748]},{"code":"LA/FM-346","program":"sota","name":"Mátduottarcohkka","coordinates":[28.4648,70.423]}]}