{"lat":70.25,"lon":25.5,"programs":["pota","sota"],"count":6,"references":[{"code":"NO-0123","program":"pota","name":"Bihkkacohkka Nature Reserve","coordinates":[25.634,70.3514]},{"code":"NO-0185","program":"pota","name":"Børselvdalen Nature Reserve","coordinates":[25.662,70.3467]},{"code":"NO-0186","program":"pota","name":"Børselvosen Nature Reserve","coordinates":[25.5001,70.3078]},{"code":"NO-2354","program":"pota","name":"Vaekker/Väkkärä Nature Reserve","coordinates":[25.5128,70.2894]},{"code":"NO-3041","program":"pota","name":"Vækker/Väkkärä Nature Reserve","coordinates":[25.5142,70.2896]},{"code":"LA/FM-360","program":"sota","name":"Silffarvárri","coordinates":[25.7221,70.3571]}]}