{"lat":71,"lon":25.25,"programs":["pota","sota"],"count":6,"references":[{"code":"NO-0558","program":"pota","name":"Gjesværstappan Nature Reserve","coordinates":[25.3396,71.1387]},{"code":"LA/FM-049","program":"sota","name":"Gråkollfjellet, (Ártihkalnjárga)","coordinates":[25.3078,71.0587]},{"code":"LA/FM-059","program":"sota","name":"Storstappen punkt på","coordinates":[25.3309,71.1418]},{"code":"LA/FM-067","program":"sota","name":"Kjerkestappen punkt på","coordinates":[25.3614,71.1359]},{"code":"LA/FM-404","program":"sota","name":"Stortuva","coordinates":[25.2992,71.0889]},{"code":"LA/FM-426","program":"sota","name":"Stauren","coordinates":[25.3115,71.1436]}]}