{"lat":71,"lon":25.75,"programs":["pota","sota"],"count":5,"references":[{"code":"NO-2628","program":"pota","name":"Nordkapp-fjellet og Hornvika Flora and Fauna Reserve","coordinates":[25.7914,71.1634]},{"code":"LA/FM-021","program":"sota","name":"Børnesfjellet","coordinates":[25.8419,71.1217]},{"code":"LA/FM-066","program":"sota","name":"Store Kamøya punkt på, (Gáhpesuolu punkt på)","coordinates":[25.9435,71.0519]},{"code":"LA/FM-334","program":"sota","name":"Trollvikfjellet","coordinates":[25.9339,71.0893]},{"code":"LA/FM-418","program":"sota","name":"Stortind","coordinates":[25.9071,71.041]}]}