{"lat":8.25,"lon":98.5,"programs":["iota","pota"],"count":6,"references":[{"code":"AS-053","program":"iota","name":"MALAY PENINSULA WEST group","coordinates":[98.584999085,8.485000135]},{"code":"TH-0142","program":"pota","name":"Than Bok Khorani Marine National Park","coordinates":[98.7344,8.38889]},{"code":"TH-0735","program":"pota","name":"Ao Luek Chaloem Phrakiat Health Park Park","coordinates":[98.7425,8.39493]},{"code":"TH-0461","program":"pota","name":"Ao Phang Nga Marine National Park","coordinates":[98.508,8.40494]},{"code":"TH-0737","program":"pota","name":"Kanchanaphisek Park Park","coordinates":[98.5195,8.44145]},{"code":"TH-0738","program":"pota","name":"Somdej Phra Srinagarindra Park, Phang Nga Province Prefectural Park","coordinates":[98.5183,8.43727]}]}