{"lat":9.25,"lon":-84,"programs":["sota"],"count":9,"references":[{"code":"TI/PU-039","program":"sota","name":"Laguna","coordinates":[-83.8834,9.3307]},{"code":"TI/PU-058","program":"sota","name":"Fila San Andres","coordinates":[-83.9227,9.3347]},{"code":"TI/SJ-018","program":"sota","name":"Cerro Temblor","coordinates":[-83.7766,9.4616]},{"code":"TI/SJ-030","program":"sota","name":"Cerros San Antonio","coordinates":[-83.8086,9.3896]},{"code":"TI/SJ-034","program":"sota","name":"Cerro San Antonio","coordinates":[-83.7783,9.3519]},{"code":"TI/SJ-035","program":"sota","name":"Cerro Parras","coordinates":[-83.9229,9.4625]},{"code":"TI/SJ-042","program":"sota","name":"Tierras","coordinates":[-83.9092,9.4051]},{"code":"TI/SJ-045","program":"sota","name":"Cerros Savegre","coordinates":[-83.9625,9.4817]},{"code":"TI/SJ-053","program":"sota","name":"Cerro Guabas","coordinates":[-83.9861,9.4342]}]}