{"lat":9.5,"lon":-84.5,"programs":["pota","sota"],"count":7,"references":[{"code":"CR-0011","program":"pota","name":"La Cangreja National Park","coordinates":[-84.3979,9.70322]},{"code":"TI/PU-079","program":"sota","name":"Fila San Julian","coordinates":[-84.4972,9.5673]},{"code":"TI/SJ-033","program":"sota","name":"Cerro Cangreja Rey","coordinates":[-84.3682,9.7251]},{"code":"TI/SJ-054","program":"sota","name":"Cerro Tigre","coordinates":[-84.4235,9.6934]},{"code":"TI/SJ-058","program":"sota","name":"Cerro Cristo Rey","coordinates":[-84.4361,9.6656]},{"code":"TI/SJ-060","program":"sota","name":"Cerro San Miguel","coordinates":[-84.3697,9.6503]},{"code":"TI/SJ-061","program":"sota","name":"Alto Colacha","coordinates":[-84.4989,9.5797]}]}