{"lat":9.75,"lon":-84.25,"programs":["pota","sota"],"count":6,"references":[{"code":"CR-0025","program":"pota","name":"Parque Metropolitano La Sabana State Park","coordinates":[-84.1019,9.93472]},{"code":"CR-0029","program":"pota","name":"PARQUE DEL ESTE Recreation Park","coordinates":[-84.0116,9.941]},{"code":"CR-0038","program":"pota","name":"Parque de la Paz Memorial Parkway","coordinates":[-84.0702,9.91331]},{"code":"TI/SJ-006","program":"sota","name":"Cerro Cedral","coordinates":[-84.146,9.8596]},{"code":"TI/SJ-029","program":"sota","name":"Loma Salitral","coordinates":[-84.0466,9.8792]},{"code":"TI/SJ-032","program":"sota","name":"Alto La Escalera","coordinates":[-84.1874,9.7959]}]}