{"lat":9.75,"lon":98.5,"programs":["pota"],"count":5,"references":[{"code":"TH-0089","program":"pota","name":"Namtok Ngao National Park","coordinates":[98.6277,9.85649]},{"code":"TH-0078","program":"pota","name":"Mu Ko Ranong Marine National Park","coordinates":[98.5869,9.87477]},{"code":"TH-0700","program":"pota","name":"Raksawarin Arboretum Conservation Reserve","coordinates":[98.6526,9.95747]},{"code":"TH-0701","program":"pota","name":"Nawamintharachini Chaloem Phrakiat Park Park","coordinates":[98.6277,9.89551]},{"code":"TH-0702","program":"pota","name":"Chaloem Phrakiat Rama 9 Public Park Park","coordinates":[98.6196,9.8516]}]}