{"lat":9.75,"lon":-84.75,"programs":["iota","pota","sota"],"count":5,"references":[{"code":"NA-116","program":"iota","name":"PUNTARENAS PROVINCE WEST group","coordinates":[-84.61500168,9.75]},{"code":"CR-0031","program":"pota","name":"CARARA National Park","coordinates":[-84.6063,9.78258]},{"code":"TI/PU-044","program":"sota","name":"Cerros Quebrada Bonita","coordinates":[-84.5746,9.7571]},{"code":"TI/SJ-052","program":"sota","name":"Cerro Jamaica","coordinates":[-84.5431,9.7543]},{"code":"TI/SJ-059","program":"sota","name":"Alto Surtubal","coordinates":[-84.5383,9.7982]}]}